INP [ 70] $GNRMC,165039.00,A,3949.30041,N,10505.71003,W,0.007,,180520,,,A,V*02\r\n
INP [ 35] $GNVTG,,T,,M,0.007,N,0.012,K,A*39\r\n
INP [ 77] $GNGGA,165039.00,3949.30041,N,10505.71003,W,1,12,0.51,1724.4,M,-21.5,M,,*45\r\n
INP [ 64] $GNGSA,A,3,01,07,08,11,13,15,17,19,28,30,,,0.97,0.51,0.82,1*0E\r\n
INP [ 58] $GNGSA,A,3,68,77,78,86,69,88,87,,,,,,0.97,0.51,0.82,2*0D\r\n
INP [ 60] $GNGSA,A,3,30,02,03,07,25,36,08,11,,,,,0.97,0.51,0.82,3*0C\r\n
INP [ 54] $GNGSA,A,3,30,29,35,36,26,,,,,,,,0.97,0.51,0.82,4*0B\r\n
INP [ 72] $GPGSV,3,1,10,01,32,093,43,07,46,133,47,08,11,044,40,11,32,058,44,1*6D\r\n
INP [ 72] $GPGSV,3,2,10,13,38,289,43,15,15,311,41,17,46,211,49,19,21,213,43,1*68\r\n
INP [ 46] $GPGSV,3,3,10,28,64,313,47,30,81,139,51,1*6A\r\n
INP [ 70] $GPGSV,3,1,10,01,32,093,45,07,46,133,44,08,11,044,40,11,32,058,,6*6F\r\n
INP [ 68] $GPGSV,3,2,10,13,38,289,,15,15,311,36,17,46,211,45,19,21,213,,6*63\r\n
INP [ 44] $GPGSV,3,3,10,28,64,313,,30,81,139,49,6*67\r\n
INP [ 72] $GLGSV,3,1,11,67,01,222,09,68,17,267,43,69,14,318,46,76,09,106,42,1*76\r\n
INP [ 72] $GLGSV,3,2,11,77,54,071,41,78,48,331,51,79,04,302,43,81,06,190,41,1*73\r\n
INP [ 59] $GLGSV,3,3,11,86,11,026,42,87,62,077,52,88,50,159,51,1*44\r\n
INP [ 72] $GLGSV,3,1,11,67,01,222,09,68,17,267,41,69,14,318,45,76,09,106,45,3*72\r\n
INP [ 72] $GLGSV,3,2,11,77,54,071,42,78,48,331,46,79,04,302,37,81,06,190,46,3*70\r\n
INP [ 59] $GLGSV,3,3,11,86,11,026,39,87,62,077,44,88,50,159,47,3*4A\r\n
INP [ 72] $GAGSV,3,1,10,02,57,314,49,03,17,215,42,07,11,318,41,08,27,269,44,7*76\r\n
INP [ 72] $GAGSV,3,2,10,11,43,075,44,12,08,032,30,24,08,094,29,25,55,068,48,7*72\r\n
INP [ 46] $GAGSV,3,3,10,30,11,287,33,36,40,149,46,7*73\r\n
INP [ 72] $GAGSV,3,1,10,02,57,314,50,03,17,215,42,07,11,318,43,08,27,269,47,2*7A\r\n
INP [ 72] $GAGSV,3,2,10,11,43,075,43,12,08,032,27,24,08,094,33,25,55,068,50,2*74\r\n
INP [ 46] $GAGSV,3,3,10,30,11,287,37,36,40,149,48,2*7C\r\n
INP [ 70] $GBGSV,2,1,07,14,00,326,,21,05,256,37,26,16,304,45,29,66,152,52,1*7C\r\n
INP [ 59] $GBGSV,2,2,07,30,40,053,50,35,22,200,48,36,49,106,50,1*47\r\n
INP [ 64] $GBGSV,2,1,07,14,00,326,,21,05,256,,26,16,304,,29,66,152,,3*7C\r\n
INP [ 53] $GBGSV,2,2,07,30,40,053,,35,22,200,,36,49,106,,3*49\r\n
INP [ 52] $GNGLL,3949.30041,N,10505.71003,W,165039.00,A,A*68\r\n
INP [ 44] \xb5b\x01\x14$\0\0\0\0\0P\xed\xc3\b\b\xc0[\xc1\x1eN\xbc\x17\xcf\xfb\x19\0\xe4O\x1a\0\xfb!\x01\x01\x89\x12\0\0\xc4\x1c\0\0-]
INP [ 70] $GNRMC,165040.00,A,3949.30041,N,10505.71003,W,0.007,,180520,,,A,V*0C\r\n
LOC 2020-05-18T09:43:20.678-07:00+01T 00:00:00.055 34.0.0        18204 vagabund
TIM 2020-05-18T16:50:40.000-00:00+00Z 0pps                             GNSS    
POS 39°49'18.024"N, 105°05'42.601"W    39.8216735, -105.0951671        GNSS    
ALT    5657.41'   1724.400m                                            GNSS    
COG N     0.000000000°T    0.000000000°M                               GNSS    
SOG       0.008mph       0.007000knots       0.012000kph               GNSS    
INT RMC [12] 1dmy 1inc (  9 10  5  0  0  4  4 )                    0B  tumblewe
HPP   39.821673433, -105.095167205 ±     0.4745m                       GNSS    
HPA   1724.3881m MSL   1702.8631m WGS84 ±     0.7364m                  GNSS    
NGS  39 49 18.02435(N) 105 05 42.60193(W)                              GNSS    
ACT [1]  {     1     7     8    11    13    15 } [ 6] [10] [30] [30]   NAVSTAR 
ACT [2]  {    17    19    28    30             } [ 4] [10] [30] [30]   NAVSTAR 
ACT [1]  {    68    77    78    86    69    88 } [ 6] [ 7] [30] [30]   GLONASS 
ACT [2]  {    87                               } [ 1] [ 7] [30] [30]   GLONASS 
ACT [1]  {    30     2     3     7    25    36 } [ 6] [ 8] [30] [30]   GALILEO 
ACT [2]  {     8    11                         } [ 2] [ 8] [30] [30]   GALILEO 
ACT [1]  {    30    29    35    36    26       } [ 5] [ 5] [30] [30]   COMPASS 
DOP   0.97pdop   0.51hdop   0.82vdop                                   NAVSTAR 
DOP   0.97pdop   0.51hdop   0.82vdop                                   GLONASS 
DOP   0.97pdop   0.51hdop   0.82vdop                                   GALILEO 
DOP   0.97pdop   0.51hdop   0.82vdop                                   COMPASS 
SAT [  1]     1id  32°elv   93°azm   45dBHz  6sig <                    NAVSTAR 
SAT [  2]     7id  46°elv  133°azm   44dBHz  6sig <                    NAVSTAR 
SAT [  3]     8id  11°elv   44°azm   40dBHz  6sig <                    NAVSTAR 
SAT [  4]    11id  32°elv   58°azm    0dBHz  6sig <   !                NAVSTAR 
SAT [  5]    13id  38°elv  289°azm    0dBHz  6sig <   !                NAVSTAR 
SAT [  6]    15id  15°elv  311°azm   36dBHz  6sig <                    NAVSTAR 
SAT [  7]    17id  46°elv  211°azm   45dBHz  6sig <                    NAVSTAR 
SAT [  8]    19id  21°elv  213°azm    0dBHz  6sig <   !                NAVSTAR 
SAT [  9]    28id  64°elv  313°azm    0dBHz  6sig <   !                NAVSTAR 
SAT [ 10]    30id  81°elv  139°azm   49dBHz  6sig <                    NAVSTAR 
SAT [ 11]    67id   1°elv  222°azm    9dBHz  3sig                      GLONASS 
SAT [ 12]    68id  17°elv  267°azm   41dBHz  3sig <                    GLONASS 
SAT [ 13]    69id  14°elv  318°azm   45dBHz  3sig <                    GLONASS 
SAT [ 14]    76id   9°elv  106°azm   45dBHz  3sig                      GLONASS 
SAT [ 15]    77id  54°elv   71°azm   42dBHz  3sig <                    GLONASS 
SAT [ 16]    78id  48°elv  331°azm   46dBHz  3sig <                    GLONASS 
SAT [ 17]    79id   4°elv  302°azm   37dBHz  3sig                      GLONASS 
SAT [ 18]    81id   6°elv  190°azm   46dBHz  3sig                      GLONASS 
SAT [ 19]    86id  11°elv   26°azm   39dBHz  3sig <                    GLONASS 
SAT [ 20]    87id  62°elv   77°azm   44dBHz  3sig <                    GLONASS 
SAT [ 21]    88id  50°elv  159°azm   47dBHz  3sig <                    GLONASS 
SAT [ 22]     2id  57°elv  314°azm   50dBHz  2sig <                    GALILEO 
SAT [ 23]     3id  17°elv  215°azm   42dBHz  2sig <                    GALILEO 
SAT [ 24]     7id  11°elv  318°azm   43dBHz  2sig <                    GALILEO 
SAT [ 25]     8id  27°elv  269°azm   47dBHz  2sig <                    GALILEO 
SAT [ 26]    11id  43°elv   75°azm   43dBHz  2sig <                    GALILEO 
SAT [ 27]    12id   8°elv   32°azm   27dBHz  2sig                      GALILEO 
SAT [ 28]    24id   8°elv   94°azm   33dBHz  2sig                      GALILEO 
SAT [ 29]    25id  55°elv   68°azm   50dBHz  2sig <                    GALILEO 
SAT [ 30]    30id  11°elv  287°azm   37dBHz  2sig <                    GALILEO 
SAT [ 31]    36id  40°elv  149°azm   48dBHz  2sig <                    GALILEO 
SAT [ 32]    14id   0°elv  326°azm    0dBHz  3sig     !                COMPASS 
SAT [ 33]    21id   5°elv  256°azm    0dBHz  3sig     !                COMPASS 
SAT [ 34]    26id  16°elv  304°azm    0dBHz  3sig <   !                COMPASS 
SAT [ 35]    29id  66°elv  152°azm    0dBHz  3sig <   !                COMPASS 
SAT [ 36]    30id  40°elv   53°azm    0dBHz  3sig <   !                COMPASS 
SAT [ 37]    35id  22°elv  200°azm    0dBHz  3sig <   !                COMPASS 
SAT [ 38]    36id  49°elv  106°azm    0dBHz  3sig <   !                COMPASS 
