$GPZDA,165116.00,15,09,2023,,*6C\r\n
$GPRMC,165116.00,A,3947.6537061,N,10509.2022478,W,0.0,,150923,7.7,E,D*09\r\n
$GPGLL,3947.6537061,N,10509.2022478,W,165116.00,A,D*77\r\n
$GPGGA,165116.00,3947.6537061,N,10509.2022478,W,2,29,0.5,1709.6607,M,-20.7761,M,3.6,0133*40\r\n
$GPVTG,,T,,M,0.01,N,0.01,K,D*26\r\n
$GPGSA,A,3,10,15,18,23,24,27,29,32,,,,,0.9,0.5,0.8*32\r\n
$GPGSA,A,3,65,71,72,86,87,88,,,,,,,0.9,0.5,0.8*37\r\n
$GPGSA,A,3,04,05,09,10,11,34,36,,,,,,0.9,0.5,0.8*3D\r\n
$GPGSA,A,3,11,14,21,28,33,34,42,43,,,,,0.9,0.5,0.8*3C\r\n
$GPGSV,4,1,14,18,72,093,35,29,12,170,44,13,11,039,29,24,24,109,32*7D\r\n
$GPGSV,4,2,14,32,14,208,35,27,33,303,40,15,41,053,35,10,45,276,40*75\r\n
$GPGSV,4,3,14,23,71,340,41,08,05,326,,16,05,266,,44,42,198,49*7F\r\n
$GPGSV,4,4,14,46,38,215,50,48,40,209,50*70\r\n
$GLGSV,2,1,07,72,80,297,34,71,39,033,46,88,21,326,32,65,28,230,44*64\r\n
$GLGSV,2,2,07,86,44,139,43,87,74,339,39,80,01,029,*5D\r\n
$GAGSV,2,1,08,36,79,000,43,10,16,122,31,04,33,048,34,34,28,312,37*6C\r\n
$GAGSV,2,2,08,05,33,202,43,11,42,116,38,09,74,119,40,30,02,293,*67\r\n
$GBGSV,3,1,09,42,83,310,36,21,37,049,38,12,17,151,21,33,31,240,48*60\r\n
$GBGSV,3,2,09,28,18,317,36,34,45,164,51,14,59,246,45,11,68,179,46*6A\r\n
$GBGSV,3,3,09,43,70,266,43*57\r\n
$GPZDA,165117.00,15,09,2023,,*6D\r\n
$GPRMC,165117.00,A,3947.6537061,N,10509.2022449,W,0.0,,150923,7.7,E,D*0A\r\n
$GPGLL,3947.6537061,N,10509.2022449,W,165117.00,A,D*74\r\n
$GPGGA,165117.00,3947.6537061,N,10509.2022449,W,2,29,0.5,1709.6624,M,-20.7761,M,1.6,0133*40\r\n
$GPVTG,,T,,M,0.00,N,0.01,K,D*27\r\n
$GPGSA,A,3,10,15,18,23,24,27,29,32,,,,,0.9,0.5,0.8*32\r\n
$GPGSA,A,3,65,71,72,86,87,88,,,,,,,0.9,0.5,0.8*37\r\n
$GPGSA,A,3,04,05,09,10,11,34,36,,,,,,0.9,0.5,0.8*3D\r\n
$GPGSA,A,3,11,14,21,28,33,34,42,43,,,,,0.9,0.5,0.8*3C\r\n
$GPGSV,4,1,14,18,72,093,34,29,12,170,43,13,11,039,29,24,24,109,32*7B\r\n
$GPGSV,4,2,14,32,14,208,35,27,33,303,40,15,41,053,22,10,45,276,40*73\r\n
$GPGSV,4,3,14,23,71,340,40,08,05,326,,16,05,266,,44,42,198,49*7E\r\n
$GPGSV,4,4,14,46,38,215,49,48,40,209,50*78\r\n
$GLGSV,2,1,07,72,80,297,34,71,39,033,46,88,21,326,31,65,28,230,44*67\r\n
$GLGSV,2,2,07,86,44,139,42,87,74,339,39,80,01,029,*5C\r\n
$GAGSV,2,1,08,36,79,000,43,10,16,122,30,04,33,048,34,34,28,312,36*6C\r\n
$GAGSV,2,2,08,05,33,202,43,11,42,116,38,09,74,119,40,30,02,293,*67\r\n
$GBGSV,3,1,09,42,83,310,36,21,37,049,38,12,17,151,20,33,31,240,48*61\r\n
$GBGSV,3,2,09,28,18,317,36,34,45,164,51,14,59,246,45,11,68,179,46*6A\r\n
$GBGSV,3,3,09,43,70,266,43*57\r\n
$GPZDA,165118.00,15,09,2023,,*62\r\n
$GPRMC,165118.00,A,3947.6537052,N,10509.2022419,W,0.0,,150923,7.7,E,D*00\r\n
$GPGLL,3947.6537052,N,10509.2022419,W,165118.00,A,D*7E\r\n
$GPGGA,165118.00,3947.6537052,N,10509.2022419,W,2,29,0.5,1709.6605,M,-20.7761,M,2.6,0133*4A\r\n
$GPVTG,,T,,M,0.01,N,0.01,K,D*26\r\n
$GPGSA,A,3,10,15,18,23,24,27,29,32,,,,,0.9,0.5,0.8*32\r\n
$GPGSA,A,3,65,71,72,86,87,88,,,,,,,0.9,0.5,0.8*37\r\n
$GPGSA,A,3,04,05,09,10,11,34,36,,,,,,0.9,0.5,0.8*3D\r\n
$GPGSA,A,3,11,14,21,28,33,34,42,43,,,,,0.9,0.5,0.8*3C\r\n
$GPGSV,4,1,14,18,72,093,34,29,12,170,43,13,11,039,29,24,24,109,32*7B\r\n
$GPGSV,4,2,14,32,14,208,35,27,33,303,40,15,41,053,35,10,45,276,40*75\r\n
$GPGSV,4,3,14,23,71,340,41,08,05,326,,16,05,266,,44,42,198,49*7F\r\n
$GPGSV,4,4,14,46,38,215,50,48,40,209,50*70\r\n
$GLGSV,2,1,07,72,80,297,35,71,39,033,46,88,21,326,31,65,28,230,44*66\r\n
$GLGSV,2,2,07,86,44,139,43,87,74,339,40,80,01,029,*53\r\n
$GAGSV,2,1,08,36,79,000,43,10,16,122,30,04,33,048,34,34,28,312,36*6C\r\n
$GAGSV,2,2,08,05,33,202,43,11,42,116,38,09,74,119,40,30,02,293,*67\r\n
$GBGSV,3,1,09,42,83,310,37,21,37,049,38,12,17,151,21,33,31,240,48*61\r\n
$GBGSV,3,2,09,28,18,317,36,34,45,164,51,14,59,246,45,11,68,179,46*6A\r\n
$GBGSV,3,3,09,43,70,266,43*57\r\n
$GPZDA,165119.00,15,09,2023,,*63\r\n
$GPRMC,165119.00,A,3947.6537039,N,10509.2022405,W,0.0,,150923,7.7,E,D*01\r\n
$GPGLL,3947.6537039,N,10509.2022405,W,165119.00,A,D*7F\r\n
$GPGGA,165119.00,3947.6537039,N,10509.2022405,W,2,29,0.5,1709.6628,M,-20.7761,M,3.7,0133*44\r\n
$GPVTG,,T,,M,0.01,N,0.01,K,D*26\r\n
$GPGSA,A,3,10,18,23,24,27,29,32,,,,,,0.9,0.5,0.7*39\r\n
$GPGSA,A,3,65,71,72,86,87,88,,,,,,,0.9,0.5,0.7*38\r\n
$GPGSA,A,3,04,05,09,10,11,34,36,,,,,,0.9,0.5,0.7*32\r\n
$GPGSA,A,3,11,12,14,21,28,33,34,42,43,,,,0.9,0.5,0.7*30\r\n
$GPGSV,4,1,14,18,72,093,34,29,12,170,44,13,11,039,29,24,24,109,32*7C\r\n
$GPGSV,4,2,14,32,14,208,35,27,33,303,40,15,41,053,22,10,45,276,40*73\r\n
$GPGSV,4,3,14,23,71,340,41,08,05,326,,16,05,266,,44,42,198,49*7F\r\n
$GPGSV,4,4,14,46,38,215,50,48,40,209,50*70\r\n
$GLGSV,2,1,07,72,80,297,36,71,39,033,46,88,21,326,31,65,28,230,44*65\r\n
$GLGSV,2,2,07,86,44,139,43,87,74,339,39,80,01,029,*5D\r\n
$GAGSV,2,1,08,36,79,000,43,10,16,122,30,04,33,048,34,34,28,312,36*6C\r\n
$GAGSV,2,2,08,05,33,202,43,11,42,116,38,09,74,119,40,30,02,293,*67\r\n
$GBGSV,3,1,09,42,83,311,37,21,37,049,38,12,17,151,39,33,31,240,48*69\r\n
$GBGSV,3,2,09,28,18,317,36,34,45,164,51,14,59,246,45,11,68,179,46*6A\r\n
$GBGSV,3,3,09,43,70,266,43*57\r\n
$GPZDA,165120.00,15,09,2023,,*69\r\n
$GPRMC,165120.00,A,3947.6537031,N,10509.2022400,W,0.0,,150923,7.7,E,D*06\r\n
$GPGLL,3947.6537031,N,10509.2022400,W,165120.00,A,D*78\r\n
$GPGGA,165120.00,3947.6537031,N,10509.2022400,W,2,28,0.5,1709.6653,M,-20.7761,M,4.7,0133*49\r\n
$GPVTG,,T,,M,0.00,N,0.01,K,D*27\r\n
$GPGSA,A,3,10,18,23,24,27,29,32,,,,,,0.9,0.5,0.8*36\r\n
$GPGSA,A,3,65,71,72,86,87,88,,,,,,,0.9,0.5,0.8*37\r\n
$GPGSA,A,3,04,05,09,10,11,34,36,,,,,,0.9,0.5,0.8*3D\r\n
$GPGSA,A,3,11,14,21,28,33,34,42,43,,,,,0.9,0.5,0.8*3C\r\n
$GPGSV,4,1,14,18,72,093,35,29,12,170,43,13,11,039,30,24,24,109,32*72\r\n
$GPGSV,4,2,14,32,14,208,35,27,33,303,41,15,41,053,20,10,45,276,40*70\r\n
$GPGSV,4,3,14,23,71,340,41,08,05,326,,16,05,266,,44,42,198,49*7F\r\n
$GPGSV,4,4,14,46,38,215,50,48,40,209,50*70\r\n
$GLGSV,2,1,07,72,80,297,35,71,39,033,46,88,21,326,31,65,28,230,44*66\r\n
$GLGSV,2,2,07,86,44,139,43,87,74,339,39,80,01,029,*5D\r\n
$GAGSV,2,1,08,36,79,000,43,10,16,122,30,04,33,048,34,34,28,312,36*6C\r\n
$GAGSV,2,2,08,05,33,202,44,11,42,116,38,09,74,119,40,30,02,293,*60\r\n
$GBGSV,3,1,09,42,83,311,36,21,37,049,38,12,17,151,19,33,31,240,48*6A\r\n
$GBGSV,3,2,09,28,18,317,36,34,45,164,51,14,59,246,45,11,68,179,46*6A\r\n
$GBGSV,3,3,09,43,70,266,43*57\r\n
$GPZDA,165121.00,15,09,2023,,*68\r\n
$GPRMC,165121.00,A,3947.6537027,N,10509.2022395,W,0.0,,150923,7.7,E,D*0B\r\n
$GPGLL,3947.6537027,N,10509.2022395,W,165121.00,A,D*75\r\n
$GPGGA,165121.00,3947.6537027,N,10509.2022395,W,2,28,0.5,1709.6669,M,-20.7761,M,4.9,0133*43\r\n
$GPVTG,,T,,M,0.00,N,0.01,K,D*27\r\n
$GPGSA,A,3,10,18,23,24,27,29,32,,,,,,0.9,0.5,0.8*36\r\n
$GPGSA,A,3,65,71,72,86,87,88,,,,,,,0.9,0.5,0.8*37\r\n
$GPGSA,A,3,04,05,09,10,11,34,36,,,,,,0.9,0.5,0.8*3D\r\n
$GPGSA,A,3,11,14,21,28,33,34,42,43,,,,,0.9,0.5,0.8*3C\r\n
$GPGSV,4,1,14,18,72,093,35,29,12,170,43,13,11,039,30,24,24,109,31*71\r\n
$GPGSV,4,2,14,32,14,208,35,27,33,303,41,15,41,053,21,10,45,276,40*71\r\n
$GPGSV,4,3,14,23,71,340,41,08,05,326,,16,05,266,,44,42,198,49*7F\r\n
$GPGSV,4,4,14,46,38,215,50,48,40,209,50*70\r\n
$GLGSV,2,1,07,72,80,297,35,71,39,033,46,88,21,326,31,65,28,230,44*66\r\n
$GLGSV,2,2,07,86,44,139,42,87,74,339,39,80,01,029,*5C\r\n
$GAGSV,2,1,08,36,79,000,43,10,16,122,30,04,33,048,34,34,28,312,36*6C\r\n
$GAGSV,2,2,08,05,33,202,43,11,42,116,38,09,74,119,40,30,02,293,*67\r\n
$GBGSV,3,1,09,42,83,311,36,21,37,049,39,12,17,151,22,33,31,240,48*63\r\n
$GBGSV,3,2,09,28,18,317,36,34,45,164,51,14,59,246,45,11,68,179,46*6A\r\n
$GBGSV,3,3,09,43,70,266,43*57\r\n
$GPZDA,165122.00,15,09,2023,,*6B\r\n
$GPRMC,165122.00,A,3947.6537012,N,10509.2022389,W,0.0,,150923,7.7,E,D*03\r\n
$GPGLL,3947.6537012,N,10509.2022389,W,165122.00,A,D*7D\r\n
$GPGGA,165122.00,3947.6537012,N,10509.2022389,W,2,28,0.5,1709.6721,M,-20.7761,M,3.3,0133*4B\r\n
$GPVTG,,T,,M,0.01,N,0.02,K,D*25\r\n
$GPGSA,A,3,10,18,23,24,27,29,32,,,,,,0.9,0.5,0.8*36\r\n
$GPGSA,A,3,65,71,72,86,87,88,,,,,,,0.9,0.5,0.8*37\r\n
$GPGSA,A,3,04,05,09,10,11,34,36,,,,,,0.9,0.5,0.8*3D\r\n
$GPGSA,A,3,11,14,21,28,33,34,42,43,,,,,0.9,0.5,0.8*3C\r\n
$GPGSV,4,1,14,18,72,093,35,29,12,170,43,13,11,039,29,24,24,109,31*79\r\n
$GPGSV,4,2,14,32,14,208,34,27,33,303,41,15,41,052,24,10,45,276,39*7A\r\n
$GPGSV,4,3,14,23,71,340,41,08,05,326,,16,05,266,,44,42,198,49*7F\r\n
$GPGSV,4,4,14,46,38,215,50,48,40,209,50*70\r\n
$GLGSV,2,1,07,72,80,297,36,71,39,033,46,88,21,326,31,65,28,230,44*65\r\n
$GLGSV,2,2,07,86,44,139,42,87,74,339,39,80,01,029,*5C\r\n
$GAGSV,2,1,08,36,79,000,43,10,16,122,30,04,33,047,34,34,28,312,36*63\r\n
$GAGSV,2,2,08,05,33,202,43,11,42,116,38,09,74,119,40,30,02,293,*67\r\n
$GBGSV,3,1,09,42,83,311,36,21,37,049,39,12,17,151,22,33,31,240,48*63\r\n
$GBGSV,3,2,09,28,18,317,36,34,45,164,51,14,59,246,45,11,68,179,46*6A\r\n
$GBGSV,3,3,09,43,70,266,43*57\r\n
$GPZDA,165123.00,15,09,2023,,*6A\r\n
$GPRMC,165123.00,A,3947.6537007,N,10509.2022381,W,0.0,,150923,7.7,E,D*0E\r\n
$GPGLL,3947.6537007,N,10509.2022381,W,165123.00,A,D*70\r\n
$GPGGA,165123.00,3947.6537007,N,10509.2022381,W,2,29,0.5,1709.6681,M,-20.7761,M,1.6,0133*4B\r\n
$GPVTG,,T,,M,0.00,N,0.00,K,D*26\r\n
$GPGSA,A,3,10,15,18,23,24,27,29,32,,,,,0.9,0.5,0.8*32\r\n
$GPGSA,A,3,65,71,72,86,87,88,,,,,,,0.9,0.5,0.8*37\r\n
$GPGSA,A,3,04,05,09,10,11,34,36,,,,,,0.9,0.5,0.8*3D\r\n
$GPGSA,A,3,11,14,21,28,33,34,42,43,,,,,0.9,0.5,0.8*3C\r\n
$GPGSV,4,1,14,18,72,093,34,29,12,170,43,13,11,039,29,24,24,109,31*78\r\n
$GPGSV,4,2,14,32,14,208,34,27,33,303,40,15,41,052,34,10,45,276,39*7A\r\n
$GPGSV,4,3,14,23,71,340,40,08,05,326,,16,05,266,,44,42,198,49*7E\r\n
$GPGSV,4,4,14,46,38,215,50,48,40,209,50*70\r\n
$GLGSV,2,1,07,72,80,297,35,71,39,033,46,88,21,326,30,65,28,230,44*67\r\n
$GLGSV,2,2,07,86,44,139,43,87,74,339,40,80,01,029,*53\r\n
$GAGSV,2,1,08,36,79,000,43,10,16,122,30,04,33,047,34,34,28,312,36*63\r\n
$GAGSV,2,2,08,05,33,202,43,11,42,116,38,09,74,119,40,30,02,293,*67\r\n
$GBGSV,3,1,09,42,83,311,36,21,37,049,39,12,17,151,21,33,31,240,48*60\r\n
$GBGSV,3,2,09,28,18,317,36,34,45,164,51,14,59,246,45,11,68,179,46*6A\r\n
$GBGSV,3,3,09,43,70,266,43*57\r\n
$GPZDA,165124.00,15,09,2023,,*6D\r\n
$GPRMC,165124.00,A,3947.6536992,N,10509.2022347,W,0.0,,150923,7.7,E,D*07\r\n
$GPGLL,3947.6536992,N,10509.2022347,W,165124.00,A,D*79\r\n
$GPGGA,165124.00,3947.6536992,N,10509.2022347,W,2,29,0.5,1709.6694,M,-20.7761,M,2.6,0133*45\r\n
$GPVTG,,T,,M,0.01,N,0.02,K,D*25\r\n
$GPGSA,A,3,10,15,18,23,24,27,29,32,,,,,0.9,0.5,0.8*32\r\n
$GPGSA,A,3,65,71,72,86,87,88,,,,,,,0.9,0.5,0.8*37\r\n
$GPGSA,A,3,04,05,09,10,11,34,36,,,,,,0.9,0.5,0.8*3D\r\n
$GPGSA,A,3,11,14,21,28,33,34,42,43,,,,,0.9,0.5,0.8*3C\r\n
$GPGSV,4,1,14,18,72,093,35,29,12,170,43,13,11,039,29,24,24,109,31*79\r\n
$GPGSV,4,2,14,32,14,208,35,27,33,303,40,15,41,052,34,10,45,276,39*7B\r\n
$GPGSV,4,3,14,23,71,340,41,08,05,326,,16,05,266,,44,42,198,49*7F\r\n
$GPGSV,4,4,14,46,38,215,50,48,40,209,50*70\r\n
$GLGSV,2,1,07,72,80,297,35,71,39,033,46,88,21,326,30,65,28,230,44*67\r\n
$GLGSV,2,2,07,86,44,139,43,87,74,339,40,80,01,029,*53\r\n
$GAGSV,2,1,08,36,79,000,43,10,16,122,30,04,33,047,34,34,28,312,36*63\r\n
$GAGSV,2,2,08,05,33,202,43,11,42,116,38,09,74,119,41,30,02,293,*66\r\n
$GBGSV,3,1,09,42,83,311,35,21,37,049,39,12,17,151,23,33,31,240,48*61\r\n
$GBGSV,3,2,09,28,18,317,37,34,45,164,51,14,59,246,45,11,68,179,46*6B\r\n
$GBGSV,3,3,09,43,70,266,43*57\r\n
$GPZDA,165125.00,15,09,2023,,*6C\r\n
$GPRMC,165125.00,A,3947.6536986,N,10509.2022328,W,0.0,,150923,7.7,E,D*0A\r\n
$GPGLL,3947.6536986,N,10509.2022328,W,165125.00,A,D*74\r\n
$GPGGA,165125.00,3947.6536986,N,10509.2022328,W,2,29,0.5,1709.6688,M,-20.7761,M,3.6,0133*44\r\n
$GPVTG,,T,,M,0.01,N,0.01,K,D*26\r\n
$GPGSA,A,3,10,15,18,23,24,27,29,32,,,,,0.9,0.5,0.8*32\r\n
$GPGSA,A,3,65,71,72,86,87,88,,,,,,,0.9,0.5,0.8*37\r\n
$GPGSA,A,3,04,05,09,10,11,34,36,,,,,,0.9,0.5,0.8*3D\r\n
$GPGSA,A,3,11,14,21,28,33,34,42,43,,,,,0.9,0.5,0.8*3C\r\n
$GPGSV,4,1,14,18,72,093,35,29,12,170,43,13,11,039,29,24,24,109,30*78\r\n
$GPGSV,4,2,14,32,14,208,35,27,33,303,40,15,41,052,34,10,45,276,39*7B\r\n
$GPGSV,4,3,14,23,71,340,40,08,05,326,,16,05,266,,44,42,198,49*7E\r\n
$GPGSV,4,4,14,46,38,215,49,48,40,209,50*78\r\n
$GLGSV,2,1,07,72,80,298,35,71,39,033,45,88,21,326,30,65,28,230,44*6B\r\n
$GLGSV,2,2,07,86,44,139,43,87,75,339,40,80,01,029,*52\r\n
$GAGSV,2,1,08,36,79,000,43,10,15,122,30,04,33,047,34,34,28,312,36*60\r\n
$GAGSV,2,2,08,05,33,202,43,11,42,116,38,09,74,119,40,30,02,293,*67\r\n
$GBGSV,3,1,09,42,83,311,35,21,37,049,39,12,17,151,22,33,31,240,48*60\r\n
$GBGSV,3,2,09,28,18,317,36,34,45,164,51,14,59,246,45,11,68,179,46*6A\r\n
$GBGSV,3,3,09,43,70,266,43*57\r\n
$GPZDA,165126.00,15,09,2023,,*6F\r\n
$GPRMC,165126.00,A,3947.6536999,N,10509.2022313,W,0.0,,150923,7.7,E,D*0F\r\n
$GPGLL,3947.6536999,N,10509.2022313,W,165126.00,A,D*71\r\n
$GPGGA,165126.00,3947.6536999,N,10509.2022313,W,2,27,0.6,1709.6700,M,-20.7761,M,4.6,0133*4A\r\n
$GPVTG,,T,,M,0.00,N,0.01,K,D*27\r\n
$GPGSA,A,3,10,15,18,23,24,27,29,32,,,,,1.0,0.6,0.8*39\r\n
$GPGSA,A,3,65,71,72,86,87,,,,,,,,1.0,0.6,0.8*3C\r\n
$GPGSA,A,3,04,05,09,11,34,36,,,,,,,1.0,0.6,0.8*37\r\n
$GPGSA,A,3,11,14,21,28,33,34,42,43,,,,,1.0,0.6,0.8*37\r\n
$GPGSV,4,1,14,18,72,093,35,29,12,170,43,13,11,039,29,24,24,109,31*79\r\n
$GPGSV,4,2,14,32,14,208,35,27,33,303,40,15,41,052,34,10,45,276,39*7B\r\n
$GPGSV,4,3,14,23,71,340,41,08,05,326,,16,05,266,,44,42,198,49*7F\r\n
$GPGSV,4,4,14,46,38,215,49,48,40,209,50*78\r\n
$GLGSV,2,1,07,72,80,298,36,71,39,033,46,88,21,326,30,65,28,230,44*6B\r\n
$GLGSV,2,2,07,86,44,139,43,87,75,339,40,80,01,029,*52\r\n
$GAGSV,2,1,08,36,79,000,43,10,15,122,29,04,33,047,34,34,28,312,36*68\r\n
$GAGSV,2,2,08,05,33,202,43,11,42,116,38,09,74,119,41,30,02,293,*66\r\n
$GBGSV,3,1,09,42,83,311,35,21,37,049,39,12,17,151,21,33,31,240,48*63\r\n
$GBGSV,3,2,09,28,18,317,36,34,45,164,51,14,59,246,45,11,68,179,46*6A\r\n
$GBGSV,3,3,09,43,70,266,43*57\r\n
$GPZDA,165127.00,15,09,2023,,*6E\r\n
$GPRMC,165127.00,A,3947.6537008,N,10509.2022275,W,0.0,,150923,7.7,E,D*0F\r\n
$GPGLL,3947.6537008,N,10509.2022275,W,165127.00,A,D*71\r\n
$GPGGA,165127.00,3947.6537008,N,10509.2022275,W,2,27,0.6,1709.6657,M,-20.7761,M,4.9,0133*46\r\n
$GPVTG,,T,,M,0.01,N,0.02,K,D*25\r\n
$GPGSA,A,3,10,15,18,23,24,27,29,32,,,,,1.0,0.6,0.8*39\r\n
$GPGSA,A,3,65,71,72,86,87,,,,,,,,1.0,0.6,0.8*3C\r\n
$GPGSA,A,3,04,05,09,11,34,36,,,,,,,1.0,0.6,0.8*37\r\n
$GPGSA,A,3,11,14,21,28,33,34,42,43,,,,,1.0,0.6,0.8*37\r\n
$GPGSV,4,1,14,18,72,093,35,29,12,170,43,13,11,039,30,24,24,109,31*71\r\n
$GPGSV,4,2,14,32,14,208,35,27,33,303,40,15,41,052,34,10,45,276,38*7A\r\n
$GPGSV,4,3,14,23,71,340,41,08,05,326,,16,05,266,,44,42,198,49*7F\r\n
$GPGSV,4,4,14,46,38,215,50,48,40,209,50*70\r\n
$GLGSV,2,1,07,72,80,298,35,71,39,033,46,88,21,326,30,65,28,230,44*68\r\n
$GLGSV,2,2,07,86,44,139,43,87,75,339,40,80,01,029,*52\r\n
$GAGSV,2,1,08,36,79,000,43,10,15,122,30,04,33,047,34,34,28,312,36*60\r\n
$GAGSV,2,2,08,05,33,202,43,11,42,116,38,09,74,119,41,30,02,293,*66\r\n
$GBGSV,3,1,09,42,83,311,36,21,37,049,39,12,17,151,22,33,31,240,48*63\r\n
$GBGSV,3,2,09,28,18,317,36,34,45,164,51,14,59,246,45,11,68,179,46*6A\r\n
$GBGSV,3,3,09,43,70,266,43*57\r\n
$GPZDA,165128.00,15,09,2023,,*61\r\n
$GPRMC,165128.00,A,3947.6537003,N,10509.2022257,W,0.0,,150923,7.7,E,D*0B\r\n
$GPGLL,3947.6537003,N,10509.2022257,W,165128.00,A,D*75\r\n
$GPGGA,165128.00,3947.6537003,N,10509.2022257,W,2,28,0.5,1709.6657,M,-20.7761,M,3.6,0133*46\r\n
$GPVTG,,T,,M,0.01,N,0.01,K,D*26\r\n
$GPGSA,A,3,10,15,18,23,24,27,29,32,,,,,1.0,0.5,0.8*3A\r\n
$GPGSA,A,3,65,71,72,86,87,88,,,,,,,1.0,0.5,0.8*3F\r\n
$GPGSA,A,3,04,05,09,11,34,36,,,,,,,1.0,0.5,0.8*34\r\n
$GPGSA,A,3,11,14,21,28,33,34,42,43,,,,,1.0,0.5,0.8*34\r\n
$GPGSV,4,1,14,18,72,093,35,29,12,170,43,13,11,039,29,24,24,109,30*78\r\n
$GPGSV,4,2,14,32,14,208,35,27,33,303,41,15,41,052,34,10,45,276,38*7B\r\n
$GPGSV,4,3,14,23,71,340,41,08,05,326,,16,05,266,,44,42,198,49*7F\r\n
$GPGSV,4,4,14,46,38,215,50,48,40,209,50*70\r\n
$GLGSV,2,1,07,72,80,298,35,71,39,033,46,88,21,326,30,65,28,230,44*68\r\n
$GLGSV,2,2,07,86,44,139,43,87,75,339,40,80,01,029,*52\r\n
$GAGSV,2,1,08,36,79,000,43,10,15,122,29,04,33,047,34,34,28,312,36*68\r\n
$GAGSV,2,2,08,05,33,202,43,11,42,116,38,09,74,119,40,30,02,293,*67\r\n
$GBGSV,3,1,09,42,83,311,35,21,37,049,39,12,17,151,22,33,31,240,48*60\r\n
$GBGSV,3,2,09,28,18,317,36,34,45,164,51,14,59,247,45,11,68,179,46*6B\r\n
$GBGSV,3,3,09,43,70,266,43*57\r\n
$GPZDA,165129.00,15,09,2023,,*60\r\n
$GPRMC,165129.00,A,3947.6537014,N,10509.2022227,W,0.0,,150923,7.7,E,D*0B\r\n
$GPGLL,3947.6537014,N,10509.2022227,W,165129.00,A,D*75\r\n
$GPGGA,165129.00,3947.6537014,N,10509.2022227,W,2,27,0.6,1709.6659,M,-20.7761,M,1.6,0133*46\r\n
$GPVTG,,T,,M,0.00,N,0.00,K,D*26\r\n
$GPGSA,A,3,10,15,18,23,24,27,29,32,,,,,1.0,0.6,0.8*39\r\n
$GPGSA,A,3,65,71,72,86,87,,,,,,,,1.0,0.6,0.8*3C\r\n
$GPGSA,A,3,04,05,09,11,34,36,,,,,,,1.0,0.6,0.8*37\r\n
$GPGSA,A,3,11,14,21,28,33,34,42,43,,,,,1.0,0.6,0.8*37\r\n
$GPGSV,4,1,14,18,72,093,35,29,12,170,43,13,11,039,30,24,24,109,30*70\r\n
$GPGSV,4,2,14,32,14,208,35,27,33,303,40,15,41,052,34,10,45,276,38*7A\r\n
$GPGSV,4,3,14,23,71,340,40,08,05,326,,16,05,266,,44,42,198,49*7E\r\n
$GPGSV,4,4,14,46,38,215,50,48,40,209,50*70\r\n
$GLGSV,2,1,07,72,80,298,35,71,39,033,45,88,21,326,29,65,28,230,44*63\r\n
$GLGSV,2,2,07,86,44,139,43,87,75,339,40,80,01,029,*52\r\n
$GAGSV,2,1,08,36,79,000,43,10,15,122,29,04,33,047,34,34,28,312,36*68\r\n
$GAGSV,2,2,08,05,33,202,43,11,42,116,38,09,74,119,41,30,02,293,*66\r\n
$GBGSV,3,1,09,42,83,311,36,21,37,049,39,12,17,151,22,33,31,240,48*63\r\n
$GBGSV,3,2,09,28,18,317,37,34,45,164,51,14,59,247,45,11,68,179,46*6A\r\n
$GBGSV,3,3,09,43,70,266,43*57\r\n
$GPZDA,165130.00,15,09,2023,,*68\r\n
$GPRMC,165130.00,A,3947.6537015,N,10509.2022194,W,0.0,,150923,7.7,E,D*09\r\n
$GPGLL,3947.6537015,N,10509.2022194,W,165130.00,A,D*77\r\n
$GPGGA,165130.00,3947.6537015,N,10509.2022194,W,2,26,0.6,1709.6654,M,-20.7761,M,2.7,0133*4A\r\n
$GPVTG,,T,,M,0.01,N,0.01,K,D*26\r\n
$GPGSA,A,3,10,15,18,23,27,29,32,,,,,,1.0,0.6,0.9*3E\r\n
$GPGSA,A,3,65,71,72,86,87,,,,,,,,1.0,0.6,0.9*3D\r\n
$GPGSA,A,3,04,05,09,11,34,36,,,,,,,1.0,0.6,0.9*36\r\n
$GPGSA,A,3,11,14,21,28,33,34,42,43,,,,,1.0,0.6,0.9*36\r\n
$GPGSV,4,1,14,18,72,093,36,29,12,170,43,13,11,039,30,24,24,109,30*73\r\n
$GPGSV,4,2,14,32,14,208,35,27,33,303,41,15,41,052,34,10,45,276,38*7B\r\n
$GPGSV,4,3,14,23,71,340,41,08,05,326,,16,05,266,,44,42,198,49*7F\r\n
$GPGSV,4,4,14,46,38,215,50,48,40,209,50*70\r\n
$GLGSV,2,1,07,72,80,298,35,71,39,033,45,88,21,326,29,65,28,230,44*63\r\n
$GLGSV,2,2,07,86,44,139,44,87,75,339,40,80,01,029,*55\r\n
$GAGSV,2,1,08,36,79,000,43,10,15,122,29,04,33,047,34,34,28,312,36*68\r\n
$GAGSV,2,2,08,05,33,202,43,11,42,116,38,09,74,119,41,30,02,293,*66\r\n
$GBGSV,3,1,09,42,83,311,36,21,37,049,40,12,17,151,22,33,31,240,48*6D\r\n
$GBGSV,3,2,09,28,18,317,37,34,45,164,51,14,59,247,45,11,68,179,46*6A\r\n
$GBGSV,3,3,09,43,70,266,43*57\r\n
$GPZDA,165131.00,15,09,2023,,*69\r\n
$GPRMC,165131.00,A,3947.6537017,N,10509.2022179,W,0.0,,150923,7.7,E,D*09\r\n
$GPGLL,3947.6537017,N,10509.2022179,W,165131.00,A,D*77\r\n
$GPGGA,165131.00,3947.6537017,N,10509.2022179,W,2,27,0.6,1709.6626,M,-20.7761,M,3.6,0133*4E\r\n
$GPVTG,,T,,M,0.01,N,0.01,K,D*26\r\n
$GPGSA,A,3,10,15,18,23,24,27,29,32,,,,,1.0,0.6,0.8*39\r\n
$GPGSA,A,3,65,71,72,86,87,,,,,,,,1.0,0.6,0.8*3C\r\n
$GPGSA,A,3,04,05,09,11,34,36,,,,,,,1.0,0.6,0.8*37\r\n
$GPGSA,A,3,11,14,21,28,33,34,42,43,,,,,1.0,0.6,0.8*37\r\n
$GPGSV,4,1,14,18,72,094,36,29,12,170,43,13,11,039,29,24,24,109,30*7C\r\n
$GPGSV,4,2,14,32,14,208,36,27,33,303,41,15,41,052,34,10,45,276,37*77\r\n
$GPGSV,4,3,14,23,71,340,41,08,05,326,,16,05,266,,44,42,198,49*7F\r\n
$GPGSV,4,4,14,46,38,215,50,48,40,209,50*70\r\n
$GLGSV,2,1,07,72,80,298,35,71,39,033,45,88,21,326,29,65,28,230,45*62\r\n
$GLGSV,2,2,07,86,44,139,44,87,75,339,40,80,01,029,*55\r\n
$GAGSV,2,1,08,36,79,000,43,10,15,122,29,04,33,047,33,34,28,312,36*6F\r\n
$GAGSV,2,2,08,05,33,202,43,11,42,116,39,09,74,119,41,30,02,293,*67\r\n
$GBGSV,3,1,09,42,83,311,36,21,37,049,40,12,17,151,21,33,31,240,48*6E\r\n
$GBGSV,3,2,09,28,18,317,37,34,45,164,51,14,59,247,45,11,68,179,46*6A\r\n
$GBGSV,3,3,09,43,70,266,43*57\r\n
$GPZDA,165132.00,15,09,2023,,*6A\r\n
$GPRMC,165132.00,A,3947.6537023,N,10509.2022173,W,0.0,,150923,7.7,E,D*07\r\n
$GPGLL,3947.6537023,N,10509.2022173,W,165132.00,A,D*79\r\n
$GPGGA,165132.00,3947.6537023,N,10509.2022173,W,2,27,0.6,1709.6630,M,-20.7761,M,4.6,0133*40\r\n
$GPVTG,,T,,M,0.00,N,0.00,K,D*26\r\n
$GPGSA,A,3,10,15,18,23,24,27,29,32,,,,,1.0,0.6,0.8*39\r\n
$GPGSA,A,3,65,71,72,86,87,,,,,,,,1.0,0.6,0.8*3C\r\n
$GPGSA,A,3,04,05,09,11,34,36,,,,,,,1.0,0.6,0.8*37\r\n
$GPGSA,A,3,11,14,21,28,33,34,42,43,,,,,1.0,0.6,0.8*37\r\n
$GPGSV,4,1,14,18,72,094,36,29,12,170,43,13,11,039,29,24,24,109,30*7C\r\n
$GPGSV,4,2,14,32,14,208,36,27,33,303,41,15,41,052,34,10,45,276,37*77\r\n
$GPGSV,4,3,14,23,71,340,41,08,05,326,,16,05,266,,44,42,198,49*7F\r\n
$GPGSV,4,4,14,46,38,215,50,48,40,209,50*70\r\n
$GLGSV,2,1,07,72,80,298,35,71,39,033,46,88,21,326,29,65,28,230,45*61\r\n
$GLGSV,2,2,07,86,44,139,44,87,75,339,40,80,01,029,*55\r\n
$GAGSV,2,1,08,36,79,000,43,10,15,122,29,04,33,047,34,34,28,312,36*68\r\n
$GAGSV,2,2,08,05,33,202,43,11,42,116,39,09,74,119,41,30,02,293,*67\r\n
$GBGSV,3,1,09,42,83,311,35,21,37,049,40,12,17,151,21,33,31,240,48*6D\r\n
$GBGSV,3,2,09,28,18,317,37,34,45,164,51,14,59,247,45,11,68,179,47*6B\r\n
$GBGSV,3,3,09,43,70,266,43*57\r\n
$GPZDA,165133.00,15,09,2023,,*6B\r\n
$GPRMC,165133.00,A,3947.6537018,N,10509.2022176,W,0.0,,150923,7.7,E,D*0B\r\n
$GPGLL,3947.6537018,N,10509.2022176,W,165133.00,A,D*75\r\n
$GPGGA,165133.00,3947.6537018,N,10509.2022176,W,2,26,0.6,1709.6635,M,-20.7761,M,5.7,0133*48\r\n
$GPVTG,,T,,M,0.00,N,0.01,K,D*27\r\n
$GPGSA,A,3,10,15,18,23,27,29,32,,,,,,1.0,0.6,0.9*3E\r\n
$GPGSA,A,3,65,71,72,86,87,,,,,,,,1.0,0.6,0.9*3D\r\n
$GPGSA,A,3,04,05,09,11,34,36,,,,,,,1.0,0.6,0.9*36\r\n
$GPGSA,A,3,11,14,21,28,33,34,42,43,,,,,1.0,0.6,0.9*36\r\n
$GPGSV,4,1,14,18,72,094,35,29,12,170,43,13,11,039,29,24,24,109,29*77\r\n
$GPGSV,4,2,14,32,14,208,36,27,33,303,41,15,41,052,22,10,45,276,38*7F\r\n
$GPGSV,4,3,14,23,71,340,41,08,05,326,,16,05,266,,44,42,198,49*7F\r\n
$GPGSV,4,4,14,46,38,215,49,48,40,209,50*78\r\n
$GLGSV,2,1,07,72,80,298,35,71,39,033,46,88,21,326,29,65,28,230,45*61\r\n
$GLGSV,2,2,07,86,44,139,45,87,75,339,40,80,01,029,*54\r\n
$GAGSV,2,1,08,36,79,000,43,10,15,122,30,04,33,047,34,34,28,312,36*60\r\n
$GAGSV,2,2,08,05,33,202,44,11,42,116,38,09,74,119,41,30,02,293,*61\r\n
$GBGSV,3,1,09,42,83,311,36,21,37,049,39,12,17,151,21,33,31,240,47*6F\r\n
$GBGSV,3,2,09,28,18,317,37,34,45,164,50,14,59,247,46,11,68,179,47*69\r\n
$GBGSV,3,3,09,43,70,266,42*56\r\n
$GPZDA,165134.00,15,09,2023,,*6C\r\n
$GPRMC,165134.00,A,3947.6537015,N,10509.2022153,W,0.0,,150923,7.7,E,D*06\r\n
$GPGLL,3947.6537015,N,10509.2022153,W,165134.00,A,D*78\r\n
$GPGGA,165134.00,3947.6537015,N,10509.2022153,W,2,25,0.6,1709.6640,M,-20.7761,M,2.8,0133*4C\r\n
$GPVTG,,T,,M,0.00,N,0.01,K,D*27\r\n
$GPGSA,A,3,10,18,23,27,29,32,,,,,,,1.1,0.6,0.9*3B\r\n
$GPGSA,A,3,65,71,72,86,87,,,,,,,,1.1,0.6,0.9*3C\r\n
$GPGSA,A,3,04,05,09,11,34,36,,,,,,,1.1,0.6,0.9*37\r\n
$GPGSA,A,3,11,14,21,28,33,34,42,43,,,,,1.1,0.6,0.9*37\r\n
$GPGSV,4,1,14,18,72,094,35,29,12,170,43,13,11,039,29,24,24,109,30*7F\r\n
$GPGSV,4,2,14,32,14,208,36,27,33,303,41,15,41,052,22,10,45,276,38*7F\r\n
$GPGSV,4,3,14,23,71,340,41,08,05,326,,16,05,266,,44,42,198,49*7F\r\n
$GPGSV,4,4,14,46,38,215,50,48,40,209,50*70\r\n
$GLGSV,2,1,07,72,80,298,36,71,39,033,46,88,21,326,29,65,28,230,45*62\r\n
$GLGSV,2,2,07,86,44,139,45,87,75,339,40,80,01,028,*55\r\n
$GAGSV,2,1,08,36,79,000,43,10,15,122,29,04,33,047,34,34,28,312,37*69\r\n
$GAGSV,2,2,08,05,33,202,44,11,42,116,38,09,74,119,41,30,02,293,*61\r\n
$GBGSV,3,1,09,42,83,311,36,21,37,049,39,12,17,151,19,33,31,240,47*64\r\n
$GBGSV,3,2,09,28,18,317,37,34,45,164,50,14,59,247,46,11,68,179,47*69\r\n
$GBGSV,3,3,09,43,70,266,42*56\r\n
