$GPZDA,142050.00,18,09,2023,,*67\r\n
$GPRMC,142050.00,A,3947.6560736,N,10509.2034590,W,0.0,,180923,7.7,E,A*00\r\n
$GPGLL,3947.6560736,N,10509.2034590,W,142050.00,A,A*73\r\n
$GPGGA,142050.00,3947.6560736,N,10509.2034590,W,1,16,0.7,1712.8034,M,-20.7761,M,,*64\r\n
$GPVTG,,T,,M,0.00,N,0.01,K,A*22\r\n
$GPGSA,A,3,65,66,67,80,81,,,,,,,,1.3,0.7,1.1*34\r\n
$GPGSA,A,3,02,04,05,09,11,36,,,,,,,1.3,0.7,1.1*38\r\n
$GPGSA,A,3,20,27,29,30,32,,,,,,,,1.3,0.7,1.1*39\r\n
$GPGSV,1,1,03,44,42,198,,46,38,215,,48,40,209,37*44\r\n
$GLGSV,3,1,10,66,58,161,35,79,10,260,29,67,12,193,38,82,13,309,27*6E\r\n
$GLGSV,3,2,10,80,13,310,33,65,51,048,28,88,49,084,27,81,53,342,37*66\r\n
$GLGSV,3,3,10,87,04,111,,72,02,025,*6E\r\n
$GAGSV,3,1,11,36,68,357,44,10,12,090,,05,15,175,42,02,29,244,39*6E\r\n
$GAGSV,3,2,11,30,22,301,,18,24,140,,04,30,058,37,34,29,292,31*6B\r\n
$GAGSV,3,3,11,11,37,078,35,09,44,122,27,25,09,197,34*5E\r\n
$GBGSV,2,1,06,30,67,106,32,20,54,186,34,27,16,119,36,32,57,064,32*6F\r\n
$GBGSV,2,2,06,29,51,313,30,41,08,039,*67\r\n
$GPZDA,142051.00,18,09,2023,,*66\r\n
$GPRMC,142051.00,A,3947.6560486,N,10509.2034584,W,0.0,,180923,7.7,E,A*0C\r\n
$GPGLL,3947.6560486,N,10509.2034584,W,142051.00,A,A*7F\r\n
$GPGGA,142051.00,3947.6560486,N,10509.2034584,W,1,16,0.7,1712.8247,M,-20.7761,M,,*6E\r\n
$GPVTG,,T,,M,0.00,N,0.01,K,A*22\r\n
$GPGSA,A,3,65,66,67,80,81,,,,,,,,1.3,0.7,1.1*34\r\n
$GPGSA,A,3,02,04,05,09,11,36,,,,,,,1.3,0.7,1.1*38\r\n
$GPGSA,A,3,20,27,29,30,32,,,,,,,,1.3,0.7,1.1*39\r\n
$GPGSV,1,1,03,44,42,198,,46,38,215,,48,40,209,42*46\r\n
$GLGSV,3,1,10,66,58,161,40,79,10,260,29,67,12,193,42,82,13,309,27*61\r\n
$GLGSV,3,2,10,80,13,310,33,65,51,048,33,88,49,084,31,81,53,342,41*6A\r\n
$GLGSV,3,3,10,87,04,111,,72,02,025,*6E\r\n
$GAGSV,3,1,11,36,68,357,44,10,12,090,,05,15,175,42,02,29,244,39*6E\r\n
$GAGSV,3,2,11,30,22,301,,18,24,140,,04,30,058,37,34,29,292,30*6A\r\n
$GAGSV,3,3,11,11,37,078,35,09,44,122,31,25,09,197,33*5E\r\n
$GBGSV,2,1,06,30,67,106,33,20,54,186,41,27,16,119,36,32,57,064,42*6B\r\n
$GBGSV,2,2,06,29,51,313,48,41,08,039,*68\r\n
$GPZDA,142052.00,18,09,2023,,*65\r\n
$GPRMC,142052.00,A,3947.6560227,N,10509.2034388,W,0.0,,180923,7.7,E,A*08\r\n
$GPGLL,3947.6560227,N,10509.2034388,W,142052.00,A,A*7B\r\n
$GPGGA,142052.00,3947.6560227,N,10509.2034388,W,1,16,0.7,1712.8554,M,-20.7761,M,,*6F\r\n
$GPVTG,,T,,M,0.00,N,0.01,K,A*22\r\n
$GPGSA,A,3,65,66,67,80,81,88,,,,,,,1.3,0.7,1.1*34\r\n
$GPGSA,A,3,02,04,05,11,36,,,,,,,,1.3,0.7,1.1*31\r\n
$GPGSA,A,3,20,27,29,30,32,,,,,,,,1.3,0.7,1.1*39\r\n
$GPGSV,1,1,03,44,42,198,,46,38,215,,48,40,209,37*44\r\n
$GLGSV,3,1,10,66,58,161,40,79,10,260,28,67,12,193,41,82,13,309,27*63\r\n
$GLGSV,3,2,10,80,13,310,33,65,51,048,32,88,49,084,24,81,54,342,41*68\r\n
$GLGSV,3,3,10,87,04,111,,72,02,025,*6E\r\n
$GAGSV,3,1,11,36,68,358,44,10,12,090,,05,15,175,42,02,29,244,39*61\r\n
$GAGSV,3,2,11,30,22,301,,18,24,140,,04,30,058,37,34,29,292,30*6A\r\n
$GAGSV,3,3,11,11,37,078,35,09,44,122,27,25,09,197,33*59\r\n
$GBGSV,2,1,06,30,67,106,33,20,54,186,34,27,16,119,36,32,57,064,32*6E\r\n
$GBGSV,2,2,06,29,51,313,31,41,08,039,*66\r\n
$GPZDA,142053.00,18,09,2023,,*64\r\n
$GPRMC,142053.00,A,3947.6559897,N,10509.2034350,W,0.0,,180923,7.7,E,A*07\r\n
$GPGLL,3947.6559897,N,10509.2034350,W,142053.00,A,A*74\r\n
$GPGGA,142053.00,3947.6559897,N,10509.2034350,W,1,16,0.7,1712.8942,M,-20.7761,M,,*6B\r\n
$GPVTG,,T,,M,0.01,N,0.01,K,A*23\r\n
$GPGSA,A,3,65,66,67,80,81,88,,,,,,,1.3,0.7,1.1*34\r\n
$GPGSA,A,3,02,04,05,11,36,,,,,,,,1.3,0.7,1.1*31\r\n
$GPGSA,A,3,20,27,29,30,32,,,,,,,,1.3,0.7,1.1*39\r\n
$GPGSV,1,1,03,44,42,198,,46,38,215,,48,40,209,37*44\r\n
$GLGSV,3,1,10,66,58,161,39,79,10,260,30,67,12,193,41,82,13,309,28*6B\r\n
$GLGSV,3,2,10,80,13,310,32,65,51,048,33,88,49,084,30,81,54,342,41*6D\r\n
$GLGSV,3,3,10,87,04,111,,72,02,025,*6E\r\n
$GAGSV,3,1,11,36,68,358,44,10,12,090,,05,15,175,42,02,29,244,39*61\r\n
$GAGSV,3,2,11,30,22,301,,18,24,140,,04,30,058,37,34,29,292,30*6A\r\n
$GAGSV,3,3,11,11,37,078,35,09,44,122,26,25,09,197,33*58\r\n
$GBGSV,2,1,06,30,67,106,31,20,54,186,33,27,16,119,36,32,57,064,31*68\r\n
$GBGSV,2,2,06,29,51,313,29,41,08,039,*6F\r\n
$GPZDA,142054.00,18,09,2023,,*63\r\n
$GPRMC,142054.00,A,3947.6559676,N,10509.2034464,W,0.0,,180923,7.7,E,A*01\r\n
$GPGLL,3947.6559676,N,10509.2034464,W,142054.00,A,A*72\r\n
$GPGGA,142054.00,3947.6559676,N,10509.2034464,W,1,16,0.7,1712.9032,M,-20.7761,M,,*62\r\n
$GPVTG,,T,,M,0.00,N,0.00,K,A*23\r\n
$GPGSA,A,3,65,66,67,80,81,88,,,,,,,1.3,0.7,1.1*34\r\n
$GPGSA,A,3,02,04,05,11,34,36,,,,,,,1.3,0.7,1.1*36\r\n
$GPGSA,A,3,20,27,30,32,,,,,,,,,1.3,0.7,1.1*32\r\n
$GPGSV,1,1,03,44,42,198,,46,38,215,,48,40,209,37*44\r\n
$GLGSV,3,1,10,66,58,161,40,79,10,260,30,67,12,193,41,82,13,309,29*64\r\n
$GLGSV,3,2,10,80,13,310,32,65,51,048,33,88,49,084,30,81,54,342,40*6C\r\n
$GLGSV,3,3,10,87,04,111,,72,02,025,*6E\r\n
$GAGSV,3,1,11,36,68,358,44,10,12,090,,05,15,175,42,02,29,244,39*61\r\n
$GAGSV,3,2,11,30,22,301,,18,24,140,,04,30,058,37,34,29,292,31*6B\r\n
$GAGSV,3,3,11,11,37,078,35,09,44,122,25,25,09,197,33*5B\r\n
$GBGSV,2,1,06,30,67,106,31,20,54,186,54,27,16,119,36,32,57,064,30*68\r\n
$GBGSV,2,2,06,29,51,313,29,41,08,039,*6F\r\n
$GPZDA,142055.00,18,09,2023,,*62\r\n
$GPRMC,142055.00,A,3947.6559702,N,10509.2034545,W,0.0,,180923,7.7,E,A*00\r\n
$GPGLL,3947.6559702,N,10509.2034545,W,142055.00,A,A*73\r\n
$GPGGA,142055.00,3947.6559702,N,10509.2034545,W,1,16,0.7,1712.8827,M,-20.7761,M,,*6E\r\n
$GPVTG,,T,,M,0.01,N,0.02,K,A*20\r\n
$GPGSA,A,3,65,66,67,80,81,88,,,,,,,1.3,0.7,1.1*34\r\n
$GPGSA,A,3,02,04,05,11,34,36,,,,,,,1.3,0.7,1.1*36\r\n
$GPGSA,A,3,20,27,30,32,,,,,,,,,1.3,0.7,1.1*32\r\n
$GPGSV,1,1,03,44,42,198,,46,38,215,,48,40,209,40*44\r\n
$GLGSV,3,1,10,66,58,161,41,79,10,260,29,67,12,193,43,82,13,309,29*6F\r\n
$GLGSV,3,2,10,80,13,310,31,65,51,048,34,88,49,084,32,81,54,342,42*68\r\n
$GLGSV,3,3,10,87,04,111,,72,02,025,*6E\r\n
$GAGSV,3,1,11,36,68,358,44,10,12,090,,05,15,175,42,02,29,244,39*61\r\n
$GAGSV,3,2,11,30,22,301,,18,24,140,,04,30,058,37,34,29,292,31*6B\r\n
$GAGSV,3,3,11,11,37,078,35,09,44,122,27,25,09,197,32*58\r\n
$GBGSV,2,1,06,30,67,106,34,20,54,186,35,27,16,119,35,32,57,064,33*6A\r\n
$GBGSV,2,2,06,29,51,313,31,41,08,039,*66\r\n
$GPZDA,142056.00,18,09,2023,,*61\r\n
$GPRMC,142056.00,A,3947.6559472,N,10509.2034588,W,0.0,,180923,7.7,E,A*06\r\n
$GPGLL,3947.6559472,N,10509.2034588,W,142056.00,A,A*75\r\n
$GPGGA,142056.00,3947.6559472,N,10509.2034588,W,1,16,0.7,1712.8749,M,-20.7761,M,,*6F\r\n
$GPVTG,,T,,M,0.01,N,0.01,K,A*23\r\n
$GPGSA,A,3,65,66,67,80,81,,,,,,,,1.3,0.7,1.1*34\r\n
$GPGSA,A,3,02,04,05,11,34,36,,,,,,,1.3,0.7,1.1*36\r\n
$GPGSA,A,3,20,27,29,30,32,,,,,,,,1.3,0.7,1.1*39\r\n
$GPGSV,1,1,03,44,42,198,,46,38,215,,48,40,209,38*4B\r\n
$GLGSV,3,1,10,66,58,161,40,79,10,260,29,67,12,193,42,82,13,309,29*6F\r\n
$GLGSV,3,2,10,80,13,310,31,65,51,048,33,88,49,084,31,81,54,342,41*6F\r\n
$GLGSV,3,3,10,87,04,111,,72,02,025,*6E\r\n
$GAGSV,3,1,11,36,68,358,44,10,12,090,,05,15,175,42,02,29,244,39*61\r\n
$GAGSV,3,2,11,30,22,301,,18,24,140,,04,30,058,37,34,29,292,30*6A\r\n
$GAGSV,3,3,11,11,37,078,35,09,44,122,26,25,09,197,33*58\r\n
$GBGSV,2,1,06,30,67,106,32,20,54,186,34,27,16,119,36,32,57,064,31*6C\r\n
$GBGSV,2,2,06,29,51,313,30,41,08,039,*67\r\n
$GPZDA,142057.00,18,09,2023,,*60\r\n
$GPRMC,142057.00,A,3947.6559285,N,10509.2034736,W,0.0,,180923,7.7,E,A*0E\r\n
$GPGLL,3947.6559285,N,10509.2034736,W,142057.00,A,A*7D\r\n
$GPGGA,142057.00,3947.6559285,N,10509.2034736,W,1,16,0.7,1712.8657,M,-20.7761,M,,*69\r\n
$GPVTG,,T,,M,0.00,N,0.01,K,A*22\r\n
$GPGSA,A,3,65,66,67,80,81,88,,,,,,,1.3,0.7,1.1*34\r\n
$GPGSA,A,3,02,04,05,11,34,36,,,,,,,1.3,0.7,1.1*36\r\n
$GPGSA,A,3,20,27,30,32,,,,,,,,,1.3,0.7,1.1*32\r\n
$GPGSV,1,1,03,44,42,198,,46,38,215,,48,40,209,39*4A\r\n
$GLGSV,3,1,10,66,58,161,41,79,10,260,30,67,12,193,42,82,13,309,29*66\r\n
$GLGSV,3,2,10,80,13,310,30,65,51,048,33,88,49,084,30,81,54,342,41*6F\r\n
$GLGSV,3,3,10,87,04,111,,72,02,025,*6E\r\n
$GAGSV,3,1,11,36,68,358,43,10,12,090,,05,15,175,42,02,29,244,39*66\r\n
$GAGSV,3,2,11,30,22,301,,18,24,140,,04,30,058,37,34,29,292,30*6A\r\n
$GAGSV,3,3,11,11,37,078,35,09,44,122,27,25,09,197,33*59\r\n
$GBGSV,2,1,06,30,67,106,32,20,54,186,33,27,16,119,36,32,57,064,31*6B\r\n
$GBGSV,2,2,06,29,51,313,29,41,08,039,*6F\r\n
$GPZDA,142058.00,18,09,2023,,*6F\r\n
$GPRMC,142058.00,A,3947.6559093,N,10509.2034907,W,0.0,,180923,7.7,E,A*08\r\n
$GPGLL,3947.6559093,N,10509.2034907,W,142058.00,A,A*7B\r\n
$GPGGA,142058.00,3947.6559093,N,10509.2034907,W,1,16,0.8,1712.8570,M,-20.7761,M,,*66\r\n
$GPVTG,,T,,M,0.01,N,0.02,K,A*20\r\n
$GPGSA,A,3,65,66,67,79,81,88,,,,,,,1.4,0.8,1.2*39\r\n
$GPGSA,A,3,02,04,05,11,34,36,,,,,,,1.4,0.8,1.2*3D\r\n
$GPGSA,A,3,20,27,30,32,,,,,,,,,1.4,0.8,1.2*39\r\n
$GPGSV,1,1,03,44,42,198,,46,38,215,,48,40,209,39*4A\r\n
$GLGSV,3,1,10,66,58,161,40,79,10,260,30,67,12,193,42,82,13,309,30*6F\r\n
$GLGSV,3,2,10,80,13,310,30,65,51,048,33,88,49,084,30,81,54,342,41*6F\r\n
$GLGSV,3,3,10,87,04,111,,72,02,025,*6E\r\n
$GAGSV,3,1,11,36,68,358,44,10,12,090,,05,15,175,42,02,29,244,39*61\r\n
$GAGSV,3,2,11,30,22,301,,18,24,140,,04,30,058,37,34,29,292,31*6B\r\n
$GAGSV,3,3,11,11,37,078,35,09,44,122,28,25,09,197,33*56\r\n
$GBGSV,2,1,06,30,67,106,33,20,54,186,35,27,16,119,36,32,57,063,32*68\r\n
$GBGSV,2,2,06,29,51,313,31,41,08,039,*66\r\n
$GPZDA,142059.00,18,09,2023,,*6E\r\n
$GPRMC,142059.00,A,3947.6558862,N,10509.2035020,W,0.0,,180923,7.7,E,A*03\r\n
$GPGLL,3947.6558862,N,10509.2035020,W,142059.00,A,A*70\r\n
$GPGGA,142059.00,3947.6558862,N,10509.2035020,W,1,16,0.8,1712.8570,M,-20.7761,M,,*6D\r\n
$GPVTG,,T,,M,0.00,N,0.01,K,A*22\r\n
$GPGSA,A,3,65,66,67,79,81,,,,,,,,1.4,0.8,1.2*39\r\n
$GPGSA,A,3,02,04,05,11,25,36,,,,,,,1.4,0.8,1.2*3D\r\n
$GPGSA,A,3,20,27,29,30,32,,,,,,,,1.4,0.8,1.2*32\r\n
$GPGSV,1,1,03,44,42,198,,46,38,215,,48,40,209,39*4A\r\n
$GLGSV,3,1,10,66,58,161,40,79,10,260,31,67,12,193,42,82,13,309,30*6E\r\n
$GLGSV,3,2,10,80,13,310,29,65,51,048,33,88,49,084,29,81,54,342,41*6F\r\n
$GLGSV,3,3,10,87,04,111,,72,02,025,*6E\r\n
$GAGSV,3,1,11,36,68,358,43,10,12,090,,05,15,175,42,02,29,244,39*66\r\n
$GAGSV,3,2,11,30,22,301,,18,24,140,,04,30,058,37,34,29,292,30*6A\r\n
$GAGSV,3,3,11,11,37,078,35,09,44,122,27,25,09,197,33*59\r\n
$GBGSV,2,1,06,30,67,106,33,20,54,186,35,27,16,119,35,32,57,063,32*6B\r\n
$GBGSV,2,2,06,29,51,313,31,41,08,039,*66\r\n
$GPZDA,142100.00,18,09,2023,,*63\r\n
$GPRMC,142100.00,A,3947.6558664,N,10509.2035072,W,0.0,,180923,7.7,E,A*01\r\n
$GPGLL,3947.6558664,N,10509.2035072,W,142100.00,A,A*72\r\n
$GPGGA,142100.00,3947.6558664,N,10509.2035072,W,1,16,0.8,1712.8477,M,-20.7761,M,,*69\r\n
$GPVTG,,T,,M,0.01,N,0.02,K,A*20\r\n
$GPGSA,A,3,65,66,67,79,81,,,,,,,,1.4,0.8,1.2*39\r\n
$GPGSA,A,3,02,04,05,11,25,36,,,,,,,1.4,0.8,1.2*3D\r\n
$GPGSA,A,3,20,27,29,30,32,,,,,,,,1.4,0.8,1.2*32\r\n
$GPGSV,1,1,03,44,42,198,,46,38,215,,48,40,209,39*4A\r\n
$GLGSV,3,1,10,66,58,161,40,79,10,260,31,67,12,193,42,82,13,309,31*6F\r\n
$GLGSV,3,2,10,80,13,310,28,65,51,048,33,88,49,084,29,81,54,342,41*6E\r\n
$GLGSV,3,3,10,87,04,111,,72,02,025,*6E\r\n
$GAGSV,3,1,11,36,68,358,43,10,12,090,,05,15,175,42,02,29,244,39*66\r\n
$GAGSV,3,2,11,30,22,301,,18,24,140,,04,30,058,37,34,29,292,31*6B\r\n
$GAGSV,3,3,11,11,37,078,35,09,44,122,28,25,09,197,33*56\r\n
$GBGSV,2,1,06,30,67,106,34,20,54,186,35,27,16,119,35,32,57,063,33*6D\r\n
$GBGSV,2,2,06,29,51,313,31,41,08,039,*66\r\n
$GPZDA,142101.00,18,09,2023,,*62\r\n
$GPRMC,142101.00,A,3947.6558418,N,10509.2035074,W,0.0,,180923,7.7,E,A*0F\r\n
$GPGLL,3947.6558418,N,10509.2035074,W,142101.00,A,A*7C\r\n
$GPGGA,142101.00,3947.6558418,N,10509.2035074,W,1,16,0.8,1712.8649,M,-20.7761,M,,*68\r\n
$GPVTG,,T,,M,0.00,N,0.01,K,A*22\r\n
$GPGSA,A,3,65,66,67,79,81,,,,,,,,1.4,0.8,1.2*39\r\n
$GPGSA,A,3,02,04,05,11,25,36,,,,,,,1.4,0.8,1.2*3D\r\n
$GPGSA,A,3,20,27,29,30,32,,,,,,,,1.4,0.8,1.2*32\r\n
$GPGSV,1,1,03,44,42,198,,46,38,215,,48,40,209,40*44\r\n
$GLGSV,3,1,10,66,58,161,39,79,10,260,31,67,12,193,42,82,13,309,30*60\r\n
$GLGSV,3,2,10,80,13,310,28,65,51,048,33,88,49,084,29,81,54,342,41*6E\r\n
$GLGSV,3,3,10,87,04,111,,72,02,025,*6E\r\n
$GAGSV,3,1,11,36,68,358,43,10,12,090,,05,15,175,42,02,29,244,39*66\r\n
$GAGSV,3,2,11,30,22,301,,18,24,140,,04,30,058,37,34,29,292,30*6A\r\n
$GAGSV,3,3,11,11,37,078,35,09,44,122,28,25,09,197,33*56\r\n
$GBGSV,2,1,06,30,67,106,33,20,54,186,35,27,16,119,35,32,57,063,33*6A\r\n
$GBGSV,2,2,06,29,51,313,31,41,08,039,*66\r\n
$GPZDA,142102.00,18,09,2023,,*61\r\n
$GPRMC,142102.00,A,3947.6558220,N,10509.2035063,W,0.0,,180923,7.7,E,A*07\r\n
$GPGLL,3947.6558220,N,10509.2035063,W,142102.00,A,A*74\r\n
$GPGGA,142102.00,3947.6558220,N,10509.2035063,W,1,16,0.8,1712.8675,M,-20.7761,M,,*6F\r\n
$GPVTG,,T,,M,0.01,N,0.01,K,A*23\r\n
$GPGSA,A,3,65,66,67,79,81,,,,,,,,1.4,0.8,1.2*39\r\n
$GPGSA,A,3,02,04,05,11,25,36,,,,,,,1.4,0.8,1.2*3D\r\n
$GPGSA,A,3,20,27,29,30,32,,,,,,,,1.4,0.8,1.2*32\r\n
$GPGSV,1,1,03,44,42,198,38,46,38,215,,48,40,209,40*4F\r\n
$GLGSV,3,1,10,66,58,161,40,79,10,260,31,67,12,193,42,82,13,309,31*6F\r\n
$GLGSV,3,2,10,80,13,310,28,65,51,048,33,88,49,084,29,81,54,342,41*6E\r\n
$GLGSV,3,3,10,87,04,111,,72,02,025,*6E\r\n
$GAGSV,3,1,11,36,68,358,43,10,12,090,,05,15,175,42,02,29,244,39*66\r\n
$GAGSV,3,2,11,30,22,301,,18,24,140,,04,30,058,37,34,29,292,30*6A\r\n
$GAGSV,3,3,11,11,37,078,35,09,44,122,29,25,09,197,32*56\r\n
$GBGSV,2,1,06,30,67,106,34,20,54,186,35,27,16,119,35,32,57,063,32*6C\r\n
$GBGSV,2,2,06,29,51,313,31,41,08,039,*66\r\n
$GPZDA,142103.00,18,09,2023,,*60\r\n
$GPRMC,142103.00,A,3947.6558109,N,10509.2035127,W,0.0,,180923,7.7,E,A*0F\r\n
$GPGLL,3947.6558109,N,10509.2035127,W,142103.00,A,A*7C\r\n
$GPGGA,142103.00,3947.6558109,N,10509.2035127,W,1,16,0.7,1712.8578,M,-20.7761,M,,*66\r\n
$GPVTG,,T,,M,0.01,N,0.01,K,A*23\r\n
$GPGSA,A,3,65,66,67,79,81,82,,,,,,,1.3,0.7,1.0*39\r\n
$GPGSA,A,3,02,04,05,11,25,36,,,,,,,1.3,0.7,1.0*37\r\n
$GPGSA,A,3,20,27,30,32,,,,,,,,,1.3,0.7,1.0*33\r\n
$GPGSV,1,1,03,44,42,198,38,46,38,215,,48,40,209,40*4F\r\n
$GLGSV,3,1,10,66,58,161,39,79,10,260,30,67,12,193,43,82,13,309,30*60\r\n
$GLGSV,3,2,10,80,13,310,28,65,51,048,33,88,49,084,29,81,54,342,41*6E\r\n
$GLGSV,3,3,10,87,04,111,,72,02,025,*6E\r\n
$GAGSV,3,1,11,36,68,358,43,10,12,090,,05,15,175,42,02,29,244,39*66\r\n
$GAGSV,3,2,11,30,22,301,,18,24,140,,04,30,058,37,34,29,292,30*6A\r\n
$GAGSV,3,3,11,11,37,078,35,09,44,122,29,25,09,197,32*56\r\n
$GBGSV,2,1,06,30,67,106,34,20,54,186,35,27,16,119,35,32,57,063,32*6C\r\n
$GBGSV,2,2,06,29,51,313,31,41,08,039,*66\r\n
$GPZDA,142104.00,18,09,2023,,*67\r\n
$GPRMC,142104.00,A,3947.6557954,N,10509.2035157,W,0.0,,180923,7.7,E,A*00\r\n
$GPGLL,3947.6557954,N,10509.2035157,W,142104.00,A,A*73\r\n
$GPGGA,142104.00,3947.6557954,N,10509.2035157,W,1,16,0.7,1712.8517,M,-20.7761,M,,*60\r\n
$GPVTG,,T,,M,0.01,N,0.01,K,A*23\r\n
$GPGSA,A,3,65,66,67,81,82,,,,,,,,1.3,0.7,1.1*36\r\n
$GPGSA,A,3,02,04,05,11,25,36,,,,,,,1.3,0.7,1.1*36\r\n
$GPGSA,A,3,20,27,29,30,32,,,,,,,,1.3,0.7,1.1*39\r\n
$GPGSV,1,1,03,44,42,198,39,46,38,215,,48,40,209,40*4E\r\n
$GLGSV,3,1,10,66,58,161,39,79,10,260,30,67,12,193,43,82,13,309,31*61\r\n
$GLGSV,3,2,10,80,13,310,27,65,51,048,33,88,49,084,30,81,54,342,41*69\r\n
$GLGSV,3,3,10,87,04,111,,72,02,025,*6E\r\n
$GAGSV,3,1,11,36,68,358,43,10,12,090,,05,15,175,41,02,29,244,39*65\r\n
$GAGSV,3,2,11,30,22,301,,18,24,140,,04,30,058,36,34,29,292,30*6B\r\n
$GAGSV,3,3,11,11,37,078,35,09,44,122,30,25,09,197,32*5E\r\n
$GBGSV,2,1,06,30,67,106,34,20,54,186,35,27,16,119,35,32,57,063,33*6D\r\n
$GBGSV,2,2,06,29,51,313,31,41,08,039,*66\r\n
$GPZDA,142105.00,18,09,2023,,*66\r\n
$GPRMC,142105.00,A,3947.6557863,N,10509.2035292,W,0.0,,180923,7.7,E,A*0E\r\n
$GPGLL,3947.6557863,N,10509.2035292,W,142105.00,A,A*7D\r\n
$GPGGA,142105.00,3947.6557863,N,10509.2035292,W,1,16,0.8,1712.8492,M,-20.7761,M,,*6D\r\n
$GPVTG,,T,,M,0.01,N,0.02,K,A*20\r\n
$GPGSA,A,3,65,66,67,81,,,,,,,,,1.5,0.8,1.3*37\r\n
$GPGSA,A,3,02,04,05,09,11,25,36,,,,,,1.5,0.8,1.3*34\r\n
$GPGSA,A,3,20,27,29,30,32,,,,,,,,1.5,0.8,1.3*32\r\n
$GPGSV,1,1,03,44,42,198,39,46,38,215,,48,40,209,40*4E\r\n
$GLGSV,3,1,10,66,58,161,39,79,10,260,29,67,12,193,43,82,13,309,31*69\r\n
$GLGSV,3,2,10,80,13,310,28,65,51,048,34,88,49,084,29,81,54,342,40*68\r\n
$GLGSV,3,3,10,87,04,111,,72,02,025,*6E\r\n
$GAGSV,3,1,11,36,68,358,43,10,12,090,,05,15,175,41,02,29,244,39*65\r\n
$GAGSV,3,2,11,30,22,301,,18,24,140,,04,30,058,36,34,29,292,30*6B\r\n
$GAGSV,3,3,11,11,37,078,35,09,44,122,30,25,09,197,32*5E\r\n
$GBGSV,2,1,06,30,67,106,34,20,54,186,35,27,16,119,35,32,57,063,33*6D\r\n
$GBGSV,2,2,06,29,51,313,31,41,08,039,*66\r\n
$GPZDA,142106.00,18,09,2023,,*65\r\n
$GPRMC,142106.00,A,3947.6557771,N,10509.2035416,W,0.0,,180923,7.7,E,A*0B\r\n
$GPGLL,3947.6557771,N,10509.2035416,W,142106.00,A,A*78\r\n
$GPGGA,142106.00,3947.6557771,N,10509.2035416,W,1,16,0.7,1712.8437,M,-20.7761,M,,*68\r\n
$GPVTG,,T,,M,0.00,N,0.00,K,A*23\r\n
$GPGSA,A,3,65,66,67,81,82,,,,,,,,1.3,0.7,1.1*36\r\n
$GPGSA,A,3,02,04,05,11,25,36,,,,,,,1.3,0.7,1.1*36\r\n
$GPGSA,A,3,20,27,29,30,32,,,,,,,,1.3,0.7,1.1*39\r\n
$GPGSV,1,1,03,44,42,198,39,46,38,215,,48,40,209,40*4E\r\n
$GLGSV,3,1,10,66,58,161,39,79,10,260,29,67,12,193,43,82,13,309,31*69\r\n
$GLGSV,3,2,10,80,13,310,28,65,51,048,33,88,49,084,29,81,54,342,40*6F\r\n
$GLGSV,3,3,10,87,04,111,,72,02,025,*6E\r\n
$GAGSV,3,1,11,36,68,358,43,10,12,090,,05,15,175,41,02,29,244,39*65\r\n
$GAGSV,3,2,11,30,22,301,,18,24,140,,04,30,058,36,34,29,292,30*6B\r\n
$GAGSV,3,3,11,11,37,078,35,09,44,122,30,25,09,197,32*5E\r\n
$GBGSV,2,1,06,30,67,106,33,20,54,186,35,27,16,119,35,32,57,063,33*6A\r\n
$GBGSV,2,2,06,29,51,313,32,41,08,039,*65\r\n
$GPZDA,142107.00,18,09,2023,,*64\r\n
$GPRMC,142107.00,A,3947.6557701,N,10509.2035492,W,0.0,,180923,7.7,E,A*01\r\n
$GPGLL,3947.6557701,N,10509.2035492,W,142107.00,A,A*72\r\n
$GPGGA,142107.00,3947.6557701,N,10509.2035492,W,1,16,0.7,1712.8426,M,-20.7761,M,,*62\r\n
$GPVTG,,T,,M,0.01,N,0.01,K,A*23\r\n
$GPGSA,A,3,65,66,67,81,82,,,,,,,,1.3,0.7,1.1*36\r\n
$GPGSA,A,3,02,04,05,11,25,36,,,,,,,1.3,0.7,1.1*36\r\n
$GPGSA,A,3,20,27,29,30,32,,,,,,,,1.3,0.7,1.1*39\r\n
$GPGSV,1,1,03,44,42,198,39,46,38,215,,48,40,209,40*4E\r\n
$GLGSV,3,1,10,66,58,161,39,79,10,260,30,67,12,193,43,82,13,309,31*61\r\n
$GLGSV,3,2,10,80,13,310,27,65,51,048,34,88,49,084,30,81,54,342,41*6E\r\n
$GLGSV,3,3,10,87,04,111,,72,02,025,*6E\r\n
$GAGSV,3,1,11,36,68,358,43,10,12,090,,05,16,175,41,02,29,244,39*66\r\n
$GAGSV,3,2,11,30,22,301,,18,24,140,,04,30,058,36,34,29,292,31*6A\r\n
$GAGSV,3,3,11,11,37,078,35,09,44,122,30,25,09,197,32*5E\r\n
$GBGSV,2,1,06,30,67,106,34,20,54,186,35,27,16,119,35,32,57,063,33*6D\r\n
$GBGSV,2,2,06,29,51,313,32,41,08,039,*65\r\n
$GPZDA,142108.00,18,09,2023,,*6B\r\n
$GPRMC,142108.00,A,3947.6557647,N,10509.2035643,W,0.0,,180923,7.7,E,A*03\r\n
$GPGLL,3947.6557647,N,10509.2035643,W,142108.00,A,A*70\r\n
$GPGGA,142108.00,3947.6557647,N,10509.2035643,W,1,16,0.7,1712.8253,M,-20.7761,M,,*64\r\n
$GPVTG,,T,,M,0.01,N,0.01,K,A*23\r\n
$GPGSA,A,3,65,66,67,81,82,,,,,,,,1.3,0.7,1.1*36\r\n
$GPGSA,A,3,02,04,05,11,25,36,,,,,,,1.3,0.7,1.1*36\r\n
$GPGSA,A,3,20,27,29,30,32,,,,,,,,1.3,0.7,1.1*39\r\n
$GPGSV,1,1,03,44,42,198,39,46,38,215,,48,40,209,40*4E\r\n
$GLGSV,3,1,10,66,58,161,38,79,10,260,30,67,12,193,43,82,13,309,32*63\r\n
$GLGSV,3,2,10,80,13,310,27,65,51,048,33,88,49,084,30,81,54,342,41*69\r\n
$GLGSV,3,3,10,87,04,111,,72,02,025,*6E\r\n
$GAGSV,3,1,11,36,68,358,43,10,12,090,,05,16,175,41,02,29,244,39*66\r\n
$GAGSV,3,2,11,30,22,301,,18,24,140,,04,30,058,36,34,29,292,30*6B\r\n
$GAGSV,3,3,11,11,37,078,35,09,44,122,29,25,09,197,32*56\r\n
$GBGSV,2,1,06,30,67,106,33,20,54,186,35,27,16,119,35,32,57,063,33*6A\r\n
$GBGSV,2,2,06,29,51,313,32,41,08,039,*65\r\n
$GPZDA,142109.00,18,09,2023,,*6A\r\n
$GPRMC,142109.00,A,3947.6557561,N,10509.2035770,W,0.0,,180923,7.7,E,A*04\r\n
$GPGLL,3947.6557561,N,10509.2035770,W,142109.00,A,A*77\r\n
$GPGGA,142109.00,3947.6557561,N,10509.2035770,W,1,16,0.7,1712.8149,M,-20.7761,M,,*6B\r\n
$GPVTG,,T,,M,0.00,N,0.01,K,A*22\r\n
$GPGSA,A,3,65,66,67,81,82,,,,,,,,1.3,0.7,1.1*36\r\n
$GPGSA,A,3,02,04,05,11,25,36,,,,,,,1.3,0.7,1.1*36\r\n
$GPGSA,A,3,20,27,29,30,32,,,,,,,,1.3,0.7,1.1*39\r\n
$GPGSV,1,1,03,44,42,198,38,46,38,215,,48,40,209,40*4F\r\n
$GLGSV,3,1,10,66,58,161,38,79,10,260,30,67,12,193,43,82,13,309,32*63\r\n
$GLGSV,3,2,10,80,13,310,27,65,51,048,33,88,49,084,30,81,54,342,41*69\r\n
$GLGSV,3,3,10,87,04,111,,72,02,025,*6E\r\n
$GAGSV,3,1,11,36,68,358,43,10,12,090,,05,16,175,41,02,29,244,39*66\r\n
$GAGSV,3,2,11,30,22,301,,18,24,140,,04,30,058,36,34,29,292,31*6A\r\n
$GAGSV,3,3,11,11,37,078,35,09,44,122,29,25,09,197,32*56\r\n
$GBGSV,2,1,06,30,67,106,33,20,54,186,35,27,16,119,34,32,57,063,33*6B\r\n
$GBGSV,2,2,06,29,51,313,32,41,08,039,*65\r\n
$GPZDA,142110.00,18,09,2023,,*62\r\n
$GPRMC,142110.00,A,3947.6557546,N,10509.2035819,W,0.0,,180923,7.7,E,A*09\r\n
$GPGLL,3947.6557546,N,10509.2035819,W,142110.00,A,A*7A\r\n
$GPGGA,142110.00,3947.6557546,N,10509.2035819,W,1,16,0.7,1712.8064,M,-20.7761,M,,*68\r\n
$GPVTG,,T,,M,0.01,N,0.01,K,A*23\r\n
$GPGSA,A,3,65,66,67,81,82,,,,,,,,1.3,0.7,1.1*36\r\n
$GPGSA,A,3,02,04,05,11,25,36,,,,,,,1.3,0.7,1.1*36\r\n
$GPGSA,A,3,20,27,29,30,32,,,,,,,,1.3,0.7,1.1*39\r\n
$GPGSV,1,1,03,44,42,198,39,46,38,215,,48,40,209,40*4E\r\n
$GLGSV,3,1,10,66,58,161,38,79,10,260,31,67,12,193,43,82,13,309,32*62\r\n
$GLGSV,3,2,10,80,13,310,26,65,51,048,34,88,49,084,29,81,54,342,41*67\r\n
$GLGSV,3,3,10,87,04,111,,72,02,025,*6E\r\n
$GAGSV,3,1,11,36,68,358,43,10,12,090,,05,16,175,41,02,29,244,39*66\r\n
$GAGSV,3,2,11,30,22,301,,18,24,140,,04,30,058,36,34,29,292,30*6B\r\n
$GAGSV,3,3,11,11,37,078,35,09,44,122,30,25,09,197,32*5E\r\n
$GBGSV,2,1,06,30,67,106,33,20,54,187,35,27,16,119,35,32,57,063,32*6A\r\n
$GBGSV,2,2,06,29,52,313,31,41,08,039,*65\r\n
$GPZDA,142111.00,18,09,2023,,*63\r\n
$GPRMC,142111.00,A,3947.6557494,N,10509.2036027,W,0.0,,180923,7.7,E,A*00\r\n
$GPGLL,3947.6557494,N,10509.2036027,W,142111.00,A,A*73\r\n
$GPGGA,142111.00,3947.6557494,N,10509.2036027,W,1,16,0.7,1712.8069,M,-20.7761,M,,*6C\r\n
$GPVTG,,T,,M,0.01,N,0.01,K,A*23\r\n
$GPGSA,A,3,65,66,67,81,82,,,,,,,,1.3,0.7,1.1*36\r\n
$GPGSA,A,3,02,04,05,11,25,36,,,,,,,1.3,0.7,1.1*36\r\n
$GPGSA,A,3,20,27,29,30,32,,,,,,,,1.3,0.7,1.1*39\r\n
$GPGSV,1,1,03,44,42,198,39,46,38,215,,48,40,209,40*4E\r\n
$GLGSV,3,1,10,66,58,161,38,79,10,260,31,67,12,193,43,82,13,309,32*62\r\n
$GLGSV,3,2,10,80,13,310,26,65,51,048,34,88,49,084,30,81,54,342,41*6F\r\n
$GLGSV,3,3,10,87,04,111,,72,02,025,*6E\r\n
$GAGSV,3,1,11,36,68,358,43,10,12,090,,05,16,175,41,02,29,244,39*66\r\n
$GAGSV,3,2,11,30,22,301,,18,24,140,,04,30,058,36,34,29,292,30*6B\r\n
$GAGSV,3,3,11,11,37,078,35,09,44,122,30,25,09,197,32*5E\r\n
$GBGSV,2,1,06,30,67,106,33,20,54,187,35,27,16,119,35,32,57,063,32*6A\r\n
$GBGSV,2,2,06,29,52,313,31,41,08,039,*65\r\n
$GPZDA,142112.00,18,09,2023,,*60\r\n
$GPRMC,142112.00,A,3947.6557410,N,10509.2036149,W,0.0,,180923,7.7,E,A*06\r\n
$GPGLL,3947.6557410,N,10509.2036149,W,142112.00,A,A*75\r\n
$GPGGA,142112.00,3947.6557410,N,10509.2036149,W,1,16,0.7,1712.8062,M,-20.7761,M,,*61\r\n
$GPVTG,,T,,M,0.00,N,0.00,K,A*23\r\n
$GPGSA,A,3,65,66,67,79,81,82,,,,,,,1.3,0.7,1.0*39\r\n
$GPGSA,A,3,02,04,05,11,25,36,,,,,,,1.3,0.7,1.0*37\r\n
$GPGSA,A,3,20,27,30,32,,,,,,,,,1.3,0.7,1.0*33\r\n
$GPGSV,1,1,03,44,42,198,39,46,38,215,,48,40,209,41*4F\r\n
$GLGSV,3,1,10,66,58,161,38,79,10,260,31,67,12,193,43,82,13,309,32*62\r\n
$GLGSV,3,2,10,80,13,310,26,65,51,048,34,88,49,084,29,81,54,342,41*67\r\n
$GLGSV,3,3,10,87,04,111,,72,02,025,*6E\r\n
$GAGSV,3,1,11,36,68,358,43,10,12,090,,05,16,175,41,02,29,244,39*66\r\n
$GAGSV,3,2,11,30,22,301,,18,24,140,,04,30,058,36,34,29,292,30*6B\r\n
$GAGSV,3,3,11,11,37,078,35,09,44,122,29,25,09,197,32*56\r\n
$GBGSV,2,1,06,30,67,106,33,20,54,187,35,27,16,119,35,32,57,063,32*6A\r\n
$GBGSV,2,2,06,29,52,313,31,41,08,039,*65\r\n
$GPZDA,142113.00,18,09,2023,,*61\r\n
$GPRMC,142113.00,A,3947.6557329,N,10509.2036306,W,0.0,,180923,7.7,E,A*03\r\n
$GPGLL,3947.6557329,N,10509.2036306,W,142113.00,A,A*70\r\n
$GPGGA,142113.00,3947.6557329,N,10509.2036306,W,1,16,0.7,1712.7962,M,-20.7761,M,,*62\r\n
$GPVTG,,T,,M,0.01,N,0.01,K,A*23\r\n
$GPGSA,A,3,65,66,67,79,81,82,,,,,,,1.3,0.7,1.0*39\r\n
$GPGSA,A,3,02,04,05,11,25,36,,,,,,,1.3,0.7,1.0*37\r\n
$GPGSA,A,3,20,27,30,32,,,,,,,,,1.3,0.7,1.0*33\r\n
$GPGSV,1,1,03,44,42,198,39,46,38,215,,48,40,209,40*4E\r\n
$GLGSV,3,1,10,66,58,161,38,79,10,260,31,67,12,193,42,82,13,309,32*63\r\n
$GLGSV,3,2,10,80,13,310,26,65,51,048,34,88,49,084,28,81,54,342,40*67\r\n
$GLGSV,3,3,10,87,04,111,,72,02,025,*6E\r\n
$GAGSV,3,1,11,36,68,358,43,10,12,090,,05,16,175,41,02,29,244,39*66\r\n
$GAGSV,3,2,11,30,22,301,,18,24,140,,04,30,058,36,34,29,292,30*6B\r\n
$GAGSV,3,3,11,11,37,078,35,09,44,122,30,25,09,197,32*5E\r\n
$GBGSV,2,1,06,30,67,106,33,20,54,187,35,27,16,119,35,32,57,063,32*6A\r\n
$GBGSV,2,2,06,29,52,313,31,41,08,039,*65\r\n
$GPZDA,142114.00,18,09,2023,,*66\r\n
$GPRMC,142114.00,A,3947.6557372,N,10509.2036406,W,0.0,,180923,7.7,E,A*0D\r\n
$GPGLL,3947.6557372,N,10509.2036406,W,142114.00,A,A*7E\r\n
$GPGGA,142114.00,3947.6557372,N,10509.2036406,W,1,16,0.7,1712.7833,M,-20.7761,M,,*69\r\n
$GPVTG,,T,,M,0.01,N,0.02,K,A*20\r\n
$GPGSA,A,3,65,66,67,79,81,82,,,,,,,1.3,0.7,1.0*39\r\n
$GPGSA,A,3,02,04,05,11,25,36,,,,,,,1.3,0.7,1.0*37\r\n
$GPGSA,A,3,20,27,30,32,,,,,,,,,1.3,0.7,1.0*33\r\n
$GPGSV,1,1,03,44,42,198,38,46,38,215,,48,40,209,40*4F\r\n
$GLGSV,3,1,10,66,58,161,38,79,10,260,31,67,12,193,42,82,13,309,32*63\r\n
$GLGSV,3,2,10,80,13,310,26,65,51,048,34,88,49,084,28,81,54,342,40*67\r\n
$GLGSV,3,3,10,87,04,111,,72,02,025,*6E\r\n
$GAGSV,3,1,11,36,68,358,43,10,12,090,,05,16,175,41,02,29,244,39*66\r\n
$GAGSV,3,2,11,30,22,301,,18,24,140,,04,30,058,36,34,29,292,30*6B\r\n
$GAGSV,3,3,11,11,37,078,35,09,44,122,30,25,09,197,32*5E\r\n
$GBGSV,2,1,06,30,67,106,33,20,54,187,35,27,16,119,34,32,57,063,32*6B\r\n
$GBGSV,2,2,06,29,52,313,31,41,08,039,*65\r\n
$GPZDA,142115.00,18,09,2023,,*67\r\n
$GPRMC,142115.00,A,3947.6557335,N,10509.2036456,W,0.0,,180923,7.7,E,A*0A\r\n
$GPGLL,3947.6557335,N,10509.2036456,W,142115.00,A,A*79\r\n
$GPGGA,142115.00,3947.6557335,N,10509.2036456,W,1,16,0.7,1712.7657,M,-20.7761,M,,*62\r\n
$GPVTG,,T,,M,0.00,N,0.01,K,A*22\r\n
$GPGSA,A,3,65,66,67,79,81,82,,,,,,,1.3,0.7,1.0*39\r\n
$GPGSA,A,3,02,04,05,11,25,36,,,,,,,1.3,0.7,1.0*37\r\n
$GPGSA,A,3,20,27,30,32,,,,,,,,,1.3,0.7,1.0*33\r\n
$GPGSV,1,1,03,44,42,198,39,46,38,215,,48,40,209,40*4E\r\n
$GLGSV,3,1,10,66,58,161,39,79,10,260,32,67,12,193,42,82,13,309,31*62\r\n
$GLGSV,3,2,10,80,13,310,25,65,51,048,34,88,49,084,29,81,54,342,40*65\r\n
$GLGSV,3,3,10,87,04,111,,72,02,025,*6E\r\n
$GAGSV,3,1,11,36,68,358,43,10,12,090,,05,16,175,41,02,29,244,39*66\r\n
$GAGSV,3,2,11,30,22,301,,18,24,140,,04,30,058,36,34,29,292,30*6B\r\n
$GAGSV,3,3,11,11,37,078,35,09,44,122,30,25,09,197,32*5E\r\n
$GBGSV,2,1,06,30,67,106,34,20,54,187,35,27,16,119,34,32,57,063,33*6D\r\n
$GBGSV,2,2,06,29,52,313,32,41,08,039,*66\r\n
$GPZDA,142116.00,18,09,2023,,*64\r\n
$GPRMC,142116.00,A,3947.6557201,N,10509.2036602,W,0.0,,180923,7.7,E,A*0C\r\n
$GPGLL,3947.6557201,N,10509.2036602,W,142116.00,A,A*7F\r\n
$GPGGA,142116.00,3947.6557201,N,10509.2036602,W,1,16,0.7,1712.7621,M,-20.7761,M,,*65\r\n
$GPVTG,,T,,M,0.01,N,0.02,K,A*20\r\n
$GPGSA,A,3,65,66,67,79,81,82,,,,,,,1.3,0.7,1.0*39\r\n
$GPGSA,A,3,02,04,05,11,25,36,,,,,,,1.3,0.7,1.0*37\r\n
$GPGSA,A,3,20,27,30,32,,,,,,,,,1.3,0.7,1.0*33\r\n
$GPGSV,1,1,03,44,42,198,39,46,38,215,,48,40,209,40*4E\r\n
$GLGSV,3,1,10,66,58,161,39,79,10,259,31,67,12,193,43,82,13,310,32*61\r\n
$GLGSV,3,2,10,80,13,310,24,65,51,048,35,88,49,084,29,81,54,342,40*65\r\n
$GLGSV,3,3,10,87,04,111,,72,02,025,*6E\r\n
$GAGSV,3,1,11,36,68,358,43,10,12,090,,05,16,175,41,02,29,244,39*66\r\n
$GAGSV,3,2,11,30,22,301,,18,24,140,,04,30,058,37,34,29,293,31*6A\r\n
$GAGSV,3,3,11,11,37,078,35,09,44,122,29,25,09,197,32*56\r\n
$GBGSV,2,1,06,30,67,107,33,20,54,187,35,27,16,119,34,32,57,063,33*6B\r\n
$GBGSV,2,2,06,29,52,313,32,41,08,039,*66\r\n
$GPZDA,142117.00,18,09,2023,,*65\r\n
$GPRMC,142117.00,A,3947.6557169,N,10509.2036749,W,0.0,,180923,7.7,E,A*0E\r\n
$GPGLL,3947.6557169,N,10509.2036749,W,142117.00,A,A*7D\r\n
$GPGGA,142117.00,3947.6557169,N,10509.2036749,W,1,16,0.8,1712.7458,M,-20.7761,M,,*64\r\n
$GPVTG,,T,,M,0.00,N,0.01,K,A*22\r\n
$GPGSA,A,3,65,66,67,79,81,,,,,,,,1.4,0.8,1.2*39\r\n
$GPGSA,A,3,02,04,05,11,25,36,,,,,,,1.4,0.8,1.2*3D\r\n
$GPGSA,A,3,20,27,29,30,32,,,,,,,,1.4,0.8,1.2*32\r\n
$GPGSV,1,1,03,44,42,198,43,46,38,215,,48,40,209,44*47\r\n
$GLGSV,3,1,10,66,58,161,38,79,10,259,31,67,12,193,41,82,13,310,32*62\r\n
$GLGSV,3,2,10,80,13,310,24,65,51,048,33,88,49,084,28,81,54,342,39*6C\r\n
$GLGSV,3,3,10,87,04,111,,72,02,025,*6E\r\n
$GAGSV,3,1,11,36,68,358,43,10,12,090,,05,16,175,41,02,29,244,39*66\r\n
$GAGSV,3,2,11,30,22,301,,18,24,140,,04,30,058,36,34,29,293,30*6A\r\n
$GAGSV,3,3,11,11,37,078,35,09,44,122,33,25,09,197,32*5D\r\n
$GBGSV,2,1,06,30,67,107,40,20,54,187,42,27,16,119,34,32,57,063,39*65\r\n
$GBGSV,2,2,06,29,52,313,38,41,08,039,*6C\r\n
$GPZDA,142118.00,18,09,2023,,*6A\r\n
$GPRMC,142118.00,A,3947.6557007,N,10509.2036861,W,0.0,,180923,7.7,E,A*0D\r\n
$GPGLL,3947.6557007,N,10509.2036861,W,142118.00,A,A*7E\r\n
$GPGGA,142118.00,3947.6557007,N,10509.2036861,W,1,16,0.8,1712.7593,M,-20.7761,M,,*61\r\n
$GPVTG,,T,,M,0.01,N,0.02,K,A*20\r\n
$GPGSA,A,3,65,66,67,79,81,,,,,,,,1.4,0.8,1.2*39\r\n
$GPGSA,A,3,02,04,05,09,11,36,,,,,,,1.4,0.8,1.2*33\r\n
$GPGSA,A,3,20,27,29,30,32,,,,,,,,1.4,0.8,1.2*32\r\n
$GPGSV,1,1,03,44,42,198,53,46,38,215,,48,40,209,54*47\r\n
$GLGSV,3,1,10,66,58,161,45,79,10,259,32,67,12,193,48,82,13,310,31*61\r\n
$GLGSV,3,2,10,80,13,310,23,65,51,048,40,88,49,084,33,81,54,342,46*6D\r\n
$GLGSV,3,3,10,87,04,111,,72,02,025,*6E\r\n
$GAGSV,3,1,11,36,68,358,43,10,12,090,,05,16,175,41,02,29,244,39*66\r\n
$GAGSV,3,2,11,30,22,301,,18,24,140,,04,30,058,36,34,29,293,30*6A\r\n
$GAGSV,3,3,11,11,37,078,35,09,44,122,43,25,09,197,32*5A\r\n
$GBGSV,2,1,06,30,67,107,51,20,54,187,52,27,16,119,34,32,57,063,50*6B\r\n
$GBGSV,2,2,06,29,52,313,49,41,08,039,*6A\r\n
$GPZDA,142119.00,18,09,2023,,*6B\r\n
$GPRMC,142119.00,A,3947.6556874,N,10509.2036977,W,0.0,,180923,7.7,E,A*07\r\n
$GPGLL,3947.6556874,N,10509.2036977,W,142119.00,A,A*74\r\n
$GPGGA,142119.00,3947.6556874,N,10509.2036977,W,1,16,0.8,1712.7479,M,-20.7761,M,,*6E\r\n
$GPVTG,,T,,M,0.01,N,0.02,K,A*20\r\n
$GPGSA,A,3,65,66,67,81,88,,,,,,,,1.6,0.8,1.3*34\r\n
$GPGSA,A,3,02,04,05,09,11,36,,,,,,,1.6,0.8,1.3*30\r\n
$GPGSA,A,3,20,27,29,30,32,,,,,,,,1.6,0.8,1.3*31\r\n
$GPGSV,1,1,03,44,42,198,53,46,38,215,,48,40,209,54*47\r\n
$GLGSV,3,1,10,66,58,161,45,79,10,259,32,67,12,193,48,82,13,310,32*62\r\n
$GLGSV,3,2,10,80,13,310,24,65,51,048,41,88,49,084,33,81,54,342,46*6B\r\n
$GLGSV,3,3,10,87,04,111,,72,02,025,*6E\r\n
$GAGSV,3,1,11,36,68,358,43,10,12,090,,05,16,175,41,02,29,244,39*66\r\n
$GAGSV,3,2,11,30,22,301,,18,24,140,,04,30,058,36,34,29,293,30*6A\r\n
$GAGSV,3,3,11,11,37,078,35,09,44,122,43,25,09,197,31*59\r\n
$GBGSV,2,1,06,30,67,107,50,20,54,187,52,27,16,119,34,32,57,063,49*62\r\n
$GBGSV,2,2,06,29,52,313,48,41,08,039,*6B\r\n
$GPZDA,142120.00,18,09,2023,,*61\r\n
$GPRMC,142120.00,A,3947.6556745,N,10509.2037136,W,0.0,,180923,7.7,E,A*0C\r\n
$GPGLL,3947.6556745,N,10509.2037136,W,142120.00,A,A*7F\r\n
$GPGGA,142120.00,3947.6556745,N,10509.2037136,W,1,16,0.8,1712.7453,M,-20.7761,M,,*6D\r\n
$GPVTG,,T,,M,0.01,N,0.02,K,A*20\r\n
$GPGSA,A,3,65,66,67,81,88,,,,,,,,1.6,0.8,1.3*34\r\n
$GPGSA,A,3,02,04,05,09,11,36,,,,,,,1.6,0.8,1.3*30\r\n
$GPGSA,A,3,20,27,29,30,32,,,,,,,,1.6,0.8,1.3*31\r\n
$GPGSV,1,1,03,44,42,198,45,46,38,215,,48,40,209,46*43\r\n
$GLGSV,3,1,10,66,58,161,45,79,10,259,31,67,12,193,47,82,13,310,32*6E\r\n
$GLGSV,3,2,10,80,13,310,25,65,51,048,39,88,49,084,32,81,54,342,45*67\r\n
$GLGSV,3,3,10,87,04,111,,72,02,025,*6E\r\n
$GAGSV,3,1,11,36,68,358,43,10,12,090,,05,16,175,41,02,29,244,39*66\r\n
$GAGSV,3,2,11,30,22,301,,18,24,140,,04,30,058,36,34,29,293,30*6A\r\n
$GAGSV,3,3,11,11,37,078,35,09,44,122,36,25,09,197,32*58\r\n
$GBGSV,2,1,06,30,67,107,49,20,54,187,50,27,16,119,34,32,57,063,48*69\r\n
$GBGSV,2,2,06,29,52,313,47,41,08,039,*64\r\n
$GPZDA,142121.00,18,09,2023,,*60\r\n
$GPRMC,142121.00,A,3947.6556629,N,10509.2037285,W,0.0,,180923,7.7,E,A*0D\r\n
$GPGLL,3947.6556629,N,10509.2037285,W,142121.00,A,A*7E\r\n
$GPGGA,142121.00,3947.6556629,N,10509.2037285,W,1,16,0.7,1712.7517,M,-20.7761,M,,*62\r\n
$GPVTG,,T,,M,0.01,N,0.01,K,A*23\r\n
$GPGSA,A,3,65,66,67,79,81,82,,,,,,,1.3,0.7,1.0*39\r\n
$GPGSA,A,3,04,09,11,25,36,,,,,,,,1.3,0.7,1.0*39\r\n
$GPGSA,A,3,20,27,29,30,32,,,,,,,,1.3,0.7,1.0*38\r\n
$GPGSV,1,1,03,44,42,198,46,46,38,215,46,48,40,209,48*4C\r\n
$GLGSV,3,1,10,66,58,161,45,79,10,259,31,67,12,193,47,82,13,310,32*6E\r\n
$GLGSV,3,2,10,80,13,310,26,65,51,048,40,88,49,084,31,81,54,342,45*69\r\n
$GLGSV,3,3,10,87,04,111,,72,02,025,*6E\r\n
$GAGSV,3,1,11,36,68,358,33,10,12,090,,05,16,175,32,02,29,244,31*6D\r\n
$GAGSV,3,2,11,30,22,301,,18,24,140,,04,30,058,36,34,29,293,30*6A\r\n
$GAGSV,3,3,11,11,37,078,35,09,44,122,37,25,09,197,32*59\r\n
$GBGSV,2,1,06,30,67,107,49,20,54,187,50,27,16,119,34,32,57,063,48*69\r\n
$GBGSV,2,2,06,29,52,313,47,41,08,039,*64\r\n
$GPZDA,142122.00,18,09,2023,,*63\r\n
$GPRMC,142122.00,A,3947.6556467,N,10509.2037306,W,0.0,,180923,7.7,E,A*0C\r\n
$GPGLL,3947.6556467,N,10509.2037306,W,142122.00,A,A*7F\r\n
$GPGGA,142122.00,3947.6556467,N,10509.2037306,W,1,16,0.7,1712.7724,M,-20.7761,M,,*61\r\n
$GPVTG,,T,,M,0.01,N,0.01,K,A*23\r\n
$GPGSA,A,3,65,66,67,81,82,,,,,,,,1.3,0.7,1.1*36\r\n
$GPGSA,A,3,02,04,05,09,11,36,,,,,,,1.3,0.7,1.1*38\r\n
$GPGSA,A,3,20,27,29,30,32,,,,,,,,1.3,0.7,1.1*39\r\n
$GPGSV,1,1,03,44,42,198,48,46,38,215,48,48,40,209,50*45\r\n
$GLGSV,3,1,10,66,58,161,46,79,10,259,31,67,12,193,47,80,13,310,25*69\r\n
$GLGSV,3,2,10,82,13,310,32,65,50,047,40,88,49,084,31,81,54,342,45*60\r\n
$GLGSV,3,3,10,87,04,111,,72,02,025,*6E\r\n
$GAGSV,3,1,11,36,68,358,35,10,12,090,,05,16,175,35,02,29,244,33*6E\r\n
$GAGSV,3,2,11,30,22,301,,18,24,140,,04,30,058,36,34,29,293,30*6A\r\n
$GAGSV,3,3,11,11,37,079,35,09,44,122,40,25,09,197,32*58\r\n
$GBGSV,2,1,06,30,67,107,48,20,54,187,50,27,16,119,34,32,57,063,48*68\r\n
$GBGSV,2,2,06,29,52,313,47,41,08,039,*64\r\n
$GPZDA,142123.00,18,09,2023,,*62\r\n
$GPRMC,142123.00,A,3947.6556186,N,10509.2037243,W,0.0,,180923,7.7,E,A*07\r\n
$GPGLL,3947.6556186,N,10509.2037243,W,142123.00,A,A*74\r\n
$GPGGA,142123.00,3947.6556186,N,10509.2037243,W,1,16,0.7,1712.8072,M,-20.7761,M,,*61\r\n
$GPVTG,,T,,M,0.01,N,0.01,K,A*23\r\n
$GPGSA,A,3,65,66,67,81,82,,,,,,,,1.3,0.7,1.1*36\r\n
$GPGSA,A,3,02,04,05,09,11,36,,,,,,,1.3,0.7,1.1*38\r\n
$GPGSA,A,3,20,27,29,30,32,,,,,,,,1.3,0.7,1.1*39\r\n
$GPGSV,1,1,03,44,42,198,52,46,38,215,51,48,40,209,53*45\r\n
$GLGSV,3,1,10,66,58,161,46,79,10,259,31,67,12,193,47,80,13,310,26*6A\r\n
$GLGSV,3,2,10,82,13,310,33,65,50,047,40,88,49,084,30,81,54,342,45*60\r\n
$GLGSV,3,3,10,87,04,111,,72,02,025,*6E\r\n
$GAGSV,3,1,11,36,68,358,39,10,12,090,,05,16,175,38,02,29,244,37*6B\r\n
$GAGSV,3,2,11,30,22,301,,18,24,140,,04,30,058,36,34,29,293,30*6A\r\n
$GAGSV,3,3,11,11,37,079,35,09,44,122,43,25,09,197,32*5B\r\n
$GBGSV,2,1,06,30,67,107,48,20,54,187,50,27,16,119,34,32,57,063,48*68\r\n
$GBGSV,2,2,06,29,52,313,47,41,08,039,*64\r\n
$GPZDA,142124.00,18,09,2023,,*65\r\n
$GPRMC,142124.00,A,3947.6555948,N,10509.2037109,W,0.0,,180923,7.7,E,A*04\r\n
$GPGLL,3947.6555948,N,10509.2037109,W,142124.00,A,A*77\r\n
$GPGGA,142124.00,3947.6555948,N,10509.2037109,W,1,16,0.7,1712.8325,M,-20.7761,M,,*63\r\n
$GPVTG,,T,,M,0.01,N,0.02,K,A*20\r\n
$GPGSA,A,3,65,66,67,81,82,,,,,,,,1.3,0.7,1.1*36\r\n
$GPGSA,A,3,02,04,05,09,11,36,,,,,,,1.3,0.7,1.1*38\r\n
$GPGSA,A,3,20,27,29,30,32,,,,,,,,1.3,0.7,1.1*39\r\n
$GPGSV,1,1,03,44,42,198,44,46,38,215,44,48,40,209,46*42\r\n
$GLGSV,3,1,10,66,58,161,45,79,10,259,31,67,12,193,45,80,13,310,26*6B\r\n
$GLGSV,3,2,10,82,13,310,33,65,50,047,38,88,49,084,30,81,54,342,44*6E\r\n
$GLGSV,3,3,10,87,04,111,,72,02,025,*6E\r\n
$GAGSV,3,1,11,36,68,358,32,10,12,090,,05,16,175,31,02,29,244,30*6E\r\n
$GAGSV,3,2,11,30,22,301,,18,24,140,,04,30,058,37,34,29,293,30*6B\r\n
$GAGSV,3,3,11,11,37,079,35,09,44,122,36,25,09,197,32*59\r\n
$GBGSV,2,1,06,30,67,107,47,20,54,187,49,27,16,119,34,32,57,063,46*61\r\n
$GBGSV,2,2,06,29,52,313,45,41,08,039,*66\r\n
$GPZDA,142125.00,18,09,2023,,*64\r\n
$GPRMC,142125.00,A,3947.6555685,N,10509.2037054,W,0.0,,180923,7.7,E,A*02\r\n
$GPGLL,3947.6555685,N,10509.2037054,W,142125.00,A,A*71\r\n
$GPGGA,142125.00,3947.6555685,N,10509.2037054,W,1,16,0.8,1712.8543,M,-20.7761,M,,*6C\r\n
$GPVTG,,T,,M,0.01,N,0.02,K,A*20\r\n
$GPGSA,A,3,65,66,67,81,82,,,,,,,,1.3,0.8,1.0*38\r\n
$GPGSA,A,3,04,05,09,11,25,36,,,,,,,1.3,0.8,1.0*33\r\n
$GPGSA,A,3,20,27,29,30,32,,,,,,,,1.3,0.8,1.0*37\r\n
$GPGSV,1,1,03,44,42,198,51,46,38,215,50,48,40,209,52*46\r\n
$GLGSV,3,1,10,66,58,161,47,79,10,259,31,67,12,193,46,80,13,310,26*6A\r\n
$GLGSV,3,2,10,82,13,310,33,65,50,047,39,88,49,084,30,81,54,342,44*6F\r\n
$GLGSV,3,3,10,87,04,111,,72,02,025,*6E\r\n
$GAGSV,3,1,11,36,68,358,39,10,12,090,,05,16,175,38,02,29,244,37*6B\r\n
$GAGSV,3,2,11,30,22,301,,18,24,140,,04,30,058,37,34,29,293,30*6B\r\n
$GAGSV,3,3,11,11,37,079,35,09,44,122,43,25,09,197,32*5B\r\n
$GBGSV,2,1,06,30,67,107,47,20,54,187,49,27,16,119,34,32,57,063,47*60\r\n
$GBGSV,2,2,06,29,52,313,46,41,08,039,*65\r\n
$GPZDA,142126.00,18,09,2023,,*67\r\n
$GPRMC,142126.00,A,3947.6555310,N,10509.2036673,W,0.0,,180923,7.7,E,A*0A\r\n
$GPGLL,3947.6555310,N,10509.2036673,W,142126.00,A,A*79\r\n
$GPGGA,142126.00,3947.6555310,N,10509.2036673,W,1,16,0.7,1712.8925,M,-20.7761,M,,*67\r\n
$GPVTG,,T,,M,0.01,N,0.02,K,A*20\r\n
$GPGSA,A,3,65,66,67,81,82,,,,,,,,1.3,0.7,1.1*36\r\n
$GPGSA,A,3,02,04,05,09,11,36,,,,,,,1.3,0.7,1.1*38\r\n
$GPGSA,A,3,20,27,29,30,32,,,,,,,,1.3,0.7,1.1*39\r\n
$GPGSV,1,1,03,44,42,198,52,46,38,215,51,48,40,209,54*42\r\n
$GLGSV,3,1,10,66,58,161,47,79,10,259,32,67,12,193,47,80,13,310,27*69\r\n
$GLGSV,3,2,10,82,13,310,33,65,50,047,39,88,49,084,31,81,54,342,44*6E\r\n
$GLGSV,3,3,10,87,04,111,,72,02,025,*6E\r\n
$GAGSV,3,1,11,36,68,358,40,10,12,090,,05,16,175,39,02,29,244,38*6B\r\n
$GAGSV,3,2,11,30,22,301,,18,24,140,,04,30,058,36,34,29,293,30*6A\r\n
$GAGSV,3,3,11,11,37,079,35,09,44,122,44,25,09,197,32*5C\r\n
$GBGSV,2,1,06,30,67,107,47,20,54,187,50,27,16,119,34,32,57,063,47*68\r\n
$GBGSV,2,2,06,29,52,313,46,41,08,039,*65\r\n
$GPZDA,142127.00,18,09,2023,,*66\r\n
$GPRMC,142127.00,A,3947.6554972,N,10509.2036267,W,0.0,,180923,7.7,E,A*05\r\n
$GPGLL,3947.6554972,N,10509.2036267,W,142127.00,A,A*76\r\n
$GPGGA,142127.00,3947.6554972,N,10509.2036267,W,1,16,0.7,1712.9215,M,-20.7761,M,,*61\r\n
$GPVTG,,T,,M,0.01,N,0.01,K,A*23\r\n
$GPGSA,A,3,65,66,67,81,82,,,,,,,,1.3,0.7,1.1*36\r\n
$GPGSA,A,3,02,04,05,09,11,36,,,,,,,1.3,0.7,1.1*38\r\n
$GPGSA,A,3,20,27,29,30,32,,,,,,,,1.3,0.7,1.1*39\r\n
$GPGSV,1,1,03,44,42,198,52,46,38,215,51,48,40,209,53*45\r\n
$GLGSV,3,1,10,66,58,161,47,79,10,259,31,67,12,193,46,80,13,310,28*64\r\n
$GLGSV,3,2,10,82,13,310,33,65,50,047,39,88,49,084,32,81,54,342,44*6D\r\n
$GLGSV,3,3,10,87,04,111,,72,02,025,*6E\r\n
$GAGSV,3,1,11,36,68,358,40,10,12,090,,05,16,175,39,02,29,244,38*6B\r\n
$GAGSV,3,2,11,30,22,301,,18,24,140,,04,30,058,36,34,29,293,29*62\r\n
$GAGSV,3,3,11,11,37,079,35,09,44,122,44,25,09,197,32*5C\r\n
$GBGSV,2,1,06,30,67,107,47,20,54,187,49,27,16,119,33,32,57,063,47*67\r\n
$GBGSV,2,2,06,29,52,313,46,41,08,039,*65\r\n
$GPZDA,142128.00,18,09,2023,,*69\r\n
$GPRMC,142128.00,A,3947.6554649,N,10509.2035909,W,0.0,,180923,7.7,E,A*0D\r\n
$GPGLL,3947.6554649,N,10509.2035909,W,142128.00,A,A*7E\r\n
$GPGGA,142128.00,3947.6554649,N,10509.2035909,W,1,16,0.7,1712.9526,M,-20.7761,M,,*6E\r\n
$GPVTG,,T,,M,0.00,N,0.01,K,A*22\r\n
$GPGSA,A,3,65,66,67,81,82,,,,,,,,1.3,0.7,1.1*36\r\n
$GPGSA,A,3,02,04,05,09,11,36,,,,,,,1.3,0.7,1.1*38\r\n
$GPGSA,A,3,20,27,29,30,32,,,,,,,,1.3,0.7,1.1*39\r\n
$GPGSV,1,1,03,44,42,198,46,46,38,215,46,48,40,209,48*4C\r\n
$GLGSV,3,1,10,66,58,161,47,79,10,259,31,67,12,193,45,80,13,310,28*67\r\n
$GLGSV,3,2,10,82,13,310,34,65,50,047,38,88,49,084,32,81,54,342,44*6B\r\n
$GLGSV,3,3,10,87,04,111,,72,02,025,*6E\r\n
$GAGSV,3,1,11,36,68,358,35,10,12,090,,05,16,175,34,02,29,244,32*6E\r\n
$GAGSV,3,2,11,30,22,301,,18,24,140,,04,30,058,36,34,29,293,29*62\r\n
$GAGSV,3,3,11,11,37,079,35,09,44,122,38,25,09,197,32*57\r\n
$GBGSV,2,1,06,30,67,107,46,20,54,187,48,27,16,119,33,32,57,063,46*66\r\n
$GBGSV,2,2,06,29,52,313,45,41,08,039,*66\r\n
$GPZDA,142129.00,18,09,2023,,*68\r\n
$GPRMC,142129.00,A,3947.6554343,N,10509.2035752,W,0.0,,180923,7.7,E,A*03\r\n
$GPGLL,3947.6554343,N,10509.2035752,W,142129.00,A,A*70\r\n
$GPGGA,142129.00,3947.6554343,N,10509.2035752,W,1,16,0.7,1712.9801,M,-20.7761,M,,*68\r\n
$GPVTG,,T,,M,0.01,N,0.01,K,A*23\r\n
$GPGSA,A,3,65,66,67,81,82,,,,,,,,1.3,0.7,1.1*36\r\n
$GPGSA,A,3,02,04,05,09,11,36,,,,,,,1.3,0.7,1.1*38\r\n
$GPGSA,A,3,20,27,29,30,32,,,,,,,,1.3,0.7,1.1*39\r\n
$GPGSV,1,1,03,44,42,198,51,46,38,215,50,48,40,209,53*47\r\n
$GLGSV,3,1,10,66,58,161,48,79,10,259,31,67,12,193,46,80,13,310,29*6A\r\n
$GLGSV,3,2,10,82,13,310,34,65,50,047,39,88,49,084,33,81,54,342,44*6B\r\n
$GLGSV,3,3,10,87,04,111,,72,02,025,*6E\r\n
$GAGSV,3,1,11,36,68,358,40,10,12,090,,05,16,175,39,02,29,244,37*64\r\n
$GAGSV,3,2,11,30,22,301,,18,24,140,,04,30,058,36,34,29,293,29*62\r\n
$GAGSV,3,3,11,11,37,079,34,09,44,122,43,25,09,197,32*5A\r\n
$GBGSV,2,1,06,30,67,107,46,20,54,187,49,27,16,119,33,32,57,063,46*67\r\n
$GBGSV,2,2,06,29,52,313,45,41,08,039,*66\r\n
$GPZDA,142130.00,18,09,2023,,*60\r\n
$GPRMC,142130.00,A,3947.6554100,N,10509.2035196,W,0.0,,180923,7.7,E,A*00\r\n
$GPGLL,3947.6554100,N,10509.2035196,W,142130.00,A,A*73\r\n
$GPGGA,142130.00,3947.6554100,N,10509.2035196,W,1,16,0.7,1713.0160,M,-20.7761,M,,*6D\r\n
$GPVTG,,T,,M,0.01,N,0.02,K,A*20\r\n
$GPGSA,A,3,65,66,67,81,82,,,,,,,,1.3,0.7,1.1*36\r\n
$GPGSA,A,3,02,04,05,09,11,36,,,,,,,1.3,0.7,1.1*38\r\n
$GPGSA,A,3,20,27,29,30,32,,,,,,,,1.3,0.7,1.1*39\r\n
$GPGSV,1,1,03,44,42,198,48,46,38,215,47,48,40,209,49*42\r\n
$GLGSV,3,1,10,66,58,161,48,79,10,259,31,67,12,193,45,80,13,310,*62\r\n
$GLGSV,3,2,10,82,13,310,33,65,50,047,38,88,49,084,32,81,54,342,43*6B\r\n
$GLGSV,3,3,10,87,04,111,,72,02,025,*6E\r\n
$GAGSV,3,1,11,36,68,358,36,10,12,090,,05,16,175,36,02,29,244,34*69\r\n
$GAGSV,3,2,11,30,22,301,,18,24,140,,04,30,058,36,34,29,293,30*6A\r\n
$GAGSV,3,3,11,11,37,079,34,09,44,122,40,25,09,197,32*59\r\n
$GBGSV,2,1,06,30,67,107,46,20,54,187,48,27,16,119,33,32,57,063,46*66\r\n
$GBGSV,2,2,06,29,52,313,45,41,08,039,*66\r\n
$GPZDA,142131.00,18,09,2023,,*61\r\n
$GPRMC,142131.00,A,3947.6553864,N,10509.2034841,W,0.0,,180923,7.7,E,A*0F\r\n
$GPGLL,3947.6553864,N,10509.2034841,W,142131.00,A,A*7C\r\n
$GPGGA,142131.00,3947.6553864,N,10509.2034841,W,1,16,0.7,1713.0424,M,-20.7761,M,,*67\r\n
$GPVTG,,T,,M,0.01,N,0.02,K,A*20\r\n
$GPGSA,A,3,65,66,67,81,82,,,,,,,,1.3,0.7,1.1*36\r\n
$GPGSA,A,3,02,04,05,09,11,36,,,,,,,1.3,0.7,1.1*38\r\n
$GPGSA,A,3,20,27,29,30,32,,,,,,,,1.3,0.7,1.1*39\r\n
$GPGSV,1,1,03,44,42,198,47,46,38,215,46,48,40,209,48*4D\r\n
$GLGSV,3,1,10,66,58,161,48,79,10,259,30,67,12,193,45,82,13,310,33*61\r\n
$GLGSV,3,2,10,80,13,310,29,65,50,047,38,88,49,084,32,81,54,342,43*62\r\n
$GLGSV,3,3,10,87,04,111,,72,02,025,*6E\r\n
$GAGSV,3,1,11,36,68,358,35,10,12,090,,05,16,175,34,02,29,244,33*6F\r\n
$GAGSV,3,2,11,30,22,301,,18,24,140,,04,30,058,36,34,29,293,29*62\r\n
$GAGSV,3,3,11,11,37,079,35,09,44,122,39,25,09,197,32*56\r\n
$GBGSV,2,1,06,30,67,107,46,20,54,187,48,27,16,119,33,32,57,063,46*66\r\n
$GBGSV,2,2,06,29,52,313,45,41,08,039,*66\r\n
$GPZDA,142132.00,18,09,2023,,*62\r\n
$GPRMC,142132.00,A,3947.6553641,N,10509.2034521,W,0.0,,180923,7.7,E,A*0E\r\n
$GPGLL,3947.6553641,N,10509.2034521,W,142132.00,A,A*7D\r\n
$GPGGA,142132.00,3947.6553641,N,10509.2034521,W,1,16,0.7,1713.0671,M,-20.7761,M,,*64\r\n
$GPVTG,,T,,M,0.01,N,0.02,K,A*20\r\n
$GPGSA,A,3,65,66,67,81,82,,,,,,,,1.3,0.7,1.1*36\r\n
$GPGSA,A,3,02,04,05,09,11,36,,,,,,,1.3,0.7,1.1*38\r\n
$GPGSA,A,3,20,27,29,30,32,,,,,,,,1.3,0.7,1.1*39\r\n
$GPGSV,1,1,03,44,42,198,51,46,38,215,50,48,40,209,52*46\r\n
$GLGSV,3,1,10,66,58,161,48,79,10,259,30,67,12,193,45,82,13,310,34*66\r\n
$GLGSV,3,2,10,80,13,310,29,65,50,047,38,88,49,084,32,81,54,342,43*62\r\n
$GLGSV,3,3,10,87,04,111,,72,02,025,*6E\r\n
$GAGSV,3,1,11,36,68,358,40,10,12,090,,05,16,175,39,02,29,244,37*64\r\n
$GAGSV,3,2,11,30,22,301,,18,24,140,,04,30,058,36,34,29,293,29*62\r\n
$GAGSV,3,3,11,11,37,079,35,09,44,122,43,25,09,197,32*5B\r\n
$GBGSV,2,1,06,30,67,107,46,20,54,187,48,27,16,119,33,32,57,063,46*66\r\n
$GBGSV,2,2,06,29,52,313,45,41,08,039,*66\r\n
$GPZDA,142133.00,18,09,2023,,*63\r\n
$GPRMC,142133.00,A,3947.6553423,N,10509.2034270,W,0.0,,180923,7.7,E,A*0A\r\n
$GPGLL,3947.6553423,N,10509.2034270,W,142133.00,A,A*79\r\n
$GPGGA,142133.00,3947.6553423,N,10509.2034270,W,1,16,0.7,1713.0953,M,-20.7761,M,,*6F\r\n
$GPVTG,,T,,M,0.00,N,0.01,K,A*22\r\n
$GPGSA,A,3,65,66,67,81,82,,,,,,,,1.3,0.7,1.1*36\r\n
$GPGSA,A,3,02,04,05,09,11,36,,,,,,,1.3,0.7,1.1*38\r\n
$GPGSA,A,3,20,27,29,30,32,,,,,,,,1.3,0.7,1.1*39\r\n
$GPGSV,1,1,03,44,42,198,43,46,38,215,43,48,40,209,45*41\r\n
$GLGSV,3,1,10,66,58,161,47,79,10,259,31,67,12,193,44,82,13,310,33*6E\r\n
$GLGSV,3,2,10,80,13,310,29,65,50,047,36,88,49,084,31,81,54,342,42*6E\r\n
$GLGSV,3,3,10,87,04,111,,72,02,025,*6E\r\n
$GAGSV,3,1,11,36,68,358,32,10,12,090,,05,16,175,31,02,29,244,29*66\r\n
$GAGSV,3,2,11,30,22,301,,18,24,140,,04,30,058,36,34,29,293,29*62\r\n
$GAGSV,3,3,11,11,37,079,35,09,44,122,35,25,09,197,32*5A\r\n
$GBGSV,2,1,06,30,67,107,44,20,54,187,46,27,16,119,33,32,57,063,44*68\r\n
$GBGSV,2,2,06,29,52,313,43,41,08,039,*60\r\n
$GPZDA,142134.00,18,09,2023,,*64\r\n
$GPRMC,142134.00,A,3947.6553186,N,10509.2034103,W,0.0,,180923,7.7,E,A*00\r\n
$GPGLL,3947.6553186,N,10509.2034103,W,142134.00,A,A*73\r\n
$GPGGA,142134.00,3947.6553186,N,10509.2034103,W,1,16,0.7,1713.1210,M,-20.7761,M,,*68\r\n
$GPVTG,,T,,M,0.00,N,0.00,K,A*23\r\n
$GPGSA,A,3,65,66,67,81,82,,,,,,,,1.3,0.7,1.1*36\r\n
$GPGSA,A,3,02,04,05,09,11,36,,,,,,,1.3,0.7,1.1*38\r\n
$GPGSA,A,3,20,27,29,30,32,,,,,,,,1.3,0.7,1.1*39\r\n
$GPGSV,1,1,03,44,42,198,51,46,38,215,50,48,40,209,52*46\r\n
$GLGSV,3,1,10,66,58,161,49,79,10,259,31,67,12,193,45,82,13,310,33*61\r\n
$GLGSV,3,2,10,80,13,310,29,65,50,047,37,88,49,084,32,81,54,342,43*6D\r\n
$GLGSV,3,3,10,87,04,111,,72,02,025,*6E\r\n
$GAGSV,3,1,11,36,68,358,40,10,12,090,,05,16,175,39,02,29,244,37*64\r\n
$GAGSV,3,2,11,30,22,301,,18,24,140,,04,30,058,36,34,29,293,30*6A\r\n
$GAGSV,3,3,11,11,37,079,35,09,44,122,43,25,09,197,32*5B\r\n
$GBGSV,2,1,06,30,67,107,45,20,54,187,47,27,16,119,33,32,57,063,45*69\r\n
$GBGSV,2,2,06,29,52,314,44,41,08,039,*60\r\n
$GPZDA,142135.00,18,09,2023,,*65\r\n
$GPRMC,142135.00,A,3947.6552992,N,10509.2033842,W,0.0,,180923,7.7,E,A*06\r\n
$GPGLL,3947.6552992,N,10509.2033842,W,142135.00,A,A*75\r\n
$GPGGA,142135.00,3947.6552992,N,10509.2033842,W,1,16,0.7,1713.1535,M,-20.7761,M,,*6E\r\n
$GPVTG,,T,,M,0.00,N,0.01,K,A*22\r\n
$GPGSA,A,3,65,66,67,81,82,,,,,,,,1.3,0.7,1.1*36\r\n
$GPGSA,A,3,02,04,05,09,11,36,,,,,,,1.3,0.7,1.1*38\r\n
$GPGSA,A,3,20,27,29,30,32,,,,,,,,1.3,0.7,1.1*39\r\n
$GPGSV,1,1,03,44,42,198,44,46,38,215,44,48,40,209,46*42\r\n
$GLGSV,3,1,10,66,58,161,48,79,10,259,31,67,12,193,44,82,13,310,34*66\r\n
$GLGSV,3,2,10,80,13,310,30,65,50,047,36,88,49,084,30,81,54,342,42*67\r\n
$GLGSV,3,3,10,87,04,111,,72,02,025,*6E\r\n
$GAGSV,3,1,11,36,68,358,33,10,12,090,,05,16,175,32,02,29,244,30*6C\r\n
$GAGSV,3,2,11,30,22,301,,18,24,140,,04,30,058,36,34,29,293,29*62\r\n
$GAGSV,3,3,11,11,37,079,35,09,44,122,36,25,09,197,32*59\r\n
$GBGSV,2,1,06,30,67,107,45,20,54,187,46,27,16,119,33,32,57,063,44*69\r\n
$GBGSV,2,2,06,29,52,314,43,41,08,039,*67\r\n
$GPZDA,142136.00,18,09,2023,,*66\r\n
$GPRMC,142136.00,A,3947.6552791,N,10509.2033876,W,0.0,,180923,7.7,E,A*0F\r\n
$GPGLL,3947.6552791,N,10509.2033876,W,142136.00,A,A*7C\r\n
$GPGGA,142136.00,3947.6552791,N,10509.2033876,W,1,16,0.8,1713.1712,M,-20.7761,M,,*6F\r\n
$GPVTG,,T,,M,0.01,N,0.01,K,A*23\r\n
$GPGSA,A,3,65,66,67,81,82,,,,,,,,1.3,0.8,1.0*38\r\n
$GPGSA,A,3,04,05,09,11,25,36,,,,,,,1.3,0.8,1.0*33\r\n
$GPGSA,A,3,20,27,29,30,32,,,,,,,,1.3,0.8,1.0*37\r\n
$GPGSV,1,1,03,44,42,198,44,46,38,215,43,48,40,209,45*46\r\n
$GLGSV,3,1,10,66,58,161,48,79,10,259,31,67,12,193,44,82,13,310,34*66\r\n
$GLGSV,3,2,10,80,13,310,30,65,50,047,36,88,49,084,30,81,54,342,42*67\r\n
$GLGSV,3,3,10,87,04,111,,72,02,025,*6E\r\n
$GAGSV,3,1,11,36,68,358,32,10,12,090,,05,16,175,32,02,29,244,30*6D\r\n
$GAGSV,3,2,11,30,22,301,,18,24,140,,04,30,058,36,34,29,293,30*6A\r\n
$GAGSV,3,3,11,11,37,079,34,09,44,122,36,25,09,197,32*58\r\n
$GBGSV,2,1,06,30,67,107,44,20,54,187,46,27,16,119,33,32,57,063,44*68\r\n
$GBGSV,2,2,06,29,52,314,43,41,08,039,*67\r\n
$GPZDA,142137.00,18,09,2023,,*67\r\n
$GPRMC,142137.00,A,3947.6552553,N,10509.2033866,W,0.0,,180923,7.7,E,A*03\r\n
$GPGLL,3947.6552553,N,10509.2033866,W,142137.00,A,A*70\r\n
$GPGGA,142137.00,3947.6552553,N,10509.2033866,W,1,16,0.8,1713.1862,M,-20.7761,M,,*6B\r\n
$GPVTG,,T,,M,0.01,N,0.02,K,A*20\r\n
$GPGSA,A,3,65,66,67,81,82,,,,,,,,1.3,0.8,1.0*38\r\n
$GPGSA,A,3,04,05,09,11,25,36,,,,,,,1.3,0.8,1.0*33\r\n
$GPGSA,A,3,20,27,29,30,32,,,,,,,,1.3,0.8,1.0*37\r\n
$GPGSV,1,1,03,44,42,198,46,46,38,215,46,48,40,209,48*4C\r\n
$GLGSV,3,1,10,66,58,161,49,79,10,259,31,67,12,193,44,80,13,310,31*60\r\n
$GLGSV,3,2,10,82,13,310,33,65,50,047,37,88,49,084,31,81,54,343,43*66\r\n
$GLGSV,3,3,10,87,04,111,,72,02,025,*6E\r\n
$GAGSV,3,1,11,36,68,358,34,10,12,090,,05,16,175,34,02,29,244,32*6F\r\n
$GAGSV,3,2,11,30,22,301,,18,24,140,,04,30,058,36,34,29,293,29*62\r\n
$GAGSV,3,3,11,11,37,079,35,09,44,122,38,25,09,197,32*57\r\n
$GBGSV,2,1,06,30,67,107,45,20,54,187,46,27,16,119,33,32,57,063,44*69\r\n
$GBGSV,2,2,06,29,52,314,43,41,08,039,*67\r\n
$GPZDA,142138.00,18,09,2023,,*68\r\n
$GPRMC,142138.00,A,3947.6552357,N,10509.2033599,W,0.0,,180923,7.7,E,A*03\r\n
$GPGLL,3947.6552357,N,10509.2033599,W,142138.00,A,A*70\r\n
$GPGGA,142138.00,3947.6552357,N,10509.2033599,W,1,16,0.7,1713.2136,M,-20.7761,M,,*6F\r\n
$GPVTG,,T,,M,0.01,N,0.02,K,A*20\r\n
$GPGSA,A,3,65,66,67,81,82,,,,,,,,1.3,0.7,1.1*36\r\n
$GPGSA,A,3,02,04,05,09,11,36,,,,,,,1.3,0.7,1.1*38\r\n
$GPGSA,A,3,20,27,29,30,32,,,,,,,,1.3,0.7,1.1*39\r\n
$GPGSV,1,1,03,44,42,198,45,46,38,215,45,48,40,209,47*43\r\n
$GLGSV,3,1,10,66,58,161,49,79,10,259,31,67,12,193,44,80,13,310,31*60\r\n
$GLGSV,3,2,10,82,13,310,33,65,50,047,37,88,49,084,31,81,54,343,43*66\r\n
$GLGSV,3,3,10,87,04,111,,72,02,025,*6E\r\n
$GAGSV,3,1,11,36,68,358,34,10,12,090,,05,16,175,34,02,29,244,32*6F\r\n
$GAGSV,3,2,11,30,22,301,,18,24,140,,04,30,058,36,34,29,293,29*62\r\n
$GAGSV,3,3,11,11,37,079,35,09,44,122,38,25,09,197,32*57\r\n
$GBGSV,2,1,06,30,67,107,44,20,54,187,46,27,16,119,32,32,57,063,44*69\r\n
$GBGSV,2,2,06,29,52,314,43,41,08,039,*67\r\n
$GPZDA,142139.00,18,09,2023,,*69\r\n
$GPRMC,142139.00,A,3947.6552139,N,10509.2033590,W,0.0,,180923,7.7,E,A*01\r\n
$GPGLL,3947.6552139,N,10509.2033590,W,142139.00,A,A*72\r\n
$GPGGA,142139.00,3947.6552139,N,10509.2033590,W,1,16,0.8,1713.2427,M,-20.7761,M,,*67\r\n
$GPVTG,,T,,M,0.00,N,0.01,K,A*22\r\n
$GPGSA,A,3,65,66,67,81,82,,,,,,,,1.3,0.8,1.0*38\r\n
$GPGSA,A,3,04,05,09,11,25,36,,,,,,,1.3,0.8,1.0*33\r\n
$GPGSA,A,3,20,27,29,30,32,,,,,,,,1.3,0.8,1.0*37\r\n
$GPGSV,1,1,03,44,42,198,45,46,38,215,44,48,40,209,46*43\r\n
$GLGSV,3,1,10,66,58,161,49,79,10,259,31,67,12,193,44,80,13,310,31*60\r\n
$GLGSV,3,2,10,82,13,310,33,65,50,047,37,88,49,084,31,81,54,343,43*66\r\n
$GLGSV,3,3,10,87,04,111,,72,02,025,*6E\r\n
$GAGSV,3,1,11,36,68,358,33,10,12,090,,05,16,175,33,02,29,244,31*6C\r\n
$GAGSV,3,2,11,30,22,301,,18,24,140,,04,30,058,36,34,29,293,29*62\r\n
$GAGSV,3,3,11,11,37,079,35,09,44,122,37,25,09,197,32*58\r\n
$GBGSV,2,1,06,30,67,107,44,20,54,187,46,27,16,119,33,32,57,063,44*68\r\n
$GBGSV,2,2,06,29,52,314,43,41,08,039,*67\r\n
$GPZDA,142140.00,18,09,2023,,*67\r\n
$GPRMC,142140.00,A,3947.6551973,N,10509.2033556,W,0.0,,180923,7.7,E,A*00\r\n
$GPGLL,3947.6551973,N,10509.2033556,W,142140.00,A,A*73\r\n
$GPGGA,142140.00,3947.6551973,N,10509.2033556,W,1,16,0.8,1713.2635,M,-20.7761,M,,*67\r\n
$GPVTG,,T,,M,0.00,N,0.00,K,A*23\r\n
$GPGSA,A,3,65,66,67,81,82,,,,,,,,1.3,0.8,1.0*38\r\n
$GPGSA,A,3,04,05,09,11,25,36,,,,,,,1.3,0.8,1.0*33\r\n
$GPGSA,A,3,20,27,29,30,32,,,,,,,,1.3,0.8,1.0*37\r\n
$GPGSV,1,1,03,44,42,198,44,46,38,215,43,48,40,209,45*46\r\n
$GLGSV,3,1,10,66,58,161,48,79,10,259,31,67,12,193,43,80,13,310,31*66\r\n
$GLGSV,3,2,10,82,13,310,33,65,50,047,36,88,49,084,31,81,54,343,42*66\r\n
$GLGSV,3,3,10,87,04,111,,72,02,025,*6E\r\n
$GAGSV,3,1,11,36,68,358,32,10,12,090,,05,16,175,32,02,29,244,30*6D\r\n
$GAGSV,3,2,11,30,22,301,,18,24,140,,04,30,058,36,34,29,293,30*6A\r\n
$GAGSV,3,3,11,11,37,079,35,09,44,122,36,25,09,197,33*58\r\n
$GBGSV,2,1,06,30,67,107,43,20,54,187,45,27,16,119,32,32,57,063,44*6D\r\n
$GBGSV,2,2,06,29,52,314,42,41,08,039,*66\r\n
$GPZDA,142141.00,18,09,2023,,*66\r\n
$GPRMC,142141.00,A,3947.6551817,N,10509.2033625,W,0.0,,180923,7.7,E,A*05\r\n
$GPGLL,3947.6551817,N,10509.2033625,W,142141.00,A,A*76\r\n
$GPGGA,142141.00,3947.6551817,N,10509.2033625,W,1,16,0.7,1713.2812,M,-20.7761,M,,*66\r\n
$GPVTG,,T,,M,0.00,N,0.01,K,A*22\r\n
$GPGSA,A,3,65,66,67,80,81,82,,,,,,,1.2,0.7,1.0*3E\r\n
$GPGSA,A,3,04,09,11,25,36,,,,,,,,1.2,0.7,1.0*38\r\n
$GPGSA,A,3,20,27,29,30,32,,,,,,,,1.2,0.7,1.0*39\r\n
$GPGSV,1,1,03,44,42,198,43,46,38,215,42,48,40,209,44*41\r\n
$GLGSV,3,1,10,66,58,161,48,79,10,259,30,67,12,193,43,80,13,310,32*64\r\n
$GLGSV,3,2,10,82,13,310,33,65,50,047,36,88,49,084,31,81,54,343,42*66\r\n
$GLGSV,3,3,10,87,04,111,,72,02,025,*6E\r\n
$GAGSV,3,1,11,36,68,358,31,10,12,090,,05,16,175,31,02,29,244,29*65\r\n
$GAGSV,3,2,11,30,22,301,,18,24,140,,04,30,058,36,34,29,293,30*6A\r\n
$GAGSV,3,3,11,11,37,079,34,09,44,122,35,25,09,197,32*5B\r\n
$GBGSV,2,1,06,30,67,107,43,20,54,187,45,27,16,119,32,32,57,063,43*6A\r\n
$GBGSV,2,2,06,29,52,314,42,41,08,039,*66\r\n
$GPZDA,142142.00,18,09,2023,,*65\r\n
$GPRMC,142142.00,A,3947.6551630,N,10509.2033627,W,0.0,,180923,7.7,E,A*0F\r\n
$GPGLL,3947.6551630,N,10509.2033627,W,142142.00,A,A*7C\r\n
$GPGGA,142142.00,3947.6551630,N,10509.2033627,W,1,16,0.8,1713.2896,M,-20.7761,M,,*6F\r\n
$GPVTG,,T,,M,0.00,N,0.01,K,A*22\r\n
$GPGSA,A,3,65,66,67,80,81,82,,,,,,,1.3,0.8,1.1*31\r\n
$GPGSA,A,3,04,05,09,11,25,36,,,,,,,1.3,0.8,1.1*32\r\n
$GPGSA,A,3,20,29,30,32,,,,,,,,,1.3,0.8,1.1*33\r\n
$GPGSV,1,1,03,44,42,198,43,46,38,215,43,48,40,209,45*41\r\n
$GLGSV,3,1,10,66,58,161,48,79,10,259,30,67,12,193,43,80,13,310,32*64\r\n
$GLGSV,3,2,10,82,13,310,32,65,50,047,36,88,49,084,30,81,54,343,42*66\r\n
$GLGSV,3,3,10,87,04,111,,72,02,025,*6E\r\n
$GAGSV,3,1,11,36,68,358,32,10,12,090,,05,16,175,31,02,29,244,30*6E\r\n
$GAGSV,3,2,11,30,22,301,,18,24,140,,04,30,058,36,34,29,293,30*6A\r\n
$GAGSV,3,3,11,11,37,079,34,09,44,122,35,25,09,197,32*5B\r\n
$GBGSV,2,1,06,30,67,107,43,20,54,187,45,27,16,119,27,32,57,063,43*6E\r\n
$GBGSV,2,2,06,29,52,314,42,41,08,039,*66\r\n
$GPZDA,142143.00,18,09,2023,,*64\r\n
$GPRMC,142143.00,A,3947.6551472,N,10509.2033620,W,0.0,,180923,7.7,E,A*0D\r\n
$GPGLL,3947.6551472,N,10509.2033620,W,142143.00,A,A*7E\r\n
$GPGGA,142143.00,3947.6551472,N,10509.2033620,W,1,16,0.8,1713.2951,M,-20.7761,M,,*67\r\n
$GPVTG,,T,,M,0.01,N,0.01,K,A*23\r\n
$GPGSA,A,3,65,66,67,80,81,82,,,,,,,1.3,0.8,1.1*31\r\n
$GPGSA,A,3,04,05,09,11,25,36,,,,,,,1.3,0.8,1.1*32\r\n
$GPGSA,A,3,20,29,30,32,,,,,,,,,1.3,0.8,1.1*33\r\n
$GPGSV,1,1,03,44,42,198,45,46,38,215,45,48,40,209,47*43\r\n
$GLGSV,3,1,10,66,59,161,49,79,10,259,30,67,12,193,44,80,13,310,32*63\r\n
$GLGSV,3,2,10,82,13,310,32,65,50,047,37,88,49,084,31,81,54,343,42*66\r\n
$GLGSV,3,3,10,87,04,111,,72,02,025,*6E\r\n
$GAGSV,3,1,11,36,68,358,33,10,12,090,,05,16,175,34,02,29,244,32*68\r\n
$GAGSV,3,2,11,30,22,301,,18,24,140,,04,30,058,36,34,29,293,29*62\r\n
$GAGSV,3,3,11,11,37,079,35,09,44,122,37,25,09,197,32*58\r\n
$GBGSV,2,1,06,30,67,107,43,20,54,187,45,27,16,119,28,32,57,063,43*61\r\n
$GBGSV,2,2,06,29,52,314,42,41,08,039,*66\r\n
$GPZDA,142144.00,18,09,2023,,*63\r\n
$GPRMC,142144.00,A,3947.6551296,N,10509.2033423,W,0.0,,180923,7.7,E,A*07\r\n
$GPGLL,3947.6551296,N,10509.2033423,W,142144.00,A,A*74\r\n
$GPGGA,142144.00,3947.6551296,N,10509.2033423,W,1,16,0.8,1713.3220,M,-20.7761,M,,*61\r\n
$GPVTG,,T,,M,0.01,N,0.02,K,A*20\r\n
$GPGSA,A,3,65,66,67,80,81,,,,,,,,1.4,0.8,1.1*3C\r\n
$GPGSA,A,3,02,04,05,09,11,25,36,,,,,,1.4,0.8,1.1*37\r\n
$GPGSA,A,3,20,29,30,32,,,,,,,,,1.4,0.8,1.1*34\r\n
$GPGSV,1,1,03,44,42,198,47,46,38,215,46,48,40,209,48*4D\r\n
$GLGSV,3,1,10,66,59,161,49,79,10,259,30,67,12,193,44,80,13,310,33*62\r\n
$GLGSV,3,2,10,82,13,310,32,65,50,047,37,88,49,084,31,81,54,343,43*67\r\n
$GLGSV,3,3,10,87,04,111,,72,02,025,*6E\r\n
$GAGSV,3,1,11,36,68,358,35,10,12,090,,05,16,175,35,02,29,244,33*6E\r\n
$GAGSV,3,2,11,30,22,301,,18,24,140,,04,30,058,36,34,29,293,30*6A\r\n
$GAGSV,3,3,11,11,37,079,35,09,44,122,38,25,09,197,32*57\r\n
$GBGSV,2,1,06,30,67,107,44,20,54,187,45,27,16,119,28,32,57,063,44*61\r\n
$GBGSV,2,2,06,29,52,314,43,41,08,039,*67\r\n
$GPZDA,142145.00,18,09,2023,,*62\r\n
$GPRMC,142145.00,A,3947.6551152,N,10509.2033196,W,0.0,,180923,7.7,E,A*06\r\n
$GPGLL,3947.6551152,N,10509.2033196,W,142145.00,A,A*75\r\n
$GPGGA,142145.00,3947.6551152,N,10509.2033196,W,1,16,0.8,1713.3515,M,-20.7761,M,,*61\r\n
$GPVTG,,T,,M,0.01,N,0.01,K,A*23\r\n
$GPGSA,A,3,65,66,67,80,81,,,,,,,,1.4,0.8,1.1*3C\r\n
$GPGSA,A,3,02,04,05,09,11,25,36,,,,,,1.4,0.8,1.1*37\r\n
$GPGSA,A,3,20,29,30,32,,,,,,,,,1.4,0.8,1.1*34\r\n
$GPGSV,1,1,03,44,42,198,47,46,38,215,46,48,40,209,48*4D\r\n
$GLGSV,3,1,10,66,59,161,49,79,10,259,30,67,12,193,44,80,13,310,33*62\r\n
$GLGSV,3,2,10,82,13,310,32,65,50,047,37,88,49,084,32,81,54,343,43*64\r\n
$GLGSV,3,3,10,87,04,111,,72,02,025,*6E\r\n
$GAGSV,3,1,11,36,68,358,35,10,12,090,,05,16,175,35,02,29,244,33*6E\r\n
$GAGSV,3,2,11,30,22,301,,18,24,140,,04,30,058,36,34,29,293,30*6A\r\n
$GAGSV,3,3,11,11,37,079,34,09,44,122,39,25,09,197,32*57\r\n
$GBGSV,2,1,06,30,67,107,44,20,54,187,45,27,16,119,27,32,57,063,44*6E\r\n
$GBGSV,2,2,06,29,52,314,43,41,08,039,*67\r\n
$GPZDA,142146.00,18,09,2023,,*61\r\n
$GPRMC,142146.00,A,3947.6551019,N,10509.2032967,W,0.0,,180923,7.7,E,A*0C\r\n
$GPGLL,3947.6551019,N,10509.2032967,W,142146.00,A,A*7F\r\n
$GPGGA,142146.00,3947.6551019,N,10509.2032967,W,1,16,0.8,1713.3665,M,-20.7761,M,,*6F\r\n
$GPVTG,,T,,M,0.01,N,0.01,K,A*23\r\n
$GPGSA,A,3,65,66,67,80,81,,,,,,,,1.4,0.8,1.1*3C\r\n
$GPGSA,A,3,02,04,05,09,11,25,36,,,,,,1.4,0.8,1.1*37\r\n
$GPGSA,A,3,20,29,30,32,,,,,,,,,1.4,0.8,1.1*34\r\n
$GPGSV,1,1,03,44,42,198,45,46,38,215,45,48,40,209,47*43\r\n
$GLGSV,3,1,10,66,59,161,49,88,49,084,32,67,12,193,44,80,13,310,33*60\r\n
$GLGSV,3,2,10,82,13,310,31,65,50,047,36,81,54,343,42,79,10,259,30*65\r\n
$GLGSV,3,3,10,87,04,111,,72,02,025,*6E\r\n
$GAGSV,3,1,11,36,68,358,34,10,12,090,,05,16,175,34,02,29,244,32*6F\r\n
$GAGSV,3,2,11,30,22,301,,18,24,140,,04,30,058,36,34,29,293,29*62\r\n
$GAGSV,3,3,11,11,37,079,35,09,44,122,37,25,09,197,32*58\r\n
$GBGSV,2,1,06,30,67,107,43,20,54,187,45,27,16,119,27,32,57,063,43*6E\r\n
$GBGSV,2,2,06,29,52,314,42,41,08,039,*66\r\n
$GPZDA,142147.00,18,09,2023,,*60\r\n
$GPRMC,142147.00,A,3947.6550896,N,10509.2032878,W,0.0,,180923,7.7,E,A*0C\r\n
$GPGLL,3947.6550896,N,10509.2032878,W,142147.00,A,A*7F\r\n
$GPGGA,142147.00,3947.6550896,N,10509.2032878,W,1,16,0.7,1713.3913,M,-20.7761,M,,*6E\r\n
$GPVTG,,T,,M,0.00,N,0.01,K,A*22\r\n
$GPGSA,A,3,65,66,67,80,81,88,,,,,,,1.4,0.7,1.2*30\r\n
$GPGSA,A,3,02,04,05,09,11,36,,,,,,,1.4,0.7,1.2*3C\r\n
$GPGSA,A,3,20,29,30,32,,,,,,,,,1.4,0.7,1.2*38\r\n
$GPGSV,1,1,03,44,42,198,52,46,38,215,51,48,40,209,53*45\r\n
$GLGSV,3,1,10,66,59,161,50,88,49,084,33,67,12,193,44,80,13,310,33*69\r\n
$GLGSV,3,2,10,82,13,310,,65,50,047,37,81,54,343,43,79,10,259,30*67\r\n
$GLGSV,3,3,10,87,04,111,,72,02,025,*6E\r\n
$GAGSV,3,1,11,36,68,358,40,10,12,090,,05,16,175,40,02,29,244,38*65\r\n
$GAGSV,3,2,11,30,22,301,,18,24,140,,04,30,058,36,34,29,293,29*62\r\n
$GAGSV,3,3,11,11,37,079,34,09,44,122,43,25,09,197,32*5A\r\n
$GBGSV,2,1,06,30,67,107,44,20,54,187,45,27,16,119,27,32,57,063,44*6E\r\n
$GBGSV,2,2,06,29,52,314,43,41,08,039,*67\r\n
$GPZDA,142148.00,18,09,2023,,*6F\r\n
$GPRMC,142148.00,A,3947.6550814,N,10509.2032668,W,0.0,,180923,7.7,E,A*06\r\n
$GPGLL,3947.6550814,N,10509.2032668,W,142148.00,A,A*75\r\n
$GPGGA,142148.00,3947.6550814,N,10509.2032668,W,1,16,0.7,1713.4225,M,-20.7761,M,,*6D\r\n
$GPVTG,,T,,M,0.01,N,0.01,K,A*23\r\n
$GPGSA,A,3,65,66,67,80,81,88,,,,,,,1.4,0.7,1.2*30\r\n
$GPGSA,A,3,02,04,05,09,11,36,,,,,,,1.4,0.7,1.2*3C\r\n
$GPGSA,A,3,20,29,30,32,,,,,,,,,1.4,0.7,1.2*38\r\n
$GPGSV,1,1,03,44,42,198,47,46,38,215,47,48,40,209,49*4D\r\n
$GLGSV,3,1,10,66,59,161,50,88,49,084,33,67,12,193,44,80,13,310,32*68\r\n
$GLGSV,3,2,10,82,13,310,31,65,50,047,37,81,54,343,42,79,10,259,30*64\r\n
$GLGSV,3,3,10,87,04,111,,72,02,025,*6E\r\n
