$GNGSA,A,3,19,17,06,30,,,,,,,,,1.44,1.17,0.85,1*01\r\n
$GNGSA,A,3,82,80,81,83,,,,,,,,,1.44,1.17,0.85,2*09\r\n
$GNRMC,160341.000,A,3947.6530,N,10509.1896,W,0.99,105.96,250523,,,A,V*13\r\n
$GNGGA,160342.000,3947.6527,N,10509.1899,W,1,12,1.17,1712.2,M,-20.8,M,,*7D\r\n
$GNGSA,A,3,19,17,06,30,,,,,,,,,1.44,1.17,0.85,1*01\r\n
$GNGSA,A,3,82,80,81,83,,,,,,,,,1.44,1.17,0.85,2*09\r\n
$GNRMC,160342.000,A,3947.6527,N,10509.1899,W,0.72,108.09,250523,,,A,V*17\r\n
$GNGGA,160343.000,3947.6538,N,10509.1893,W,1,13,0.95,1712.2,M,-20.8,M,,*72\r\n
$GNGSA,A,3,19,17,06,30,,,,,,,,,1.19,0.95,0.71,1*09\r\n
$GNGSA,A,3,82,80,81,83,73,,,,,,,,1.19,0.95,0.71,2*05\r\n
$GNRMC,160343.000,A,3947.6538,N,10509.1893,W,1.04,61.13,250523,,,A,V*27\r\n
$GNGGA,160344.000,3947.6544,N,10509.1898,W,1,13,0.95,1712.1,M,-20.8,M,,*76\r\n
$GNGSA,A,3,19,17,06,30,,,,,,,,,1.19,0.95,0.71,1*09\r\n
$GNGSA,A,3,82,80,81,83,73,,,,,,,,1.19,0.95,0.71,2*05\r\n
$GNRMC,160344.000,A,3947.6544,N,10509.1898,W,0.64,113.99,250523,,,A,V*11\r\n
$GNGGA,160345.000,3947.6544,N,10509.1896,W,1,13,0.95,1712.1,M,-20.8,M,,*79\r\n
$GNGSA,A,3,19,17,06,30,,,,,,,,,1.19,0.95,0.71,1*09\r\n
$GNGSA,A,3,82,80,81,83,73,,,,,,,,1.19,0.95,0.71,2*05\r\n
$GPGSV,3,1,12,19,76,339,25,17,58,040,26,06,55,169,29,46,37,214,27,1*6E\r\n
$GPGSV,3,2,12,14,37,106,,24,37,297,,11,16,196,17,03,13,068,,1*6E\r\n
$GPGSV,3,3,12,12,09,300,,01,07,036,,13,05,222,,30,05,161,22,1*68\r\n
$GNRMC,160345.000,A,3947.6544,N,10509.1896,W,0.21,113.99,250523,,,A,V*1F\r\n
$GNGGA,160346.000,3947.6545,N,10509.1902,W,1,13,0.95,1712.1,M,-20.8,M,,*77\r\n
$GNGSA,A,3,19,17,06,30,,,,,,,,,1.19,0.95,0.71,1*09\r\n
$GNGSA,A,3,82,80,81,83,73,,,,,,,,1.19,0.95,0.71,2*05\r\n
$GNRMC,160346.000,A,3947.6545,N,10509.1902,W,0.40,113.99,250523,,,A,V*16\r\n
$GNGGA,160347.000,3947.6544,N,10509.1904,W,1,13,0.95,1712.2,M,-20.8,M,,*72\r\n
$GNGSA,A,3,19,17,06,30,,,,,,,,,1.19,0.95,0.71,1*09\r\n
$GNGSA,A,3,82,80,81,83,73,,,,,,,,1.19,0.95,0.71,2*05\r\n
$GNRMC,160347.000,A,3947.6544,N,10509.1904,W,0.55,113.99,250523,,,A,V*14\r\n
$GNGGA,160348.000,3947.6544,N,10509.1909,W,1,13,0.95,1712.2,M,-20.8,M,,*70\r\n
$GNGSA,A,3,19,17,06,30,,,,,,,,,1.19,0.95,0.71,1*09\r\n
$GNGSA,A,3,82,80,81,83,73,,,,,,,,1.19,0.95,0.71,2*05\r\n
$GNRMC,160348.000,A,3947.6544,N,10509.1909,W,0.65,5.99,250523,,,A,V*13\r\n
$GNGGA,160349.000,3947.6544,N,10509.1914,W,1,13,0.95,1712.2,M,-20.8,M,,*7D\r\n
$GNGSA,A,3,19,17,06,30,,,,,,,,,1.19,0.95,0.71,1*09\r\n
$GNGSA,A,3,82,80,81,83,73,,,,,,,,1.19,0.95,0.71,2*05\r\n
$GNRMC,160349.000,A,3947.6544,N,10509.1914,W,0.14,5.99,250523,,,A,V*18\r\n
$GNGGA,160350.000,3947.6543,N,10509.1919,W,1,13,0.95,1712.1,M,-20.8,M,,*7C\r\n
$GNGSA,A,3,19,17,06,30,,,,,,,,,1.19,0.95,0.71,1*09\r\n
$GNGSA,A,3,82,80,81,83,73,,,,,,,,1.19,0.95,0.71,2*05\r\n
$GPGSV,3,1,12,19,76,339,24,17,58,040,26,06,55,169,29,46,37,214,27,1*6F\r\n
$GPGSV,3,2,12,14,37,106,,24,37,297,,11,17,196,16,03,13,068,,1*6E\r\n
$GPGSV,3,3,12,12,09,300,,01,07,036,,13,05,222,,30,05,161,21,1*6B\r\n
$GNRMC,160350.000,A,3947.6543,N,10509.1919,W,0.26,5.99,250523,,,A,V*1B\r\n
$GNGGA,160351.000,3947.6543,N,10509.1927,W,1,13,0.95,1712.1,M,-20.8,M,,*70\r\n
$GNGSA,A,3,19,17,06,30,,,,,,,,,1.19,0.95,0.71,1*09\r\n
$GNGSA,A,3,82,80,81,83,73,,,,,,,,1.19,0.95,0.71,2*05\r\n
$GNRMC,160351.000,A,3947.6543,N,10509.1927,W,0.42,5.99,250523,,,A,V*15\r\n
$GNGGA,160352.000,3947.6542,N,10509.1933,W,1,13,0.95,1712.1,M,-20.8,M,,*77\r\n
$GNGSA,A,3,19,17,06,30,,,,,,,,,1.19,0.95,0.71,1*09\r\n
$GNGSA,A,3,82,80,81,83,73,,,,,,,,1.19,0.95,0.71,2*05\r\n
$GNRMC,160352.000,A,3947.6542,N,10509.1933,W,0.26,5.99,250523,,,A,V*10\r\n
$GNGGA,160353.000,3947.6542,N,10509.1940,W,1,13,0.95,1712.2,M,-20.8,M,,*71\r\n
$GNGSA,A,3,19,17,06,30,,,,,,,,,1.19,0.95,0.71,1*09\r\n
$GNGSA,A,3,82,80,81,83,73,,,,,,,,1.19,0.95,0.71,2*05\r\n
$GNRMC,160353.000,A,3947.6542,N,10509.1940,W,0.24,5.99,250523,,,A,V*17\r\n
$GNGGA,160354.000,3947.6541,N,10509.1944,W,1,13,0.95,1712.2,M,-20.8,M,,*71\r\n
$GNGSA,A,3,19,17,06,30,,,,,,,,,1.19,0.95,0.71,1*09\r\n
$GNGSA,A,3,82,80,81,83,73,,,,,,,,1.19,0.95,0.71,2*05\r\n
$GNRMC,160354.000,A,3947.6541,N,10509.1944,W,0.26,5.99,250523,,,A,V*15\r\n
$GNGGA,160355.000,3947.6541,N,10509.1950,W,1,13,0.95,1712.1,M,-20.8,M,,*76\r\n
$GNGSA,A,3,19,17,06,30,,,,,,,,,1.19,0.95,0.71,1*09\r\n
$GNGSA,A,3,82,80,81,83,73,,,,,,,,1.19,0.95,0.71,2*05\r\n
$GPGSV,3,1,12,19,76,339,24,17,57,041,26,06,55,169,29,46,37,214,29,1*6F\r\n
$GPGSV,3,2,12,14,37,106,,24,37,297,,11,17,196,17,03,13,068,,1*6F\r\n
$GPGSV,3,3,12,12,09,300,,01,07,036,,13,05,222,,30,05,161,21,1*6B\r\n
$GNRMC,160355.000,A,3947.6541,N,10509.1950,W,0.25,5.99,250523,,,A,V*12\r\n
$GNGGA,160356.000,3947.6540,N,10509.1953,W,1,13,0.95,1712.1,M,-20.8,M,,*77\r\n
$GNGSA,A,3,19,17,06,30,,,,,,,,,1.19,0.95,0.71,1*09\r\n
$GNGSA,A,3,82,80,81,83,73,,,,,,,,1.19,0.95,0.71,2*05\r\n
$GNRMC,160356.000,A,3947.6540,N,10509.1953,W,0.30,5.99,250523,,,A,V*17\r\n
$GNGGA,160357.000,3947.6540,N,10509.1957,W,1,14,0.93,1712.1,M,-20.8,M,,*73\r\n
$GNGSA,A,3,19,17,06,30,,,,,,,,,1.16,0.93,0.70,1*01\r\n
$GNGSA,A,3,82,80,81,83,73,,,,,,,,1.16,0.93,0.70,2*0D\r\n
$GNRMC,160357.000,A,3947.6540,N,10509.1957,W,0.29,5.99,250523,,,A,V*1A\r\n
$GNGGA,160358.000,3947.6539,N,10509.1959,W,1,14,0.93,1712.1,M,-20.8,M,,*7C\r\n
$GNGSA,A,3,19,17,06,30,,,,,,,,,1.16,0.93,0.70,1*01\r\n
$GNGSA,A,3,82,80,81,83,73,,,,,,,,1.16,0.93,0.70,2*0D\r\n
$GNRMC,160358.000,A,3947.6539,N,10509.1959,W,0.11,5.99,250523,,,A,V*1E\r\n
$GNGGA,160359.000,3947.6539,N,10509.1959,W,1,14,0.93,1712.1,M,-20.8,M,,*7D\r\n
$GNGSA,A,3,19,17,06,30,,,,,,,,,1.16,0.93,0.70,1*01\r\n
$GNGSA,A,3,82,80,81,83,73,,,,,,,,1.16,0.93,0.70,2*0D\r\n
$GNRMC,160359.000,A,3947.6539,N,10509.1959,W,0.18,5.99,250523,,,A,V*16\r\n
$GNGGA,160400.000,3947.6538,N,10509.1961,W,1,14,0.93,1712.2,M,-20.8,M,,*7F\r\n
$GNGSA,A,3,19,17,06,30,,,,,,,,,1.16,0.93,0.70,1*01\r\n
$GNGSA,A,3,82,80,81,83,73,,,,,,,,1.16,0.93,0.70,2*0D\r\n
$GPGSV,3,1,12,19,76,339,25,17,57,041,26,06,55,169,29,46,37,214,28,1*6F\r\n
$GPGSV,3,2,12,14,37,106,,24,37,297,,11,17,196,19,03,13,068,,1*61\r\n
$GPGSV,3,3,12,12,09,300,,01,07,036,,13,05,222,,30,05,161,21,1*6B\r\n
$GNRMC,160400.000,A,3947.6538,N,10509.1961,W,0.20,5.99,250523,,,A,V*1C\r\n
$GNGGA,160401.000,3947.6537,N,10509.1962,W,1,14,0.93,1712.1,M,-20.8,M,,*71\r\n
$GNGSA,A,3,19,17,06,30,,,,,,,,,1.16,0.93,0.70,1*01\r\n
$GNGSA,A,3,82,80,81,83,73,,,,,,,,1.16,0.93,0.70,2*0D\r\n
$GNRMC,160401.000,A,3947.6537,N,10509.1962,W,0.19,5.99,250523,,,A,V*1B\r\n
$GNGGA,160402.000,3947.6536,N,10509.1965,W,1,14,0.93,1712.1,M,-20.8,M,,*74\r\n
$GNGSA,A,3,19,17,06,30,,,,,,,,,1.16,0.93,0.70,1*01\r\n
$GNGSA,A,3,82,80,81,83,73,,,,,,,,1.16,0.93,0.70,2*0D\r\n
$GNRMC,160402.000,A,3947.6536,N,10509.1965,W,0.24,5.99,250523,,,A,V*10\r\n
$GNGGA,160403.000,3947.6537,N,10509.1965,W,1,14,0.93,1712.1,M,-20.8,M,,*74\r\n
$GNGSA,A,3,19,17,06,30,,,,,,,,,1.16,0.93,0.70,1*01\r\n
$GNGSA,A,3,82,80,81,83,73,,,,,,,,1.16,0.93,0.70,2*0D\r\n
$GNRMC,160403.000,A,3947.6537,N,10509.1965,W,0.11,5.99,250523,,,A,V*16\r\n
$GNGGA,160404.000,3947.6537,N,10509.1970,W,1,14,0.93,1712.1,M,-20.8,M,,*77\r\n
$GNGSA,A,3,19,17,06,30,,,,,,,,,1.16,0.93,0.70,1*01\r\n
$GNGSA,A,3,82,80,81,83,73,,,,,,,,1.16,0.93,0.70,2*0D\r\n
$GNRMC,160404.000,A,3947.6537,N,10509.1970,W,0.14,5.99,250523,,,A,V*10\r\n
$GNGGA,160405.000,3947.6538,N,10509.1973,W,1,14,0.93,1712.1,M,-20.8,M,,*7A\r\n
$GNGSA,A,3,19,17,06,30,,,,,,,,,1.16,0.93,0.70,1*01\r\n
$GNGSA,A,3,82,80,81,83,73,,,,,,,,1.16,0.93,0.70,2*0D\r\n
$GPGSV,3,1,12,19,76,339,24,17,57,041,26,06,55,169,29,46,37,214,28,1*6E\r\n
$GPGSV,3,2,12,14,37,106,,24,37,297,,11,17,196,19,03,13,068,,1*61\r\n
$GPGSV,3,3,12,12,09,300,,01,07,036,,13,05,222,,30,05,161,22,1*68\r\n
$GNRMC,160405.000,A,3947.6538,N,10509.1973,W,0.17,5.99,250523,,,A,V*1E\r\n
$GNGGA,160406.000,3947.6539,N,10509.1976,W,1,14,0.93,1712.2,M,-20.8,M,,*7E\r\n
$GNGSA,A,3,19,17,06,30,,,,,,,,,1.16,0.93,0.70,1*01\r\n
$GNGSA,A,3,82,80,81,83,73,,,,,,,,1.16,0.93,0.70,2*0D\r\n
$GNRMC,160406.000,A,3947.6539,N,10509.1976,W,0.24,5.99,250523,,,A,V*19\r\n
$GNGGA,160407.000,3947.6541,N,10509.1975,W,1,14,0.93,1712.2,M,-20.8,M,,*73\r\n
$GNGSA,A,3,19,17,06,30,,,,,,,,,1.16,0.93,0.70,1*01\r\n
$GNGSA,A,3,82,80,81,83,73,,,,,,,,1.16,0.93,0.70,2*0D\r\n
$GNRMC,160407.000,A,3947.6541,N,10509.1975,W,0.32,5.99,250523,,,A,V*13\r\n
$GNGGA,160408.000,3947.6542,N,10509.1976,W,1,14,0.88,1712.2,M,-20.8,M,,*76\r\n
$GNGSA,A,3,19,17,06,,,,,,,,,,1.13,0.88,0.70,1*0D\r\n
$GNGSA,A,3,82,80,81,83,78,73,,,,,,,1.13,0.88,0.70,2*0D\r\n
$GNRMC,160408.000,A,3947.6542,N,10509.1976,W,0.29,5.99,250523,,,A,V*16\r\n
$GNGGA,160409.000,3947.6542,N,10509.1978,W,1,14,0.88,1712.2,M,-20.8,M,,*79\r\n
$GNGSA,A,3,19,17,06,,,,,,,,,,1.13,0.88,0.70,1*0D\r\n
$GNGSA,A,3,82,80,81,83,78,73,,,,,,,1.13,0.88,0.70,2*0D\r\n
$GNRMC,160409.000,A,3947.6542,N,10509.1978,W,0.24,5.99,250523,,,A,V*14\r\n
$GNGGA,160410.000,3947.6543,N,10509.1981,W,1,14,0.88,1712.2,M,-20.8,M,,*76\r\n
$GNGSA,A,3,19,17,06,,,,,,,,,,1.13,0.88,0.70,1*0D\r\n
$GNGSA,A,3,82,80,81,83,78,73,,,,,,,1.13,0.88,0.70,2*0D\r\n
$GPGSV,3,1,11,19,76,339,24,17,57,041,26,06,55,169,29,14,37,106,,1*60\r\n
$GPGSV,3,2,11,24,37,297,,11,17,196,19,03,13,068,,12,09,300,,1*6D\r\n
$GPGSV,3,3,11,01,07,036,16,13,05,222,,30,04,161,22,1*54\r\n
$GNRMC,160410.000,A,3947.6543,N,10509.1981,W,0.23,5.99,250523,,,A,V*1C\r\n
$GNGGA,160411.000,3947.6543,N,10509.1981,W,1,14,0.88,1712.2,M,-20.8,M,,*77\r\n
$GNGSA,A,3,19,17,06,,,,,,,,,,1.13,0.88,0.70,1*0D\r\n
$GNGSA,A,3,82,80,81,83,78,73,,,,,,,1.13,0.88,0.70,2*0D\r\n
$GNRMC,160411.000,A,3947.6543,N,10509.1981,W,0.15,5.99,250523,,,A,V*18\r\n
$GNGGA,160412.000,3947.6544,N,10509.1980,W,1,14,0.88,1712.2,M,-20.8,M,,*72\r\n
$GNGSA,A,3,19,17,06,,,,,,,,,,1.13,0.88,0.70,1*0D\r\n
$GNGSA,A,3,82,80,81,83,78,73,,,,,,,1.13,0.88,0.70,2*0D\r\n
$GNRMC,160412.000,A,3947.6544,N,10509.1980,W,0.18,5.99,250523,,,A,V*10\r\n
$GNGGA,160413.000,3947.6543,N,10509.1980,W,1,14,0.88,1712.2,M,-20.8,M,,*74\r\n
$GNGSA,A,3,19,17,06,,,,,,,,,,1.13,0.88,0.70,1*0D\r\n
$GNGSA,A,3,82,80,81,83,78,73,,,,,,,1.13,0.88,0.70,2*0D\r\n
$GNRMC,160413.000,A,3947.6543,N,10509.1980,W,0.16,5.99,250523,,,A,V*18\r\n
$GNGGA,160414.000,3947.6542,N,10509.1981,W,1,14,0.88,1712.2,M,-20.8,M,,*73\r\n
$GNGSA,A,3,19,17,06,,,,,,,,,,1.13,0.88,0.70,1*0D\r\n
$GNGSA,A,3,82,80,81,83,78,73,,,,,,,1.13,0.88,0.70,2*0D\r\n
$GNRMC,160414.000,A,3947.6542,N,10509.1981,W,0.18,5.99,250523,,,A,V*11\r\n
$GNGGA,160415.000,3947.6542,N,10509.1982,W,1,14,0.88,1712.2,M,-20.8,M,,*71\r\n
$GNGSA,A,3,19,17,06,,,,,,,,,,1.13,0.88,0.70,1*0D\r\n
$GNGSA,A,3,82,80,81,83,78,73,,,,,,,1.13,0.88,0.70,2*0D\r\n
$GPGSV,3,1,11,19,76,339,25,17,57,041,26,06,55,169,29,14,37,106,,1*61\r\n
$GPGSV,3,2,11,24,37,297,,11,17,196,19,03,13,068,,12,09,300,,1*6D\r\n
$GPGSV,3,3,11,01,07,036,16,13,05,222,,30,04,161,22,1*54\r\n
$GNRMC,160415.000,A,3947.6542,N,10509.1982,W,0.09,5.99,250523,,,A,V*13\r\n
$GNGGA,160416.000,3947.6541,N,10509.1984,W,1,14,0.88,1712.2,M,-20.8,M,,*77\r\n
$GNGSA,A,3,19,17,06,,,,,,,,,,1.13,0.88,0.70,1*0D\r\n
$GNGSA,A,3,82,80,81,83,78,73,,,,,,,1.13,0.88,0.70,2*0D\r\n
$GNRMC,160416.000,A,3947.6541,N,10509.1984,W,0.23,5.99,250523,,,A,V*1D\r\n
$GNGGA,160417.000,3947.6540,N,10509.1985,W,1,14,0.88,1712.2,M,-20.8,M,,*76\r\n
$GNGSA,A,3,19,17,06,,,,,,,,,,1.13,0.88,0.70,1*0D\r\n
$GNGSA,A,3,82,80,81,83,78,73,,,,,,,1.13,0.88,0.70,2*0D\r\n
$GNRMC,160417.000,A,3947.6540,N,10509.1985,W,0.25,5.99,250523,,,A,V*1A\r\n
$GNGGA,160418.000,3947.6539,N,10509.1986,W,1,14,0.88,1712.2,M,-20.8,M,,*74\r\n
$GNGSA,A,3,19,17,06,,,,,,,,,,1.13,0.88,0.70,1*0D\r\n
$GNGSA,A,3,82,80,81,83,78,73,,,,,,,1.13,0.88,0.70,2*0D\r\n
$GNRMC,160418.000,A,3947.6539,N,10509.1986,W,0.24,5.99,250523,,,A,V*19\r\n
$GNGGA,160419.000,3947.6538,N,10509.1987,W,1,14,0.88,1712.2,M,-20.8,M,,*75\r\n
$GNGSA,A,3,19,17,06,,,,,,,,,,1.13,0.88,0.70,1*0D\r\n
$GNGSA,A,3,82,80,81,83,78,73,,,,,,,1.13,0.88,0.70,2*0D\r\n
$GNRMC,160419.000,A,3947.6538,N,10509.1987,W,0.29,5.99,250523,,,A,V*15\r\n
$GNGGA,160420.000,3947.6536,N,10509.1987,W,1,14,0.88,1712.2,M,-20.8,M,,*71\r\n
$GNGSA,A,3,19,17,06,,,,,,,,,,1.13,0.88,0.70,1*0D\r\n
$GNGSA,A,3,82,80,81,83,78,73,,,,,,,1.13,0.88,0.70,2*0D\r\n
$GPGSV,3,1,11,19,76,339,25,17,57,041,26,06,55,169,28,14,37,106,,1*60\r\n
$GPGSV,3,2,11,24,37,297,,11,17,196,19,03,13,068,16,12,09,300,,1*6A\r\n
$GPGSV,3,3,11,01,07,036,16,13,05,222,,30,04,161,22,1*54\r\n
$GNRMC,160420.000,A,3947.6536,N,10509.1987,W,0.38,5.99,250523,,,A,V*11\r\n
$GNGGA,160421.000,3947.6536,N,10509.1986,W,1,14,0.88,1712.2,M,-20.8,M,,*71\r\n
$GNGSA,A,3,19,17,06,,,,,,,,,,1.13,0.88,0.70,1*0D\r\n
$GNGSA,A,3,82,80,81,83,78,73,,,,,,,1.13,0.88,0.70,2*0D\r\n
$GNRMC,160421.000,A,3947.6536,N,10509.1986,W,0.16,5.99,250523,,,A,V*1D\r\n
$GNGGA,160422.000,3947.6536,N,10509.1984,W,1,14,0.88,1712.2,M,-20.8,M,,*70\r\n
$GNGSA,A,3,19,17,06,,,,,,,,,,1.13,0.88,0.70,1*0D\r\n
$GNGSA,A,3,82,80,81,83,78,73,,,,,,,1.13,0.88,0.70,2*0D\r\n
$GNRMC,160422.000,A,3947.6536,N,10509.1984,W,0.25,5.99,250523,,,A,V*1C\r\n
$GNGGA,160423.000,3947.6535,N,10509.1983,W,1,14,0.88,1712.2,M,-20.8,M,,*75\r\n
$GNGSA,A,3,19,17,06,,,,,,,,,,1.13,0.88,0.70,1*0D\r\n
$GNGSA,A,3,82,80,81,83,78,73,,,,,,,1.13,0.88,0.70,2*0D\r\n
$GNRMC,160423.000,A,3947.6535,N,10509.1983,W,0.36,5.99,250523,,,A,V*1B\r\n
$GNGGA,160424.000,3947.6535,N,10509.1981,W,1,14,0.88,1712.2,M,-20.8,M,,*70\r\n
$GNGSA,A,3,19,17,06,,,,,,,,,,1.13,0.88,0.70,1*0D\r\n
$GNGSA,A,3,82,80,81,83,78,73,,,,,,,1.13,0.88,0.70,2*0D\r\n
$GNRMC,160424.000,A,3947.6535,N,10509.1981,W,0.45,5.99,250523,,,A,V*1A\r\n
$GNGGA,160425.000,3947.6534,N,10509.1980,W,1,14,0.88,1712.2,M,-20.8,M,,*71\r\n
$GNGSA,A,3,19,17,06,,,,,,,,,,1.13,0.88,0.70,1*0D\r\n
$GNGSA,A,3,82,80,81,83,78,73,,,,,,,1.13,0.88,0.70,2*0D\r\n
$GPGSV,3,1,11,19,76,339,25,17,57,041,25,06,55,169,27,14,37,106,,1*6C\r\n
$GPGSV,3,2,11,24,37,297,,11,17,196,19,03,13,068,16,12,09,300,,1*6A\r\n
$GPGSV,3,3,11,01,07,036,16,13,05,222,,30,04,161,22,1*54\r\n
$GNRMC,160425.000,A,3947.6534,N,10509.1980,W,0.38,5.99,250523,,,A,V*11\r\n
$GNGGA,160426.000,3947.6536,N,10509.1980,W,1,14,0.88,1712.2,M,-20.8,M,,*70\r\n
$GNGSA,A,3,19,17,06,,,,,,,,,,1.13,0.88,0.70,1*0D\r\n
$GNGSA,A,3,82,80,81,83,78,73,,,,,,,1.13,0.88,0.70,2*0D\r\n
$GNRMC,160426.000,A,3947.6536,N,10509.1980,W,0.23,5.99,250523,,,A,V*1A\r\n
$GNGGA,160427.000,3947.6536,N,10509.1978,W,1,14,0.88,1712.2,M,-20.8,M,,*76\r\n
$GNGSA,A,3,19,17,06,,,,,,,,,,1.13,0.88,0.70,1*0D\r\n
$GNGSA,A,3,82,80,81,83,78,73,,,,,,,1.13,0.88,0.70,2*0D\r\n
$GNRMC,160427.000,A,3947.6536,N,10509.1978,W,0.25,5.99,250523,,,A,V*1A\r\n
$GNGGA,160428.000,3947.6535,N,10509.1978,W,1,14,0.88,1712.2,M,-20.8,M,,*7A\r\n
$GNGSA,A,3,19,17,06,,,,,,,,,,1.13,0.88,0.70,1*0D\r\n
$GNGSA,A,3,82,80,81,83,78,73,,,,,,,1.13,0.88,0.70,2*0D\r\n
$GNRMC,160428.000,A,3947.6535,N,10509.1978,W,0.29,5.99,250523,,,A,V*1A\r\n
$GNGGA,160429.000,3947.6535,N,10509.1979,W,1,14,0.88,1712.2,M,-20.8,M,,*7A\r\n
$GNGSA,A,3,19,17,06,,,,,,,,,,1.13,0.88,0.70,1*0D\r\n
$GNGSA,A,3,82,80,81,83,78,73,,,,,,,1.13,0.88,0.70,2*0D\r\n
$GNRMC,160429.000,A,3947.6535,N,10509.1979,W,0.18,5.99,250523,,,A,V*18\r\n
$GNGGA,160430.000,3947.6535,N,10509.1981,W,1,14,0.88,1712.2,M,-20.8,M,,*75\r\n
$GNGSA,A,3,19,17,06,,,,,,,,,,1.13,0.88,0.70,1*0D\r\n
$GNGSA,A,3,82,80,81,83,78,73,,,,,,,1.13,0.88,0.70,2*0D\r\n
$GPGSV,3,1,11,19,76,339,24,17,57,041,25,06,55,169,27,14,37,106,,1*6D\r\n
$GPGSV,3,2,11,24,37,297,,11,17,196,19,03,13,068,16,12,09,300,,1*6A\r\n
$GPGSV,3,3,11,01,07,036,15,13,05,222,,30,04,161,20,1*55\r\n
$GNRMC,160430.000,A,3947.6535,N,10509.1981,W,0.03,5.99,250523,,,A,V*1D\r\n
$GNGGA,160431.000,3947.6534,N,10509.1978,W,1,14,0.88,1712.3,M,-20.8,M,,*72\r\n
$GNGSA,A,3,19,17,06,,,,,,,,,,1.13,0.88,0.70,1*0D\r\n
$GNGSA,A,3,82,80,81,83,78,73,,,,,,,1.13,0.88,0.70,2*0D\r\n
$GNRMC,160431.000,A,3947.6534,N,10509.1978,W,0.24,5.99,250523,,,A,V*1E\r\n
$GNGGA,160432.000,3947.6533,N,10509.1979,W,1,14,0.88,1712.3,M,-20.8,M,,*77\r\n
$GNGSA,A,3,19,17,06,,,,,,,,,,1.13,0.88,0.70,1*0D\r\n
$GNGSA,A,3,82,80,81,83,78,73,,,,,,,1.13,0.88,0.70,2*0D\r\n
$GNRMC,160432.000,A,3947.6533,N,10509.1979,W,0.22,5.99,250523,,,A,V*1D\r\n
$GNGGA,160433.000,3947.6533,N,10509.1981,W,1,14,0.88,1712.3,M,-20.8,M,,*71\r\n
$GNGSA,A,3,19,17,06,,,,,,,,,,1.13,0.88,0.70,1*0D\r\n
$GNGSA,A,3,82,80,81,83,78,73,,,,,,,1.13,0.88,0.70,2*0D\r\n
$GNRMC,160433.000,A,3947.6533,N,10509.1981,W,0.11,5.99,250523,,,A,V*1B\r\n
$GNGGA,160434.000,3947.6534,N,10509.1982,W,1,14,0.88,1712.3,M,-20.8,M,,*72\r\n
$GNGSA,A,3,19,17,06,,,,,,,,,,1.13,0.88,0.70,1*0D\r\n
$GNGSA,A,3,82,80,81,83,78,73,,,,,,,1.13,0.88,0.70,2*0D\r\n
$GNRMC,160434.000,A,3947.6534,N,10509.1982,W,0.11,5.99,250523,,,A,V*18\r\n
$GNGGA,160435.000,3947.6535,N,10509.1984,W,1,14,0.88,1712.3,M,-20.8,M,,*74\r\n
$GNGSA,A,3,19,17,06,,,,,,,,,,1.13,0.88,0.70,1*0D\r\n
$GNGSA,A,3,82,80,81,83,78,73,,,,,,,1.13,0.88,0.70,2*0D\r\n
$GPGSV,3,1,11,19,76,339,24,17,57,041,25,06,55,169,27,14,37,106,,1*6D\r\n
$GPGSV,3,2,11,24,37,297,,11,17,196,19,03,13,068,16,12,09,300,,1*6A\r\n
$GPGSV,3,3,11,01,07,036,15,13,05,222,,30,04,161,22,1*57\r\n
$GNRMC,160435.000,A,3947.6535,N,10509.1984,W,0.18,5.99,250523,,,A,V*17\r\n
$GNGGA,160436.000,3947.6535,N,10509.1985,W,1,14,0.88,1712.3,M,-20.8,M,,*76\r\n
$GNGSA,A,3,19,17,06,,,,,,,,,,1.13,0.88,0.70,1*0D\r\n
$GNGSA,A,3,82,80,81,83,78,73,,,,,,,1.13,0.88,0.70,2*0D\r\n
$GNRMC,160436.000,A,3947.6535,N,10509.1985,W,0.17,5.99,250523,,,A,V*1A\r\n
$GNGGA,160437.000,3947.6536,N,10509.1987,W,1,14,0.88,1712.3,M,-20.8,M,,*76\r\n
$GNGSA,A,3,19,17,06,,,,,,,,,,1.13,0.88,0.70,1*0D\r\n
$GNGSA,A,3,82,80,81,83,78,73,,,,,,,1.13,0.88,0.70,2*0D\r\n
$GNRMC,160437.000,A,3947.6536,N,10509.1987,W,0.31,5.99,250523,,,A,V*1E\r\n
$GNGGA,160438.000,3947.6536,N,10509.1989,W,1,14,0.88,1712.3,M,-20.8,M,,*77\r\n
$GNGSA,A,3,19,17,06,,,,,,,,,,1.13,0.88,0.70,1*0D\r\n
$GNGSA,A,3,82,80,81,83,78,73,,,,,,,1.13,0.88,0.70,2*0D\r\n
$GNRMC,160438.000,A,3947.6536,N,10509.1989,W,0.22,5.99,250523,,,A,V*1D\r\n
$PAIR010,0,0,2263,403496*32\r\n
$GNGGA,160439.000,3947.6536,N,10509.1990,W,1,14,0.88,1712.3,M,-20.8,M,,*7E\r\n
$GNGSA,A,3,19,17,06,,,,,,,,,,1.13,0.88,0.70,1*0D\r\n
$GNGSA,A,3,82,80,81,83,78,73,,,,,,,1.13,0.88,0.70,2*0D\r\n
$GNRMC,160439.000,A,3947.6536,N,10509.1990,W,0.11,5.99,250523,,,A,V*14\r\n
$GNGGA,160440.000,3947.6536,N,10509.1990,W,1,14,0.88,1712.3,M,-20.8,M,,*70\r\n
$GNGSA,A,3,19,17,06,,,,,,,,,,1.13,0.88,0.70,1*0D\r\n
$GNGSA,A,3,82,80,81,83,78,73,,,,,,,1.13,0.88,0.70,2*0D\r\n
$GPGSV,3,1,11,19,76,339,24,17,57,041,26,06,55,169,27,14,37,106,,1*6E\r\n
$GPGSV,3,2,11,24,37,297,,11,17,196,20,03,13,068,16,12,09,300,,1*60\r\n
$GPGSV,3,3,11,01,07,036,16,13,05,222,,30,04,161,21,1*57\r\n
$GNRMC,160440.000,A,3947.6536,N,10509.1990,W,0.85,287.58,250523,,,A,V*12\r\n
$GNGGA,160441.000,3947.6536,N,10509.1991,W,1,14,0.88,1712.3,M,-20.8,M,,*70\r\n
$GNGSA,A,3,19,17,06,,,,,,,,,,1.13,0.88,0.70,1*0D\r\n
$GNGSA,A,3,82,80,81,83,78,73,,,,,,,1.13,0.88,0.70,2*0D\r\n
$GNRMC,160441.000,A,3947.6536,N,10509.1991,W,0.18,287.58,250523,,,A,V*16\r\n
$GNGGA,160442.000,3947.6537,N,10509.1992,W,1,14,0.88,1712.3,M,-20.8,M,,*71\r\n
$GNGSA,A,3,19,17,06,,,,,,,,,,1.13,0.88,0.70,1*0D\r\n
$GNGSA,A,3,82,80,81,83,78,73,,,,,,,1.13,0.88,0.70,2*0D\r\n
$GNRMC,160442.000,A,3947.6537,N,10509.1992,W,0.33,287.58,250523,,,A,V*1E\r\n
$GNGGA,160443.000,3947.6536,N,10509.1991,W,1,14,0.88,1712.3,M,-20.8,M,,*72\r\n
$GNGSA,A,3,19,17,06,,,,,,,,,,1.13,0.88,0.70,1*0D\r\n
$GNGSA,A,3,82,80,81,83,78,73,,,,,,,1.13,0.88,0.70,2*0D\r\n
$GNRMC,160443.000,A,3947.6536,N,10509.1991,W,0.37,287.58,250523,,,A,V*19\r\n
$GNGGA,160444.000,3947.6536,N,10509.1991,W,1,14,0.88,1712.3,M,-20.8,M,,*75\r\n
$GNGSA,A,3,19,17,06,,,,,,,,,,1.13,0.88,0.70,1*0D\r\n
$GNGSA,A,3,82,80,81,83,78,73,,,,,,,1.13,0.88,0.70,2*0D\r\n
$GNRMC,160444.000,A,3947.6536,N,10509.1991,W,0.67,233.97,250523,,,A,V*17\r\n
$GNGGA,160445.000,3947.6535,N,10509.1992,W,1,14,0.88,1712.3,M,-20.8,M,,*74\r\n
$GNGSA,A,3,19,17,06,,,,,,,,,,1.13,0.88,0.70,1*0D\r\n
$GNGSA,A,3,82,80,81,83,78,73,,,,,,,1.13,0.88,0.70,2*0D\r\n
$GPGSV,3,1,11,19,76,339,25,17,57,041,26,06,55,169,27,14,37,106,,1*6F\r\n
$GPGSV,3,2,11,24,37,297,,11,17,196,20,03,13,068,16,12,09,300,,1*60\r\n
$GPGSV,3,3,11,01,07,036,16,13,05,222,,30,04,161,21,1*57\r\n
$GNRMC,160445.000,A,3947.6535,N,10509.1992,W,0.25,233.97,250523,,,A,V*10\r\n
$GNGGA,160446.000,3947.6535,N,10509.1992,W,1,14,0.88,1712.3,M,-20.8,M,,*77\r\n
$GNGSA,A,3,19,17,06,,,,,,,,,,1.13,0.88,0.70,1*0D\r\n
$GNGSA,A,3,82,80,81,83,78,73,,,,,,,1.13,0.88,0.70,2*0D\r\n
$GNRMC,160446.000,A,3947.6535,N,10509.1992,W,0.24,233.97,250523,,,A,V*12\r\n
$GNGGA,160447.000,3947.6535,N,10509.1993,W,1,14,0.88,1712.3,M,-20.8,M,,*77\r\n
$GNGSA,A,3,19,17,06,,,,,,,,,,1.13,0.88,0.70,1*0D\r\n
$GNGSA,A,3,82,80,81,83,78,73,,,,,,,1.13,0.88,0.70,2*0D\r\n
$GNRMC,160447.000,A,3947.6535,N,10509.1993,W,0.22,233.97,250523,,,A,V*14\r\n
$GNGGA,160448.000,3947.6535,N,10509.1993,W,1,14,0.88,1712.3,M,-20.8,M,,*78\r\n
$GNGSA,A,3,19,17,06,,,,,,,,,,1.13,0.88,0.70,1*0D\r\n
$GNGSA,A,3,82,80,81,83,78,73,,,,,,,1.13,0.88,0.70,2*0D\r\n
$GNRMC,160448.000,A,3947.6535,N,10509.1993,W,0.15,233.97,250523,,,A,V*1F\r\n
$GNGGA,160449.000,3947.6536,N,10509.1994,W,1,14,0.88,1712.3,M,-20.8,M,,*7D\r\n
$GNGSA,A,3,19,17,06,,,,,,,,,,1.13,0.88,0.70,1*0D\r\n
$GNGSA,A,3,82,80,81,83,78,73,,,,,,,1.13,0.88,0.70,2*0D\r\n
$GNRMC,160449.000,A,3947.6536,N,10509.1994,W,0.19,233.97,250523,,,A,V*16\r\n
$GNGGA,160450.000,3947.6535,N,10509.1993,W,1,14,0.88,1712.3,M,-20.8,M,,*71\r\n
$GNGSA,A,3,19,17,06,,,,,,,,,,1.13,0.88,0.70,1*0D\r\n
$GNGSA,A,3,82,80,81,83,78,73,,,,,,,1.13,0.88,0.70,2*0D\r\n
$GPGSV,3,1,12,19,76,339,25,17,57,041,25,06,55,169,26,46,37,214,30,1*6A\r\n
$GPGSV,3,2,12,14,37,106,,24,37,297,,11,17,196,21,03,13,068,16,1*6D\r\n
$GPGSV,3,3,12,12,09,300,,01,07,036,16,13,05,222,,30,04,161,21,1*6D\r\n
$GNRMC,160450.000,A,3947.6535,N,10509.1993,W,0.16,233.97,250523,,,A,V*15\r\n
$GNGGA,160451.000,3947.6536,N,10509.1994,W,1,14,0.88,1712.3,M,-20.8,M,,*74\r\n
$GNGSA,A,3,19,17,06,,,,,,,,,,1.13,0.88,0.70,1*0D\r\n
$GNGSA,A,3,82,80,81,83,78,73,,,,,,,1.13,0.88,0.70,2*0D\r\n
$GNRMC,160451.000,A,3947.6536,N,10509.1994,W,0.24,233.97,250523,,,A,V*11\r\n
$GNGGA,160452.000,3947.6536,N,10509.1994,W,1,14,0.88,1712.3,M,-20.8,M,,*77\r\n
$GNGSA,A,3,19,17,06,,,,,,,,,,1.13,0.88,0.70,1*0D\r\n
$GNGSA,A,3,82,80,81,83,78,73,,,,,,,1.13,0.88,0.70,2*0D\r\n
$GNRMC,160452.000,A,3947.6536,N,10509.1994,W,0.40,233.97,250523,,,A,V*10\r\n
$GNGGA,160453.000,3947.6536,N,10509.1993,W,1,14,0.88,1712.3,M,-20.8,M,,*71\r\n
$GNGSA,A,3,19,17,06,,,,,,,,,,1.13,0.88,0.70,1*0D\r\n
$GNGSA,A,3,82,80,81,83,78,73,,,,,,,1.13,0.88,0.70,2*0D\r\n
$GNRMC,160453.000,A,3947.6536,N,10509.1993,W,0.15,233.97,250523,,,A,V*16\r\n
$GNGGA,160454.000,3947.6536,N,10509.1993,W,1,14,0.88,1712.4,M,-20.8,M,,*71\r\n
$GNGSA,A,3,19,17,06,,,,,,,,,,1.13,0.88,0.70,1*0D\r\n
$GNGSA,A,3,82,80,81,83,78,73,,,,,,,1.13,0.88,0.70,2*0D\r\n
$GNRMC,160454.000,A,3947.6536,N,10509.1993,W,0.17,233.97,250523,,,A,V*13\r\n
$GNGGA,160455.000,3947.6536,N,10509.1994,W,1,14,0.88,1712.4,M,-20.8,M,,*77\r\n
$GNGSA,A,3,19,17,06,,,,,,,,,,1.13,0.88,0.70,1*0D\r\n
$GNGSA,A,3,82,80,81,83,78,73,,,,,,,1.13,0.88,0.70,2*0D\r\n
$GPGSV,3,1,12,19,76,339,25,17,57,041,25,06,55,169,26,46,37,214,29,1*62\r\n
$GPGSV,3,2,12,14,37,106,,24,37,297,,11,17,196,20,03,13,068,16,1*6C\r\n
$GPGSV,3,3,12,12,09,300,,01,07,036,15,13,05,222,,30,04,161,21,1*6E\r\n
$GNRMC,160455.000,A,3947.6536,N,10509.1994,W,0.39,233.97,250523,,,A,V*19\r\n
$GNGGA,160456.000,3947.6536,N,10509.1994,W,1,14,0.88,1712.4,M,-20.8,M,,*74\r\n
$GNGSA,A,3,19,17,06,,,,,,,,,,1.13,0.88,0.70,1*0D\r\n
$GNGSA,A,3,82,80,81,83,78,73,,,,,,,1.13,0.88,0.70,2*0D\r\n
$GNRMC,160456.000,A,3947.6536,N,10509.1994,W,0.45,233.97,250523,,,A,V*11\r\n
$GNGGA,160457.000,3947.6535,N,10509.1995,W,1,14,0.88,1712.4,M,-20.8,M,,*77\r\n
$GNGSA,A,3,19,17,06,,,,,,,,,,1.13,0.88,0.70,1*0D\r\n
$GNGSA,A,3,82,80,81,83,78,73,,,,,,,1.13,0.88,0.70,2*0D\r\n
$GNRMC,160457.000,A,3947.6535,N,10509.1995,W,0.12,233.97,250523,,,A,V*10\r\n
$GNGGA,160458.000,3947.6535,N,10509.1995,W,1,14,0.88,1712.4,M,-20.8,M,,*78\r\n
$GNGSA,A,3,19,17,06,,,,,,,,,,1.13,0.88,0.70,1*0D\r\n
$GNGSA,A,3,82,80,81,83,78,73,,,,,,,1.13,0.88,0.70,2*0D\r\n
$GNRMC,160458.000,A,3947.6535,N,10509.1995,W,0.31,233.97,250523,,,A,V*1E\r\n
$GNGGA,160459.000,3947.6535,N,10509.1994,W,1,14,0.88,1712.3,M,-20.8,M,,*7F\r\n
$GNGSA,A,3,19,17,06,,,,,,,,,,1.13,0.88,0.70,1*0D\r\n
$GNGSA,A,3,82,80,81,83,78,73,,,,,,,1.13,0.88,0.70,2*0D\r\n
$GNRMC,160459.000,A,3947.6535,N,10509.1994,W,0.15,233.97,250523,,,A,V*18\r\n
$GNGGA,160500.000,3947.6535,N,10509.1994,W,1,14,0.88,1712.3,M,-20.8,M,,*72\r\n
$GNGSA,A,3,19,17,06,,,,,,,,,,1.13,0.88,0.70,1*0D\r\n
$GNGSA,A,3,82,80,81,83,78,73,,,,,,,1.13,0.88,0.70,2*0D\r\n
$GPGSV,3,1,12,19,76,339,25,17,57,041,25,06,55,169,25,46,37,214,29,1*61\r\n
$GPGSV,3,2,12,14,37,106,,24,37,297,,11,17,196,20,03,13,068,16,1*6C\r\n
$GPGSV,3,3,12,12,09,300,,01,07,036,15,13,05,222,,30,04,161,21,1*6E\r\n
$GNRMC,160500.000,A,3947.6535,N,10509.1994,W,0.50,233.97,250523,,,A,V*14\r\n
$GNGGA,160501.000,3947.6536,N,10509.1994,W,1,14,0.88,1712.4,M,-20.8,M,,*77\r\n
$GNGSA,A,3,19,17,06,,,,,,,,,,1.13,0.88,0.70,1*0D\r\n
$GNGSA,A,3,82,80,81,83,73,78,,,,,,,1.13,0.88,0.70,2*0D\r\n
$GNRMC,160501.000,A,3947.6536,N,10509.1994,W,0.29,233.97,250523,,,A,V*18\r\n
$GNGGA,160502.000,3947.6536,N,10509.1995,W,1,14,0.88,1712.4,M,-20.8,M,,*75\r\n
$GNGSA,A,3,19,17,06,,,,,,,,,,1.13,0.88,0.70,1*0D\r\n
$GNGSA,A,3,82,80,81,83,73,78,,,,,,,1.13,0.88,0.70,2*0D\r\n
$GNRMC,160502.000,A,3947.6536,N,10509.1995,W,0.22,233.97,250523,,,A,V*11\r\n
$GNGGA,160503.000,3947.6535,N,10509.1995,W,1,14,0.88,1712.4,M,-20.8,M,,*77\r\n
$GNGSA,A,3,19,17,06,,,,,,,,,,1.13,0.88,0.70,1*0D\r\n
$GNGSA,A,3,82,80,81,83,73,78,,,,,,,1.13,0.88,0.70,2*0D\r\n
$GNRMC,160503.000,A,3947.6535,N,10509.1995,W,0.35,233.97,250523,,,A,V*15\r\n
$GNGGA,160504.000,3947.6535,N,10509.1995,W,1,14,0.88,1712.4,M,-20.8,M,,*70\r\n
$GNGSA,A,3,19,17,06,,,,,,,,,,1.13,0.88,0.70,1*0D\r\n
$GNGSA,A,3,82,80,81,83,73,78,,,,,,,1.13,0.88,0.70,2*0D\r\n
$GNRMC,160504.000,A,3947.6535,N,10509.1995,W,0.41,233.97,250523,,,A,V*11\r\n
$GNGGA,160505.000,3947.6535,N,10509.1995,W,1,14,0.88,1712.4,M,-20.8,M,,*71\r\n
$GNGSA,A,3,19,17,06,,,,,,,,,,1.13,0.88,0.70,1*0D\r\n
$GNGSA,A,3,82,80,81,83,73,78,,,,,,,1.13,0.88,0.70,2*0D\r\n
$GPGSV,3,1,12,19,76,339,25,17,57,041,25,06,55,169,27,46,37,214,29,1*63\r\n
$GPGSV,3,2,12,14,37,106,,24,37,297,,11,17,196,20,03,13,068,16,1*6C\r\n
$GPGSV,3,3,12,12,09,300,,01,07,036,15,13,05,222,,30,04,161,21,1*6E\r\n
$GNRMC,160505.000,A,3947.6535,N,10509.1995,W,0.76,81.66,250523,,,A,V*21\r\n
$GNGGA,160506.000,3947.6535,N,10509.1994,W,1,14,0.88,1712.4,M,-20.8,M,,*73\r\n
$GNGSA,A,3,19,17,06,,,,,,,,,,1.13,0.88,0.70,1*0D\r\n
$GNGSA,A,3,82,80,81,83,73,78,,,,,,,1.13,0.88,0.70,2*0D\r\n
$GNRMC,160506.000,A,3947.6535,N,10509.1994,W,0.23,81.66,250523,,,A,V*23\r\n
$GNGGA,160507.000,3947.6535,N,10509.1993,W,1,14,0.88,1712.5,M,-20.8,M,,*74\r\n
$GNGSA,A,3,19,17,06,,,,,,,,,,1.13,0.88,0.70,1*0D\r\n
$GNGSA,A,3,82,80,81,83,73,78,,,,,,,1.13,0.88,0.70,2*0D\r\n
$GNRMC,160507.000,A,3947.6535,N,10509.1993,W,0.51,81.66,250523,,,A,V*20\r\n
$GNGGA,160508.000,3947.6535,N,10509.1994,W,1,14,0.88,1712.4,M,-20.8,M,,*7D\r\n
$GNGSA,A,3,19,17,06,,,,,,,,,,1.13,0.88,0.70,1*0D\r\n
$GNGSA,A,3,82,80,81,83,73,78,,,,,,,1.13,0.88,0.70,2*0D\r\n
$GNRMC,160508.000,A,3947.6535,N,10509.1994,W,0.19,81.66,250523,,,A,V*24\r\n
$GNGGA,160509.000,3947.6536,N,10509.1994,W,1,14,0.88,1712.4,M,-20.8,M,,*7F\r\n
$GNGSA,A,3,19,17,06,,,,,,,,,,1.13,0.88,0.70,1*0D\r\n
$GNGSA,A,3,82,80,81,83,73,78,,,,,,,1.13,0.88,0.70,2*0D\r\n
$GNRMC,160509.000,A,3947.6536,N,10509.1994,W,0.11,81.66,250523,,,A,V*2E\r\n
$GNGGA,160510.000,3947.6535,N,10509.1994,W,1,14,0.88,1712.5,M,-20.8,M,,*75\r\n
$GNGSA,A,3,19,17,06,,,,,,,,,,1.13,0.88,0.70,1*0D\r\n
$GNGSA,A,3,82,80,81,83,73,78,,,,,,,1.13,0.88,0.70,2*0D\r\n
$GPGSV,3,1,12,19,76,339,25,17,57,041,25,06,55,169,26,46,37,214,29,1*62\r\n
$GPGSV,3,2,12,14,37,106,,24,37,297,,11,17,196,20,03,13,068,17,1*6D\r\n
$GPGSV,3,3,12,12,09,300,,01,07,036,14,13,05,222,,30,04,161,20,1*6E\r\n
$GNRMC,160510.000,A,3947.6535,N,10509.1994,W,0.31,81.66,250523,,,A,V*27\r\n
$GNGGA,160511.000,3947.6535,N,10509.1995,W,1,14,0.88,1712.5,M,-20.8,M,,*75\r\n
$GNGSA,A,3,19,17,06,,,,,,,,,,1.13,0.88,0.70,1*0D\r\n
$GNGSA,A,3,82,80,81,83,73,78,,,,,,,1.13,0.88,0.70,2*0D\r\n
$GNRMC,160511.000,A,3947.6535,N,10509.1995,W,0.25,81.66,250523,,,A,V*22\r\n
$GNGGA,160512.000,3947.6535,N,10509.1995,W,1,14,0.88,1712.5,M,-20.8,M,,*76\r\n
$GNGSA,A,3,19,17,06,,,,,,,,,,1.13,0.88,0.70,1*0D\r\n
$GNGSA,A,3,82,80,81,83,73,78,,,,,,,1.13,0.88,0.70,2*0D\r\n
$GNRMC,160512.000,A,3947.6535,N,10509.1995,W,0.10,81.66,250523,,,A,V*27\r\n
$GNGGA,160513.000,3947.6535,N,10509.1995,W,1,14,0.88,1712.5,M,-20.8,M,,*77\r\n
$GNGSA,A,3,19,17,06,,,,,,,,,,1.13,0.88,0.70,1*0D\r\n
$GNGSA,A,3,82,80,81,83,73,78,,,,,,,1.13,0.88,0.70,2*0D\r\n
$GNRMC,160513.000,A,3947.6535,N,10509.1995,W,0.38,81.66,250523,,,A,V*2C\r\n
$GNGGA,160514.000,3947.6534,N,10509.1994,W,1,14,0.88,1712.5,M,-20.8,M,,*70\r\n
$GNGSA,A,3,19,17,06,,,,,,,,,,1.13,0.88,0.70,1*0D\r\n
$GNGSA,A,3,82,80,81,83,73,78,,,,,,,1.13,0.88,0.70,2*0D\r\n
$GNRMC,160514.000,A,3947.6534,N,10509.1994,W,0.33,81.66,250523,,,A,V*20\r\n
$GNGGA,160515.000,3947.6534,N,10509.1994,W,1,14,0.88,1712.5,M,-20.8,M,,*71\r\n
$GNGSA,A,3,19,17,06,,,,,,,,,,1.13,0.88,0.70,1*0D\r\n
$GNGSA,A,3,82,80,81,83,73,78,,,,,,,1.13,0.88,0.70,2*0D\r\n
$GPGSV,3,1,12,19,76,339,24,17,57,041,25,06,55,169,26,46,37,214,29,1*63\r\n
$GPGSV,3,2,12,14,37,106,,24,37,297,,11,17,196,20,03,13,068,17,1*6D\r\n
$GPGSV,3,3,12,12,09,300,,01,07,036,15,13,05,222,,30,04,161,20,1*6F\r\n
$GNRMC,160515.000,A,3947.6534,N,10509.1994,W,0.26,81.66,250523,,,A,V*25\r\n
$GNGGA,160516.000,3947.6533,N,10509.1993,W,1,14,0.88,1712.5,M,-20.8,M,,*72\r\n
$GNGSA,A,3,19,17,06,,,,,,,,,,1.13,0.88,0.70,1*0D\r\n
$GNGSA,A,3,82,80,81,83,73,78,,,,,,,1.13,0.88,0.70,2*0D\r\n
$GNRMC,160516.000,A,3947.6533,N,10509.1993,W,0.51,81.66,250523,,,A,V*26\r\n
$GNGGA,160517.000,3947.6533,N,10509.1993,W,1,14,0.88,1712.5,M,-20.8,M,,*73\r\n
$GNGSA,A,3,19,17,06,,,,,,,,,,1.13,0.88,0.70,1*0D\r\n
$GNGSA,A,3,82,80,81,83,73,78,,,,,,,1.13,0.88,0.70,2*0D\r\n
$GNRMC,160517.000,A,3947.6533,N,10509.1993,W,0.57,81.66,250523,,,A,V*21\r\n
$GNGGA,160518.000,3947.6534,N,10509.1992,W,1,14,0.88,1712.5,M,-20.8,M,,*7A\r\n
$GNGSA,A,3,19,17,06,,,,,,,,,,1.13,0.88,0.70,1*0D\r\n
$GNGSA,A,3,82,80,81,83,73,78,,,,,,,1.13,0.88,0.70,2*0D\r\n
$GNRMC,160518.000,A,3947.6534,N,10509.1992,W,0.40,81.66,250523,,,A,V*2E\r\n
$GNGGA,160519.000,3947.6533,N,10509.1991,W,1,14,0.88,1712.5,M,-20.8,M,,*7F\r\n
$GNGSA,A,3,19,17,06,,,,,,,,,,1.13,0.88,0.70,1*0D\r\n
$GNGSA,A,3,82,80,81,83,73,78,,,,,,,1.13,0.88,0.70,2*0D\r\n
$GNRMC,160519.000,A,3947.6533,N,10509.1991,W,0.63,159.33,250523,,,A,V*1E\r\n
$GNGGA,160520.000,3947.6532,N,10509.1992,W,1,14,0.88,1712.5,M,-20.8,M,,*77\r\n
$GNGSA,A,3,19,17,06,,,,,,,,,,1.13,0.88,0.70,1*0D\r\n
$GNGSA,A,3,82,80,81,83,73,78,,,,,,,1.13,0.88,0.70,2*0D\r\n
$GPGSV,3,1,12,19,76,339,24,17,57,041,25,06,55,169,27,46,37,214,29,1*62\r\n
$GPGSV,3,2,12,14,37,106,,24,37,297,,11,17,196,20,03,13,068,17,1*6D\r\n
$GPGSV,3,3,12,12,09,300,,01,07,036,15,13,05,222,,30,04,161,21,1*6E\r\n
$GNRMC,160520.000,A,3947.6532,N,10509.1992,W,0.13,159.33,250523,,,A,V*11\r\n
$GNGGA,160521.000,3947.6532,N,10509.1991,W,1,14,0.88,1712.5,M,-20.8,M,,*75\r\n
$GNGSA,A,3,19,17,06,,,,,,,,,,1.13,0.88,0.70,1*0D\r\n
$GNGSA,A,3,82,80,81,83,73,78,,,,,,,1.13,0.88,0.70,2*0D\r\n
$GNRMC,160521.000,A,3947.6532,N,10509.1991,W,0.43,159.33,250523,,,A,V*16\r\n
$GNGGA,160522.000,3947.6532,N,10509.1991,W,1,14,0.88,1712.5,M,-20.8,M,,*76\r\n
$GNGSA,A,3,19,17,06,,,,,,,,,,1.13,0.88,0.70,1*0D\r\n
$GNGSA,A,3,82,80,81,83,73,78,,,,,,,1.13,0.88,0.70,2*0D\r\n
$GNRMC,160522.000,A,3947.6532,N,10509.1991,W,0.28,159.33,250523,,,A,V*18\r\n
$GNGGA,160523.000,3947.6532,N,10509.1990,W,1,14,0.88,1712.5,M,-20.8,M,,*76\r\n
$GNGSA,A,3,19,17,06,,,,,,,,,,1.13,0.88,0.70,1*0D\r\n
$GNGSA,A,3,82,80,81,83,73,78,,,,,,,1.13,0.88,0.70,2*0D\r\n
$GNRMC,160523.000,A,3947.6532,N,10509.1990,W,0.16,159.33,250523,,,A,V*15\r\n
$GNGGA,160524.000,3947.6533,N,10509.1990,W,1,14,0.88,1712.5,M,-20.8,M,,*70\r\n
$GNGSA,A,3,19,17,06,,,,,,,,,,1.13,0.88,0.70,1*0D\r\n
$GNGSA,A,3,82,80,81,83,73,78,,,,,,,1.13,0.88,0.70,2*0D\r\n
$GNRMC,160524.000,A,3947.6533,N,10509.1990,W,0.28,159.33,250523,,,A,V*1E\r\n
$GNGGA,160525.000,3947.6533,N,10509.1990,W,1,14,0.88,1712.6,M,-20.8,M,,*72\r\n
$GNGSA,A,3,19,17,06,,,,,,,,,,1.13,0.88,0.70,1*0D\r\n
$GNGSA,A,3,82,80,81,83,73,78,,,,,,,1.13,0.88,0.70,2*0D\r\n
$GPGSV,3,1,12,19,76,339,24,17,57,041,25,06,55,169,27,46,37,214,29,1*62\r\n
$GPGSV,3,2,12,14,37,106,,24,37,297,,11,17,196,19,03,13,068,17,1*67\r\n
$GPGSV,3,3,12,12,09,300,,01,07,036,15,13,05,222,,30,04,161,21,1*6E\r\n
$GNRMC,160525.000,A,3947.6533,N,10509.1990,W,0.09,159.33,250523,,,A,V*1C\r\n
$GNGGA,160526.000,3947.6533,N,10509.1991,W,1,14,0.88,1712.6,M,-20.8,M,,*70\r\n
$GNGSA,A,3,19,17,06,,,,,,,,,,1.13,0.88,0.70,1*0D\r\n
$GNGSA,A,3,82,80,81,83,73,78,,,,,,,1.13,0.88,0.70,2*0D\r\n
$GNRMC,160526.000,A,3947.6533,N,10509.1991,W,0.33,159.33,250523,,,A,V*17\r\n
$GNGGA,160527.000,3947.6533,N,10509.1991,W,1,14,0.88,1712.6,M,-20.8,M,,*71\r\n
$GNGSA,A,3,19,17,06,,,,,,,,,,1.13,0.88,0.70,1*0D\r\n
$GNGSA,A,3,82,80,81,83,73,78,,,,,,,1.13,0.88,0.70,2*0D\r\n
$GNRMC,160527.000,A,3947.6533,N,10509.1991,W,0.24,159.33,250523,,,A,V*10\r\n
$GNGGA,160528.000,3947.6534,N,10509.1990,W,1,14,0.88,1712.6,M,-20.8,M,,*78\r\n
$GNGSA,A,3,19,17,06,,,,,,,,,,1.13,0.88,0.70,1*0D\r\n
$GNGSA,A,3,82,80,81,83,73,78,,,,,,,1.13,0.88,0.70,2*0D\r\n
$GNRMC,160528.000,A,3947.6534,N,10509.1990,W,0.26,159.33,250523,,,A,V*1B\r\n
$GNGGA,160529.000,3947.6533,N,10509.1990,W,1,14,0.88,1712.6,M,-20.8,M,,*7E\r\n
$GNGSA,A,3,19,17,06,,,,,,,,,,1.13,0.88,0.70,1*0D\r\n
$GNGSA,A,3,82,80,81,83,73,78,,,,,,,1.13,0.88,0.70,2*0D\r\n
$GNRMC,160529.000,A,3947.6533,N,10509.1990,W,0.31,159.33,250523,,,A,V*1B\r\n
$GNGGA,160530.000,3947.6534,N,10509.1989,W,1,14,0.88,1712.6,M,-20.8,M,,*79\r\n
$GNGSA,A,3,19,17,06,,,,,,,,,,1.13,0.88,0.70,1*0D\r\n
$GNGSA,A,3,82,80,81,83,73,78,,,,,,,1.13,0.88,0.70,2*0D\r\n
$GPGSV,3,1,12,19,76,339,26,17,57,041,25,06,55,169,27,46,37,214,29,1*60\r\n
$GPGSV,3,2,12,14,37,106,,24,37,297,,11,17,196,19,03,13,068,17,1*67\r\n
$GPGSV,3,3,12,12,09,300,,01,07,036,12,13,05,222,,30,04,161,20,1*68\r\n
$GNRMC,160530.000,A,3947.6534,N,10509.1989,W,0.29,159.33,250523,,,A,V*15\r\n
$GNGGA,160531.000,3947.6534,N,10509.1989,W,1,14,0.88,1712.6,M,-20.8,M,,*78\r\n
$GNGSA,A,3,19,17,06,,,,,,,,,,1.13,0.88,0.70,1*0D\r\n
$GNGSA,A,3,82,80,81,83,73,78,,,,,,,1.13,0.88,0.70,2*0D\r\n
$GNRMC,160531.000,A,3947.6534,N,10509.1989,W,0.21,159.33,250523,,,A,V*1C\r\n
$GNGGA,160532.000,3947.6534,N,10509.1988,W,1,14,0.88,1712.6,M,-20.8,M,,*7A\r\n
$GNGSA,A,3,19,17,06,,,,,,,,,,1.13,0.88,0.70,1*0D\r\n
$GNGSA,A,3,82,80,81,83,73,78,,,,,,,1.13,0.88,0.70,2*0D\r\n
$GNRMC,160532.000,A,3947.6534,N,10509.1988,W,0.20,159.33,250523,,,A,V*1F\r\n
$GNGGA,160533.000,3947.6533,N,10509.1988,W,1,14,0.88,1712.7,M,-20.8,M,,*7D\r\n
$GNGSA,A,3,19,17,06,,,,,,,,,,1.13,0.88,0.70,1*0D\r\n
$GNGSA,A,3,82,80,81,83,73,78,,,,,,,1.13,0.88,0.70,2*0D\r\n
$GNRMC,160533.000,A,3947.6533,N,10509.1988,W,0.33,159.33,250523,,,A,V*1B\r\n
$GNGGA,160534.000,3947.6533,N,10509.1987,W,1,14,0.88,1712.7,M,-20.8,M,,*75\r\n
$GNGSA,A,3,19,17,06,,,,,,,,,,1.13,0.88,0.70,1*0D\r\n
$GNGSA,A,3,82,80,81,83,73,78,,,,,,,1.13,0.88,0.70,2*0D\r\n
$GNRMC,160534.000,A,3947.6533,N,10509.1987,W,0.25,159.33,250523,,,A,V*14\r\n
$GNGGA,160535.000,3947.6533,N,10509.1987,W,1,14,0.88,1712.7,M,-20.8,M,,*74\r\n
$GNGSA,A,3,19,17,06,,,,,,,,,,1.13,0.88,0.70,1*0D\r\n
$GNGSA,A,3,82,80,81,83,73,78,,,,,,,1.13,0.88,0.70,2*0D\r\n
$GPGSV,3,1,12,19,76,339,26,17,57,041,25,06,55,169,26,46,37,214,29,1*61\r\n
$GPGSV,3,2,12,14,37,106,,24,37,297,,11,17,196,18,03,13,068,17,1*66\r\n
$GPGSV,3,3,12,12,09,300,,01,07,036,,13,05,222,,30,04,161,20,1*6B\r\n
$GNRMC,160535.000,A,3947.6533,N,10509.1987,W,0.13,159.33,250523,,,A,V*10\r\n
$GNGGA,160536.000,3947.6533,N,10509.1987,W,1,14,0.88,1712.7,M,-20.8,M,,*77\r\n
$GNGSA,A,3,19,17,06,,,,,,,,,,1.13,0.88,0.70,1*0D\r\n
$GNGSA,A,3,82,80,81,83,73,78,,,,,,,1.13,0.88,0.70,2*0D\r\n
$GNRMC,160536.000,A,3947.6533,N,10509.1987,W,0.38,159.33,250523,,,A,V*1A\r\n
$GNGGA,160537.000,3947.6533,N,10509.1986,W,1,14,0.88,1712.7,M,-20.8,M,,*77\r\n
$GNGSA,A,3,19,17,06,,,,,,,,,,1.13,0.88,0.70,1*0D\r\n
$GNGSA,A,3,82,80,81,83,73,78,,,,,,,1.13,0.88,0.70,2*0D\r\n
$GNRMC,160537.000,A,3947.6533,N,10509.1986,W,0.56,159.33,250523,,,A,V*12\r\n
$GNGGA,160538.000,3947.6534,N,10509.1985,W,1,14,0.88,1712.7,M,-20.8,M,,*7C\r\n
$GNGSA,A,3,19,17,06,,,,,,,,,,1.13,0.88,0.70,1*0D\r\n
$GNGSA,A,3,82,80,81,83,73,78,,,,,,,1.13,0.88,0.70,2*0D\r\n
$GNRMC,160538.000,A,3947.6534,N,10509.1985,W,0.26,159.33,250523,,,A,V*1E\r\n
$PAIR010,0,0,2263,403556*3F\r\n
$GNGGA,160539.000,3947.6534,N,10509.1985,W,1,14,0.88,1712.7,M,-20.8,M,,*7D\r\n
$GNGSA,A,3,19,17,06,,,,,,,,,,1.13,0.88,0.70,1*0D\r\n
$GNGSA,A,3,82,80,81,83,73,78,,,,,,,1.13,0.88,0.70,2*0D\r\n
$GNRMC,160539.000,A,3947.6534,N,10509.1985,W,0.40,159.33,250523,,,A,V*1F\r\n
$GNGGA,160540.000,3947.6533,N,10509.1985,W,2,14,0.88,1712.7,M,-20.8,M,,*77\r\n
$GNGSA,A,3,19,17,06,,,,,,,,,,1.13,0.88,0.70,1*0D\r\n
$GNGSA,A,3,82,80,81,83,73,78,,,,,,,1.13,0.88,0.70,2*0D\r\n
$GPGSV,3,1,12,19,76,339,26,17,57,041,26,06,55,169,26,46,37,214,29,1*62\r\n
$GPGSV,3,2,12,14,37,106,,24,37,297,,11,17,196,18,03,13,068,17,1*66\r\n
$GPGSV,3,3,12,12,09,300,,01,07,036,14,13,05,222,,30,04,161,20,1*6E\r\n
$GNRMC,160540.000,A,3947.6533,N,10509.1985,W,0.34,159.33,250523,,,D,V*10\r\n
$GNGGA,160541.000,3947.6533,N,10509.1983,W,2,14,0.88,1712.8,M,-20.8,M,,*7F\r\n
$GNGSA,A,3,19,17,06,,,,,,,,,,1.13,0.88,0.70,1*0D\r\n
$GNGSA,A,3,82,80,81,83,73,78,,,,,,,1.13,0.88,0.70,2*0D\r\n
$GNRMC,160541.000,A,3947.6533,N,10509.1983,W,0.51,159.33,250523,,,D,V*14\r\n
$GNGGA,160542.000,3947.6533,N,10509.1983,W,2,14,0.88,1712.7,M,-20.8,M,,*73\r\n
$GNGSA,A,3,19,17,06,,,,,,,,,,1.13,0.88,0.70,1*0D\r\n
$GNGSA,A,3,82,80,81,83,73,78,,,,,,,1.13,0.88,0.70,2*0D\r\n
$GNRMC,160542.000,A,3947.6533,N,10509.1983,W,0.25,159.33,250523,,,D,V*14\r\n
$GNGGA,160543.000,3947.6532,N,10509.1982,W,2,14,0.88,1712.8,M,-20.8,M,,*7D\r\n
$GNGSA,A,3,19,17,06,,,,,,,,,,1.13,0.88,0.70,1*0D\r\n
$GNGSA,A,3,82,80,81,83,73,78,,,,,,,1.13,0.88,0.70,2*0D\r\n
$GNRMC,160543.000,A,3947.6532,N,10509.1982,W,0.28,159.33,250523,,,D,V*18\r\n
$GNGGA,160544.000,3947.6532,N,10509.1982,W,2,14,0.88,1712.7,M,-20.8,M,,*75\r\n
$GNGSA,A,3,19,17,06,,,,,,,,,,1.13,0.88,0.70,1*0D\r\n
$GNGSA,A,3,82,80,81,83,73,78,,,,,,,1.13,0.88,0.70,2*0D\r\n
$GNRMC,160544.000,A,3947.6532,N,10509.1982,W,0.23,159.33,250523,,,D,V*14\r\n
$GNGGA,160545.000,3947.6533,N,10509.1983,W,2,14,0.88,1712.8,M,-20.8,M,,*7B\r\n
$GNGSA,A,3,19,17,06,,,,,,,,,,1.13,0.88,0.70,1*0D\r\n
$GNGSA,A,3,82,80,81,83,73,78,,,,,,,1.13,0.88,0.70,2*0D\r\n
$GPGSV,3,1,12,19,76,339,25,17,57,041,27,06,55,169,25,46,37,214,29,1*63\r\n
$GPGSV,3,2,12,14,37,106,,24,37,297,17,11,17,196,18,03,13,068,17,1*60\r\n
$GPGSV,3,3,12,12,09,300,,01,07,036,14,13,05,222,,30,04,161,20,1*6E\r\n
$GNRMC,160545.000,A,3947.6533,N,10509.1983,W,0.16,159.33,250523,,,D,V*13\r\n
$GNGGA,160546.000,3947.6534,N,10509.1983,W,2,14,0.88,1712.8,M,-20.8,M,,*7F\r\n
$GNGSA,A,3,19,17,06,,,,,,,,,,1.13,0.88,0.70,1*0D\r\n
$GNGSA,A,3,82,80,81,83,73,78,,,,,,,1.13,0.88,0.70,2*0D\r\n
$GNRMC,160546.000,A,3947.6534,N,10509.1983,W,0.16,159.33,250523,,,D,V*17\r\n
$GNGGA,160547.000,3947.6534,N,10509.1984,W,2,14,0.88,1712.8,M,-20.8,M,,*79\r\n
$GNGSA,A,3,19,17,06,,,,,,,,,,1.13,0.88,0.70,1*0D\r\n
$GNGSA,A,3,82,80,81,83,73,78,,,,,,,1.13,0.88,0.70,2*0D\r\n
$GNRMC,160547.000,A,3947.6534,N,10509.1984,W,0.14,159.33,250523,,,D,V*13\r\n
$GNGGA,160548.000,3947.6535,N,10509.1984,W,2,14,0.88,1712.8,M,-20.8,M,,*77\r\n
$GNGSA,A,3,19,17,06,,,,,,,,,,1.13,0.88,0.70,1*0D\r\n
$GNGSA,A,3,82,80,81,83,73,78,,,,,,,1.13,0.88,0.70,2*0D\r\n
$GNRMC,160548.000,A,3947.6535,N,10509.1984,W,0.10,159.33,250523,,,D,V*19\r\n
$GNGGA,160549.000,3947.6535,N,10509.1984,W,2,14,0.88,1712.8,M,-20.8,M,,*76\r\n
$GNGSA,A,3,19,17,06,,,,,,,,,,1.13,0.88,0.70,1*0D\r\n
$GNGSA,A,3,82,80,81,83,73,78,,,,,,,1.13,0.88,0.70,2*0D\r\n
$GNRMC,160549.000,A,3947.6535,N,10509.1984,W,0.11,159.33,250523,,,D,V*19\r\n
$GNGGA,160550.000,3947.6535,N,10509.1984,W,2,14,0.88,1712.8,M,-20.8,M,,*7E\r\n
$GNGSA,A,3,19,17,06,,,,,,,,,,1.13,0.88,0.70,1*0D\r\n
$GNGSA,A,3,82,80,81,83,73,78,,,,,,,1.13,0.88,0.70,2*0D\r\n
$GPGSV,3,1,12,19,76,339,25,17,57,041,26,06,55,169,24,46,37,214,29,1*63\r\n
$GPGSV,3,2,12,14,37,106,,24,37,297,16,11,17,196,18,03,13,068,17,1*61\r\n
$GPGSV,3,3,12,12,09,300,,01,07,036,13,13,05,222,,30,04,161,20,1*69\r\n
$GNRMC,160550.000,A,3947.6535,N,10509.1984,W,0.08,159.33,250523,,,D,V*19\r\n
$GNGGA,160551.000,3947.6537,N,10509.1986,W,2,14,0.88,1712.8,M,-20.8,M,,*7F\r\n
$GNGSA,A,3,19,17,06,,,,,,,,,,1.13,0.88,0.70,1*0D\r\n
$GNGSA,A,3,82,80,81,83,73,78,,,,,,,1.13,0.88,0.70,2*0D\r\n
$GNRMC,160551.000,A,3947.6537,N,10509.1986,W,0.10,159.33,250523,,,D,V*11\r\n
$GNGGA,160552.000,3947.6538,N,10509.1986,W,2,14,0.88,1712.8,M,-20.8,M,,*73\r\n
$GNGSA,A,3,19,17,06,,,,,,,,,,1.13,0.88,0.70,1*0D\r\n
$GNGSA,A,3,82,80,81,83,73,78,,,,,,,1.13,0.88,0.70,2*0D\r\n
$GNRMC,160552.000,A,3947.6538,N,10509.1986,W,0.13,159.33,250523,,,D,V*1E\r\n
$GNGGA,160553.000,3947.6538,N,10509.1987,W,2,14,0.88,1712.8,M,-20.8,M,,*73\r\n
$GNGSA,A,3,19,17,06,,,,,,,,,,1.13,0.88,0.71,1*0C\r\n
$GNGSA,A,3,82,80,81,83,73,78,,,,,,,1.13,0.88,0.71,2*0C\r\n
$GNRMC,160553.000,A,3947.6538,N,10509.1987,W,0.15,159.33,250523,,,D,V*18\r\n
$GNGGA,160554.000,3947.6539,N,10509.1988,W,2,14,0.88,1712.8,M,-20.8,M,,*7A\r\n
$GNGSA,A,3,19,17,06,,,,,,,,,,1.13,0.88,0.71,1*0C\r\n
$GNGSA,A,3,82,80,81,83,73,78,,,,,,,1.13,0.88,0.71,2*0C\r\n
$GNRMC,160554.000,A,3947.6539,N,10509.1988,W,0.17,159.33,250523,,,D,V*13\r\n
$GNGGA,160555.000,3947.6539,N,10509.1991,W,2,14,0.88,1712.8,M,-20.8,M,,*73\r\n
$GNGSA,A,3,19,17,06,,,,,,,,,,1.13,0.88,0.71,1*0C\r\n
$GNGSA,A,3,82,80,81,83,73,78,,,,,,,1.13,0.88,0.71,2*0C\r\n
$GPGSV,3,1,12,19,76,339,25,17,57,041,26,06,55,169,25,46,37,214,29,1*62\r\n
$GPGSV,3,2,12,14,37,106,,24,37,297,16,11,17,196,18,03,13,068,17,1*61\r\n
$GPGSV,3,3,12,12,09,300,,01,07,036,12,13,05,222,,30,04,161,20,1*68\r\n
$GNRMC,160555.000,A,3947.6539,N,10509.1991,W,0.20,159.33,250523,,,D,V*1E\r\n
$GNGGA,160556.000,3947.6540,N,10509.1992,W,2,14,0.88,1712.8,M,-20.8,M,,*7D\r\n
$GNGSA,A,3,19,17,06,,,,,,,,,,1.13,0.88,0.71,1*0C\r\n
$GNGSA,A,3,82,80,81,83,73,78,,,,,,,1.13,0.88,0.71,2*0C\r\n
$GNRMC,160556.000,A,3947.6540,N,10509.1992,W,0.22,159.33,250523,,,D,V*12\r\n
$GNGGA,160557.000,3947.6540,N,10509.1992,W,2,14,0.88,1712.9,M,-20.8,M,,*7D\r\n
$GNGSA,A,3,19,17,06,,,,,,,,,,1.13,0.88,0.71,1*0C\r\n
$GNGSA,A,3,82,80,81,83,73,78,,,,,,,1.13,0.88,0.71,2*0C\r\n
$GNRMC,160557.000,A,3947.6540,N,10509.1992,W,0.21,159.33,250523,,,D,V*10\r\n
$GNGGA,160558.000,3947.6540,N,10509.1995,W,2,14,0.88,1712.9,M,-20.8,M,,*75\r\n
$GNGSA,A,3,19,17,06,,,,,,,,,,1.13,0.88,0.71,1*0C\r\n
$GNGSA,A,3,82,80,81,83,73,78,,,,,,,1.13,0.88,0.71,2*0C\r\n
$GNRMC,160558.000,A,3947.6540,N,10509.1995,W,0.23,159.33,250523,,,D,V*1A\r\n
$GNGGA,160559.000,3947.6539,N,10509.1998,W,2,14,0.88,1712.9,M,-20.8,M,,*77\r\n
$GNGSA,A,3,19,17,06,,,,,,,,,,1.13,0.88,0.71,1*0C\r\n
$GNGSA,A,3,82,80,81,83,73,78,,,,,,,1.13,0.88,0.71,2*0C\r\n
$GNRMC,160559.000,A,3947.6539,N,10509.1998,W,0.39,159.33,250523,,,D,V*13\r\n
$GNGGA,160600.000,3947.6540,N,10509.2002,W,2,14,0.88,1712.9,M,-20.8,M,,*7F\r\n
$GNGSA,A,3,19,17,06,,,,,,,,,,1.13,0.88,0.71,1*0C\r\n
$GNGSA,A,3,82,80,81,83,73,78,,,,,,,1.13,0.88,0.71,2*0C\r\n
$GPGSV,3,1,12,19,76,339,25,17,57,041,25,06,55,169,26,46,37,214,29,1*62\r\n
$GPGSV,3,2,12,14,37,106,,24,37,297,16,11,17,196,18,03,13,068,16,1*60\r\n
$GPGSV,3,3,12,12,09,300,,01,07,036,14,13,05,222,,30,04,161,20,1*6E\r\n
$GNRMC,160600.000,A,3947.6540,N,10509.2002,W,0.45,159.33,250523,,,D,V*10\r\n
$GNGGA,160601.000,3947.6541,N,10509.2004,W,2,14,0.88,1712.9,M,-20.8,M,,*79\r\n
$GNGSA,A,3,19,17,06,,,,,,,,,,1.13,0.88,0.71,1*0C\r\n
$GNGSA,A,3,82,80,81,83,73,78,,,,,,,1.13,0.88,0.71,2*0C\r\n
$GNRMC,160601.000,A,3947.6541,N,10509.2004,W,0.42,159.33,250523,,,D,V*11\r\n
$GNGGA,160602.000,3947.6541,N,10509.2005,W,2,14,0.88,1712.9,M,-20.8,M,,*7B\r\n
$GNGSA,A,3,19,17,06,,,,,,,,,,1.13,0.88,0.71,1*0C\r\n
$GNGSA,A,3,82,80,81,83,73,78,,,,,,,1.13,0.88,0.71,2*0C\r\n
$GNRMC,160602.000,A,3947.6541,N,10509.2005,W,0.36,159.33,250523,,,D,V*10\r\n
$GNGGA,160603.000,3947.6542,N,10509.2006,W,2,14,0.88,1712.9,M,-20.8,M,,*7A\r\n
$GNGSA,A,3,19,17,06,,,,,,,,,,1.13,0.88,0.71,1*0C\r\n
$GNGSA,A,3,82,80,81,83,73,78,,,,,,,1.13,0.88,0.71,2*0C\r\n
$GNRMC,160603.000,A,3947.6542,N,10509.2006,W,0.31,159.33,250523,,,D,V*16\r\n
$GNGGA,160604.000,3947.6542,N,10509.2008,W,2,14,0.88,1712.9,M,-20.8,M,,*73\r\n
$GNGSA,A,3,19,17,06,,,,,,,,,,1.13,0.88,0.71,1*0C\r\n
$GNGSA,A,3,82,80,81,83,73,78,,,,,,,1.13,0.88,0.71,2*0C\r\n
$GNRMC,160604.000,A,3947.6542,N,10509.2008,W,0.29,159.33,250523,,,D,V*16\r\n
$GNGGA,160605.000,3947.6543,N,10509.2011,W,2,14,0.88,1712.9,M,-20.8,M,,*7B\r\n
$GNGSA,A,3,19,17,06,,,,,,,,,,1.13,0.88,0.71,1*0C\r\n
$GNGSA,A,3,82,80,81,83,73,78,,,,,,,1.13,0.88,0.71,2*0C\r\n
$GPGSV,3,1,12,19,76,339,25,17,57,041,24,06,55,169,27,46,37,214,29,1*62\r\n
$GPGSV,3,2,12,14,37,106,,24,37,297,16,11,17,196,19,03,13,068,16,1*61\r\n
$GPGSV,3,3,12,12,09,300,,01,07,036,14,13,05,222,,30,04,161,20,1*6E\r\n
$GNRMC,160605.000,A,3947.6543,N,10509.2011,W,0.30,159.33,250523,,,D,V*16\r\n
$GNGGA,160606.000,3947.6543,N,10509.2013,W,2,14,0.88,1712.9,M,-20.8,M,,*7A\r\n
$GNGSA,A,3,19,17,06,,,,,,,,,,1.13,0.88,0.71,1*0C\r\n
$GNGSA,A,3,82,80,81,83,73,78,,,,,,,1.13,0.88,0.71,2*0C\r\n
$GNRMC,160606.000,A,3947.6543,N,10509.2013,W,0.11,159.33,250523,,,D,V*14\r\n
$GNGGA,160607.000,3947.6543,N,10509.2015,W,2,14,0.88,1712.9,M,-20.8,M,,*7D\r\n
$GNGSA,A,3,19,17,06,,,,,,,,,,1.13,0.88,0.71,1*0C\r\n
$GNGSA,A,3,82,80,81,83,73,78,,,,,,,1.13,0.88,0.71,2*0C\r\n
$GNRMC,160607.000,A,3947.6543,N,10509.2015,W,0.16,159.33,250523,,,D,V*14\r\n
$GNGGA,160608.000,3947.6542,N,10509.2017,W,2,14,0.88,1712.9,M,-20.8,M,,*71\r\n
$GNGSA,A,3,19,17,06,,,,,,,,,,1.13,0.88,0.71,1*0C\r\n
$GNGSA,A,3,82,80,81,83,73,78,,,,,,,1.13,0.88,0.71,2*0C\r\n
$GNRMC,160608.000,A,3947.6542,N,10509.2017,W,0.18,159.33,250523,,,D,V*16\r\n
$GNGGA,160609.000,3947.6542,N,10509.2018,W,2,14,0.88,1713.0,M,-20.8,M,,*77\r\n
$GNGSA,A,3,19,17,06,,,,,,,,,,1.13,0.88,0.71,1*0C\r\n
$GNGSA,A,3,82,80,81,83,73,78,,,,,,,1.13,0.88,0.71,2*0C\r\n
$GNRMC,160609.000,A,3947.6542,N,10509.2018,W,0.18,159.33,250523,,,D,V*18\r\n
$GNGGA,160610.000,3947.6541,N,10509.2017,W,2,14,0.88,1713.0,M,-20.8,M,,*73\r\n
$GNGSA,A,3,19,17,06,,,,,,,,,,1.13,0.88,0.71,1*0C\r\n
$GNGSA,A,3,82,80,81,83,73,78,,,,,,,1.13,0.88,0.71,2*0C\r\n
$GPGSV,3,1,12,19,76,339,24,17,57,041,25,06,55,169,27,46,37,214,29,1*62\r\n
$GPGSV,3,2,12,14,37,106,,24,37,297,16,11,17,196,20,03,13,068,16,1*6B\r\n
$GPGSV,3,3,12,12,09,300,,01,07,036,,13,05,222,,30,04,161,20,1*6B\r\n
$GNRMC,160610.000,A,3947.6541,N,10509.2017,W,0.22,159.33,250523,,,D,V*15\r\n
$GNGGA,160611.000,3947.6541,N,10509.2020,W,2,14,0.88,1713.0,M,-20.8,M,,*76\r\n
$GNGSA,A,3,19,17,06,,,,,,,,,,1.13,0.88,0.71,1*0C\r\n
$GNGSA,A,3,82,80,81,83,73,78,,,,,,,1.13,0.88,0.71,2*0C\r\n
$GNRMC,160611.000,A,3947.6541,N,10509.2020,W,0.24,159.33,250523,,,D,V*16\r\n
$GNGGA,160612.000,3947.6541,N,10509.2022,W,2,14,0.88,1713.0,M,-20.8,M,,*77\r\n
$GNGSA,A,3,19,17,06,,,,,,,,,,1.13,0.88,0.71,1*0C\r\n
$GNGSA,A,3,82,80,81,83,73,78,,,,,,,1.13,0.88,0.71,2*0C\r\n
$GNRMC,160612.000,A,3947.6541,N,10509.2022,W,0.23,159.33,250523,,,D,V*10\r\n
$GNGGA,160613.000,3947.6541,N,10509.2022,W,2,14,0.88,1713.0,M,-20.8,M,,*76\r\n
$GNGSA,A,3,19,17,06,,,,,,,,,,1.13,0.88,0.71,1*0C\r\n
$GNGSA,A,3,82,80,81,83,73,78,,,,,,,1.13,0.88,0.71,2*0C\r\n
$GNRMC,160613.000,A,3947.6541,N,10509.2022,W,0.05,159.33,250523,,,D,V*15\r\n
$GNGGA,160614.000,3947.6541,N,10509.2023,W,2,14,0.88,1713.0,M,-20.8,M,,*70\r\n
$GNGSA,A,3,19,17,06,,,,,,,,,,1.13,0.88,0.71,1*0C\r\n
$GNGSA,A,3,82,80,81,83,73,78,,,,,,,1.13,0.88,0.71,2*0C\r\n
$GNRMC,160614.000,A,3947.6541,N,10509.2023,W,0.05,159.33,250523,,,D,V*13\r\n
$GNGGA,160615.000,3947.6542,N,10509.2025,W,2,15,0.81,1713.0,M,-20.8,M,,*7C\r\n
$GNGSA,A,3,19,17,06,14,,,,,,,,,1.07,0.81,0.70,1*04\r\n
$GNGSA,A,3,82,80,81,83,73,78,,,,,,,1.07,0.81,0.70,2*01\r\n
$GPGSV,3,1,12,19,76,339,24,17,57,041,23,06,55,169,28,46,37,214,29,1*6B\r\n
$GPGSV,3,2,12,14,37,106,16,24,37,297,16,11,17,196,20,03,13,068,16,1*6C\r\n
$GPGSV,3,3,12,12,09,300,,01,07,036,,13,05,222,,30,04,161,19,1*61\r\n
$GNRMC,160615.000,A,3947.6542,N,10509.2025,W,0.10,159.33,250523,,,D,V*13\r\n
$GNGGA,160616.000,3947.6541,N,10509.2025,W,2,15,0.81,1713.0,M,-20.8,M,,*7C\r\n
$GNGSA,A,3,19,17,06,14,,,,,,,,,1.07,0.81,0.70,1*04\r\n
$GNGSA,A,3,82,80,81,83,73,78,,,,,,,1.07,0.81,0.70,2*01\r\n
$GNRMC,160616.000,A,3947.6541,N,10509.2025,W,0.09,159.33,250523,,,D,V*1B\r\n
$GNGGA,160617.000,3947.6541,N,10509.2026,W,2,15,0.81,1713.0,M,-20.8,M,,*7E\r\n
$GNGSA,A,3,19,17,06,14,,,,,,,,,1.07,0.81,0.70,1*04\r\n
$GNGSA,A,3,82,80,81,83,73,78,,,,,,,1.07,0.81,0.70,2*01\r\n
$GNRMC,160617.000,A,3947.6541,N,10509.2026,W,0.08,159.33,250523,,,D,V*18\r\n
$GNGGA,160618.000,3947.6541,N,10509.2027,W,2,15,0.81,1713.0,M,-20.8,M,,*70\r\n
$GNGSA,A,3,19,17,06,14,,,,,,,,,1.07,0.81,0.70,1*04\r\n
$GNGSA,A,3,82,80,81,83,73,78,,,,,,,1.07,0.81,0.70,2*01\r\n
$GNRMC,160618.000,A,3947.6541,N,10509.2027,W,0.09,159.33,250523,,,D,V*17\r\n
$GNGGA,160619.000,3947.6541,N,10509.2027,W,2,15,0.81,1713.0,M,-20.8,M,,*71\r\n
$GNGSA,A,3,19,17,06,14,,,,,,,,,1.07,0.81,0.70,1*04\r\n
$GNGSA,A,3,82,80,81,83,73,78,,,,,,,1.07,0.81,0.70,2*01\r\n
$GNRMC,160619.000,A,3947.6541,N,10509.2027,W,0.10,159.33,250523,,,D,V*1E\r\n
$GNGGA,160620.000,3947.6541,N,10509.2026,W,2,15,0.81,1713.0,M,-20.8,M,,*7A\r\n
$GNGSA,A,3,19,17,06,14,,,,,,,,,1.07,0.81,0.70,1*04\r\n
$GNGSA,A,3,82,80,81,83,73,78,,,,,,,1.07,0.81,0.70,2*01\r\n
$GPGSV,3,1,12,19,76,339,24,17,57,041,24,06,55,169,28,46,37,214,29,1*6C\r\n
$GPGSV,3,2,12,14,37,106,16,24,37,297,16,11,17,196,19,03,13,068,16,1*66\r\n
$GPGSV,3,3,12,12,09,300,,01,07,036,,13,05,222,,30,04,161,19,1*61\r\n
$GNRMC,160620.000,A,3947.6541,N,10509.2026,W,0.10,159.33,250523,,,D,V*15\r\n
$GNGGA,160621.000,3947.6542,N,10509.2027,W,2,15,0.81,1713.0,M,-20.8,M,,*79\r\n
$GNGSA,A,3,19,17,06,14,,,,,,,,,1.07,0.81,0.70,1*04\r\n
$GNGSA,A,3,82,80,81,83,73,78,,,,,,,1.07,0.81,0.70,2*01\r\n
$GNRMC,160621.000,A,3947.6542,N,10509.2027,W,0.10,159.33,250523,,,D,V*16\r\n
$GNGGA,160622.000,3947.6542,N,10509.2026,W,2,15,0.81,1713.0,M,-20.8,M,,*7B\r\n
$GNGSA,A,3,19,17,06,14,,,,,,,,,1.07,0.81,0.70,1*04\r\n
$GNGSA,A,3,82,80,81,83,73,78,,,,,,,1.07,0.81,0.70,2*01\r\n
$GNRMC,160622.000,A,3947.6542,N,10509.2026,W,0.14,159.33,250523,,,D,V*10\r\n
$GNGGA,160623.000,3947.6543,N,10509.2025,W,2,16,0.77,1713.0,M,-20.8,M,,*72\r\n
$GNGSA,A,3,19,17,06,14,13,,,,,,,,1.02,0.77,0.66,1*0D\r\n
$GNGSA,A,3,82,80,81,83,73,78,,,,,,,1.02,0.77,0.66,2*0A\r\n
$GNRMC,160623.000,A,3947.6543,N,10509.2025,W,0.28,159.33,250523,,,D,V*1C\r\n
$GNGGA,160624.000,3947.6543,N,10509.2025,W,2,16,0.77,1713.0,M,-20.8,M,,*75\r\n
$GNGSA,A,3,19,17,06,14,13,,,,,,,,1.02,0.77,0.66,1*0D\r\n
$GNGSA,A,3,82,80,81,83,73,78,,,,,,,1.02,0.77,0.66,2*0A\r\n
$GNRMC,160624.000,A,3947.6543,N,10509.2025,W,0.36,159.33,250523,,,D,V*14\r\n
$GNGGA,160625.000,3947.6543,N,10509.2025,W,2,16,0.77,1713.0,M,-20.8,M,,*74\r\n
$GNGSA,A,3,19,17,06,14,13,,,,,,,,1.02,0.77,0.66,1*0D\r\n
$GNGSA,A,3,82,80,81,83,73,78,,,,,,,1.02,0.77,0.66,2*0A\r\n
$GPGSV,3,1,12,19,76,339,24,17,57,041,24,06,55,169,27,46,37,214,29,1*63\r\n
$GPGSV,3,2,12,14,37,106,15,24,37,297,16,11,17,196,18,03,13,068,14,1*66\r\n
$GPGSV,3,3,12,12,09,300,,01,07,036,,13,05,222,14,30,04,161,19,1*64\r\n
$GNRMC,160625.000,A,3947.6543,N,10509.2025,W,0.20,159.33,250523,,,D,V*12\r\n
$GNGGA,160626.000,3947.6543,N,10509.2026,W,2,16,0.77,1713.0,M,-20.8,M,,*74\r\n
$GNGSA,A,3,19,17,06,14,13,,,,,,,,1.02,0.77,0.66,1*0D\r\n
$GNGSA,A,3,82,80,81,83,73,78,,,,,,,1.02,0.77,0.66,2*0A\r\n
$GNRMC,160626.000,A,3947.6543,N,10509.2026,W,0.38,159.33,250523,,,D,V*1B\r\n
$GNGGA,160627.000,3947.6543,N,10509.2025,W,2,16,0.77,1713.0,M,-20.8,M,,*76\r\n
$GNGSA,A,3,19,17,06,14,13,,,,,,,,1.02,0.77,0.66,1*0D\r\n
$GNGSA,A,3,82,80,81,83,73,78,,,,,,,1.02,0.77,0.66,2*0A\r\n
$GNRMC,160627.000,A,3947.6543,N,10509.2025,W,0.48,159.33,250523,,,D,V*1E\r\n
$GNGGA,160628.000,3947.6543,N,10509.2026,W,2,16,0.77,1713.0,M,-20.8,M,,*7A\r\n
$GNGSA,A,3,19,17,06,14,13,,,,,,,,1.02,0.77,0.66,1*0D\r\n
$GNGSA,A,3,82,80,81,83,73,78,,,,,,,1.02,0.77,0.66,2*0A\r\n
$GNRMC,160628.000,A,3947.6543,N,10509.2026,W,0.25,159.33,250523,,,D,V*19\r\n
$GNGGA,160629.000,3947.6543,N,10509.2027,W,2,16,0.77,1713.0,M,-20.8,M,,*7A\r\n
$GNGSA,A,3,19,17,06,14,13,,,,,,,,1.02,0.77,0.66,1*0D\r\n
$GNGSA,A,3,82,80,81,83,73,78,,,,,,,1.02,0.77,0.66,2*0A\r\n
$GNRMC,160629.000,A,3947.6543,N,10509.2027,W,0.21,159.33,250523,,,D,V*1D\r\n
$GNGGA,160630.000,3947.6543,N,10509.2027,W,2,16,0.77,1712.9,M,-20.8,M,,*7A\r\n
$GNGSA,A,3,19,17,06,14,13,,,,,,,,1.02,0.77,0.66,1*0D\r\n
$GNGSA,A,3,82,80,81,83,73,78,,,,,,,1.02,0.77,0.66,2*0A\r\n
$GPGSV,3,1,12,19,76,339,24,17,57,041,24,06,55,169,27,46,37,214,29,1*63\r\n
$GPGSV,3,2,12,14,37,106,15,24,37,297,16,11,17,196,18,03,13,068,14,1*66\r\n
$GPGSV,3,3,12,12,09,300,,01,07,036,,13,05,222,16,30,04,161,19,1*66\r\n
$GNRMC,160630.000,A,3947.6543,N,10509.2027,W,0.18,159.33,250523,,,D,V*1F\r\n
$GNGGA,160631.000,3947.6542,N,10509.2027,W,2,16,0.77,1712.9,M,-20.8,M,,*7A\r\n
$GNGSA,A,3,19,17,06,14,13,,,,,,,,1.02,0.77,0.66,1*0D\r\n
$GNGSA,A,3,82,80,81,83,73,78,,,,,,,1.02,0.77,0.66,2*0A\r\n
$GNRMC,160631.000,A,3947.6542,N,10509.2027,W,0.21,159.33,250523,,,D,V*15\r\n
$GNGGA,160632.000,3947.6543,N,10509.2028,W,2,16,0.77,1712.9,M,-20.8,M,,*77\r\n
$GNGSA,A,3,19,17,06,14,13,,,,,,,,1.02,0.77,0.66,1*0D\r\n
$GNGSA,A,3,82,80,81,83,73,78,,,,,,,1.02,0.77,0.66,2*0A\r\n
$GNRMC,160632.000,A,3947.6543,N,10509.2028,W,0.10,159.33,250523,,,D,V*1A\r\n
$GNGGA,160633.000,3947.6542,N,10509.2028,W,2,16,0.77,1712.9,M,-20.8,M,,*77\r\n
$GNGSA,A,3,19,17,06,14,13,,,,,,,,1.02,0.77,0.66,1*0D\r\n
$GNGSA,A,3,82,80,81,83,73,78,,,,,,,1.02,0.77,0.66,2*0A\r\n
$GNRMC,160633.000,A,3947.6542,N,10509.2028,W,0.33,159.33,250523,,,D,V*1B\r\n
$GNGGA,160634.000,3947.6543,N,10509.2027,W,2,16,0.77,1712.9,M,-20.8,M,,*7E\r\n
$GNGSA,A,3,19,17,06,14,13,,,,,,,,1.02,0.77,0.66,1*0D\r\n
$GNGSA,A,3,82,80,81,83,73,78,,,,,,,1.02,0.77,0.66,2*0A\r\n
$GNRMC,160634.000,A,3947.6543,N,10509.2027,W,0.46,159.33,250523,,,D,V*10\r\n
$GNGGA,160635.000,3947.6542,N,10509.2027,W,2,16,0.77,1712.9,M,-20.8,M,,*7E\r\n
$GNGSA,A,3,19,17,06,14,13,,,,,,,,1.02,0.77,0.66,1*0D\r\n
$GNGSA,A,3,82,80,81,83,73,78,,,,,,,1.02,0.77,0.66,2*0A\r\n
$GPGSV,3,1,12,19,76,339,23,17,57,041,24,06,55,169,27,46,37,214,29,1*64\r\n
$GPGSV,3,2,12,14,37,106,13,24,37,297,16,11,17,196,18,03,13,068,13,1*67\r\n
$GPGSV,3,3,12,12,09,300,,01,06,035,,13,05,222,15,30,04,161,19,1*67\r\n
$GNRMC,160635.000,A,3947.6542,N,10509.2027,W,0.30,159.33,250523,,,D,V*11\r\n
$GNGGA,160636.000,3947.6542,N,10509.2026,W,2,16,0.77,1712.9,M,-20.8,M,,*7C\r\n
$GNGSA,A,3,19,17,06,14,13,,,,,,,,1.02,0.77,0.66,1*0D\r\n
$GNGSA,A,3,82,80,81,83,73,78,,,,,,,1.02,0.77,0.66,2*0A\r\n
$GNRMC,160636.000,A,3947.6542,N,10509.2026,W,0.27,159.33,250523,,,D,V*15\r\n
$GNGGA,160637.000,3947.6542,N,10509.2026,W,2,16,0.77,1712.9,M,-20.8,M,,*7D\r\n
$GNGSA,A,3,19,17,06,14,13,,,,,,,,1.02,0.77,0.66,1*0D\r\n
$GNGSA,A,3,82,80,81,83,73,78,,,,,,,1.02,0.77,0.66,2*0A\r\n
$GNRMC,160637.000,A,3947.6542,N,10509.2026,W,0.37,159.33,250523,,,D,V*15\r\n
$GNGGA,160638.000,3947.6542,N,10509.2027,W,2,16,0.77,1713.0,M,-20.8,M,,*7B\r\n
$GNGSA,A,3,19,17,06,14,13,,,,,,,,1.02,0.77,0.66,1*0D\r\n
$GNGSA,A,3,82,80,81,83,73,78,,,,,,,1.02,0.77,0.66,2*0A\r\n
$GNRMC,160638.000,A,3947.6542,N,10509.2027,W,0.19,159.33,250523,,,D,V*17\r\n
$PAIR010,0,0,2263,403616*38\r\n
$GNGGA,160639.000,3947.6543,N,10509.2027,W,2,16,0.77,1713.0,M,-20.8,M,,*7B\r\n
$GNGSA,A,3,19,06,17,14,13,,,,,,,,1.02,0.77,0.66,1*0D\r\n
$GNGSA,A,3,82,80,81,83,73,78,,,,,,,1.02,0.77,0.66,2*0A\r\n
$GNRMC,160639.000,A,3947.6543,N,10509.2027,W,0.14,159.33,250523,,,D,V*1A\r\n
$GNGGA,160640.000,3947.6542,N,10509.2026,W,2,16,0.77,1713.0,M,-20.8,M,,*75\r\n
$GNGSA,A,3,19,06,17,14,13,,,,,,,,1.02,0.77,0.66,1*0D\r\n
$GNGSA,A,3,82,80,81,83,73,78,,,,,,,1.02,0.77,0.66,2*0A\r\n
$GPGSV,3,1,12,19,76,339,23,06,57,168,27,17,57,041,23,46,37,214,29,1*60\r\n
$GPGSV,3,2,12,14,37,106,14,24,37,297,16,11,17,196,18,03,13,067,13,1*6F\r\n
$GPGSV,3,3,12,12,09,300,,01,06,035,,13,05,222,15,30,04,161,19,1*67\r\n
$GNRMC,160640.000,A,3947.6542,N,10509.2026,W,0.15,159.33,250523,,,D,V*15\r\n
$GNGGA,160641.000,3947.6542,N,10509.2027,W,2,16,0.77,1713.0,M,-20.8,M,,*75\r\n
$GNGSA,A,3,19,06,17,14,13,,,,,,,,1.02,0.77,0.66,1*0D\r\n
$GNGSA,A,3,82,80,81,83,73,78,,,,,,,1.02,0.77,0.66,2*0A\r\n
$GNRMC,160641.000,A,3947.6542,N,10509.2027,W,0.56,159.33,250523,,,D,V*12\r\n
$GNGGA,160642.000,3947.6542,N,10509.2027,W,2,16,0.77,1713.0,M,-20.8,M,,*76\r\n
$GNGSA,A,3,19,06,17,14,13,,,,,,,,1.02,0.77,0.66,1*0D\r\n
$GNGSA,A,3,82,80,81,83,73,78,,,,,,,1.02,0.77,0.66,2*0A\r\n
$GNRMC,160642.000,A,3947.6542,N,10509.2027,W,0.17,159.33,250523,,,D,V*14\r\n
$GNGGA,160643.000,3947.6542,N,10509.2028,W,2,16,0.77,1713.0,M,-20.8,M,,*78\r\n
$GNGSA,A,3,19,06,17,14,13,,,,,,,,1.02,0.77,0.66,1*0D\r\n
$GNGSA,A,3,82,80,81,83,73,78,,,,,,,1.02,0.77,0.66,2*0A\r\n
$GNRMC,160643.000,A,3947.6542,N,10509.2028,W,0.24,159.33,250523,,,D,V*1A\r\n
$GNGGA,160644.000,3947.6542,N,10509.2028,W,2,16,0.77,1713.0,M,-20.8,M,,*7F\r\n
$GNGSA,A,3,19,06,17,14,13,,,,,,,,1.02,0.77,0.66,1*0D\r\n
$GNGSA,A,3,82,80,81,83,73,78,,,,,,,1.02,0.77,0.66,2*0A\r\n
$GNRMC,160644.000,A,3947.6542,N,10509.2028,W,0.35,159.33,250523,,,D,V*1D\r\n
$GNGGA,160645.000,3947.6542,N,10509.2028,W,2,16,0.77,1713.0,M,-20.8,M,,*7E\r\n
$GNGSA,A,3,19,06,17,14,13,,,,,,,,1.02,0.77,0.66,1*0D\r\n
$GNGSA,A,3,82,80,81,83,73,78,,,,,,,1.02,0.77,0.66,2*0A\r\n
$GPGSV,3,1,12,19,76,339,22,06,57,168,27,17,57,041,23,46,37,214,29,1*61\r\n
$GPGSV,3,2,12,14,37,106,12,24,37,297,15,11,18,197,19,03,13,067,13,1*65\r\n
$GPGSV,3,3,12,12,10,300,,01,06,035,,13,05,222,13,30,04,161,20,1*63\r\n
$GNRMC,160645.000,A,3947.6542,N,10509.2028,W,0.30,159.33,250523,,,D,V*19\r\n
$GNGGA,160646.000,3947.6541,N,10509.2027,W,2,16,0.77,1713.0,M,-20.8,M,,*71\r\n
$GNGSA,A,3,19,06,17,14,13,,,,,,,,1.02,0.77,0.66,1*0D\r\n
$GNGSA,A,3,82,80,81,83,73,78,,,,,,,1.02,0.77,0.66,2*0A\r\n
$GNRMC,160646.000,A,3947.6541,N,10509.2027,W,0.22,159.33,250523,,,D,V*15\r\n
$GNGGA,160647.000,3947.6541,N,10509.2027,W,2,15,0.81,1713.0,M,-20.8,M,,*7A\r\n
$GNGSA,A,3,19,06,17,14,,,,,,,,,1.07,0.81,0.70,1*04\r\n
$GNGSA,A,3,82,80,81,83,73,78,,,,,,,1.07,0.81,0.70,2*01\r\n
$GNRMC,160647.000,A,3947.6541,N,10509.2027,W,0.17,159.33,250523,,,D,V*12\r\n
$GNGGA,160648.000,3947.6542,N,10509.2027,W,2,15,0.81,1713.0,M,-20.8,M,,*76\r\n
$GNGSA,A,3,19,06,17,14,,,,,,,,,1.07,0.81,0.70,1*04\r\n
$GNGSA,A,3,82,80,81,83,73,78,,,,,,,1.07,0.81,0.70,2*01\r\n
$GNRMC,160648.000,A,3947.6542,N,10509.2027,W,0.69,257.66,250523,,,D,V*1A\r\n
$GNGGA,160649.000,3947.6541,N,10509.2027,W,2,15,0.81,1713.0,M,-20.8,M,,*74\r\n
$GNGSA,A,3,19,06,17,14,,,,,,,,,1.07,0.81,0.70,1*04\r\n
$GNGSA,A,3,82,80,81,83,73,78,,,,,,,1.07,0.81,0.70,2*01\r\n
$GNRMC,160649.000,A,3947.6541,N,10509.2027,W,0.20,257.66,250523,,,D,V*15\r\n
$GNGGA,160650.000,3947.6542,N,10509.2028,W,2,15,0.81,1713.0,M,-20.8,M,,*70\r\n
$GNGSA,A,3,19,06,17,14,,,,,,,,,1.07,0.81,0.70,1*04\r\n
$GNGSA,A,3,82,80,81,83,73,78,,,,,,,1.07,0.81,0.70,2*01\r\n
$GPGSV,3,1,12,19,76,339,22,06,57,168,28,17,56,042,23,46,37,214,29,1*6C\r\n
$GPGSV,3,2,12,24,37,297,16,14,36,107,12,11,18,197,19,03,13,067,14,1*61\r\n
$GPGSV,3,3,12,12,10,300,,01,06,035,,30,04,161,20,13,04,221,13,1*61\r\n
$GNRMC,160650.000,A,3947.6542,N,10509.2028,W,0.19,257.66,250523,,,D,V*1B\r\n
$GNGGA,160651.000,3947.6542,N,10509.2028,W,2,14,0.88,1713.1,M,-20.8,M,,*78\r\n
$GNGSA,A,3,19,06,17,,,,,,,,,,1.13,0.88,0.71,1*0C\r\n
$GNGSA,A,3,82,80,81,83,73,78,,,,,,,1.13,0.88,0.71,2*0C\r\n
$GNRMC,160651.000,A,3947.6542,N,10509.2028,W,0.45,257.66,250523,,,D,V*13\r\n
$GNGGA,160652.000,3947.6541,N,10509.2028,W,2,14,0.88,1713.1,M,-20.8,M,,*78\r\n
$GNGSA,A,3,19,06,17,,,,,,,,,,1.13,0.88,0.71,1*0C\r\n
$GNGSA,A,3,82,80,81,83,73,78,,,,,,,1.13,0.88,0.71,2*0C\r\n
$GNRMC,160652.000,A,3947.6541,N,10509.2028,W,0.24,257.66,250523,,,D,V*14\r\n
$GNGGA,160653.000,3947.6541,N,10509.2028,W,2,14,0.88,1713.1,M,-20.8,M,,*79\r\n
$GNGSA,A,3,19,06,17,,,,,,,,,,1.13,0.88,0.71,1*0C\r\n
$GNGSA,A,3,82,80,81,83,73,78,,,,,,,1.13,0.88,0.71,2*0C\r\n
$GNRMC,160653.000,A,3947.6541,N,10509.2028,W,0.15,257.66,250523,,,D,V*17\r\n
$GNGGA,160654.000,3947.6541,N,10509.2028,W,2,14,0.88,1713.0,M,-20.8,M,,*7F\r\n
