$GPGGA,144944.000,3947.6572,N,10509.2033,W,1,6,1.52,1676.5,M,-20.8,M,,0000*52\r\n
$GPGSA,A,3,17,14,19,30,13,07,,,,,,,1.78,1.52,0.93*0D\r\n
$GPGSV,3,1,12,17,84,275,24,14,63,060,20,19,56,233,29,30,40,157,18*7F\r\n
$GPGSV,3,2,12,46,37,214,30,01,33,057,13,13,30,249,21,06,17,177,21*77\r\n
$GPGSV,3,3,12,15,15,279,,21,13,039,16,24,11,318,,07,10,148,16*7A\r\n
$GPRMC,144944.000,A,3947.6572,N,10509.2033,W,0.19,169.81,240523,,,A*79\r\n
$PAIR001,020,0*39\r\n
$PAIR020,AG3335M_V1.7.0,F-GPS-0Q-2207061,_20220706,S,I,94abe0b,2203031104,a2a9,0,,,08866a51,2203031047,f10bac8,2203031101,,*31\r\n
$GPGGA,144945.000,3947.6574,N,10509.2033,W,1,6,1.52,1676.5,M,-20.8,M,,0000*55\r\n
$GPGSA,A,3,17,14,19,30,13,07,,,,,,,1.78,1.52,0.93*0D\r\n
$GPRMC,144945.000,A,3947.6574,N,10509.2033,W,0.15,169.81,240523,,,A*72\r\n
$GPGGA,144946.000,3947.6575,N,10509.2031,W,1,6,1.52,1676.6,M,-20.8,M,,0000*56\r\n
$GPGSA,A,3,17,14,19,30,13,07,,,,,,,1.78,1.52,0.93*0D\r\n
$GPRMC,144946.000,A,3947.6575,N,10509.2031,W,0.40,169.81,240523,,,A*72\r\n
$GPGGA,144947.000,3947.6577,N,10509.2028,W,1,6,1.52,1676.6,M,-20.8,M,,0000*5D\r\n
$GPGSA,A,3,17,14,19,30,13,07,,,,,,,1.78,1.52,0.93*0D\r\n
$GPRMC,144947.000,A,3947.6577,N,10509.2028,W,0.40,169.81,240523,,,A*79\r\n
$GPGGA,144948.000,3947.6582,N,10509.2029,W,1,6,1.52,1676.6,M,-20.8,M,,0000*59\r\n
$GPGSA,A,3,17,14,19,30,13,07,,,,,,,1.78,1.52,0.93*0D\r\n
$GPRMC,144948.000,A,3947.6582,N,10509.2029,W,0.44,169.81,240523,,,A*79\r\n
$GPGGA,144949.000,3947.6584,N,10509.2029,W,1,6,1.52,1676.6,M,-20.8,M,,0000*5E\r\n
$GPGSA,A,3,17,14,19,30,13,07,,,,,,,1.78,1.52,0.93*0D\r\n
$GPGSV,3,1,12,17,84,275,24,14,63,060,20,19,56,233,28,30,40,157,19*7F\r\n
$GPGSV,3,2,12,46,37,214,29,01,33,057,,13,30,249,22,06,17,177,21*7E\r\n
$GPGSV,3,3,12,15,15,279,,21,13,039,16,24,11,318,,07,10,148,15*79\r\n
$GPRMC,144949.000,A,3947.6584,N,10509.2029,W,0.40,169.81,240523,,,A*7A\r\n
$GPGGA,144950.000,3947.6586,N,10509.2028,W,1,6,1.52,1676.7,M,-20.8,M,,0000*54\r\n
$GPGSA,A,3,17,14,19,30,13,07,,,,,,,1.78,1.52,0.93*0D\r\n
$GPRMC,144950.000,A,3947.6586,N,10509.2028,W,0.31,169.81,240523,,,A*77\r\n
$GPGGA,144951.000,3947.6585,N,10509.2030,W,1,6,1.52,1676.6,M,-20.8,M,,0000*5E\r\n
$GPGSA,A,3,17,14,19,30,13,07,,,,,,,1.78,1.52,0.93*0D\r\n
$GPRMC,144951.000,A,3947.6585,N,10509.2030,W,0.48,169.81,240523,,,A*72\r\n
$GPGGA,144952.000,3947.6586,N,10509.2030,W,1,6,1.52,1676.7,M,-20.8,M,,0000*5F\r\n
$GPGSA,A,3,17,14,19,30,13,07,,,,,,,1.78,1.52,0.93*0D\r\n
$GPRMC,144952.000,A,3947.6586,N,10509.2030,W,0.31,169.81,240523,,,A*7C\r\n
$GPGGA,144953.000,3947.6584,N,10509.2031,W,1,6,1.52,1676.7,M,-20.8,M,,0000*5D\r\n
$GPGSA,A,3,17,14,19,30,13,07,,,,,,,1.78,1.52,0.93*0D\r\n
$GPRMC,144953.000,A,3947.6584,N,10509.2031,W,0.42,169.81,240523,,,A*7A\r\n
$GPGGA,144954.000,3947.6586,N,10509.2030,W,1,6,1.52,1676.7,M,-20.8,M,,0000*59\r\n
$GPGSA,A,3,17,14,19,30,13,07,,,,,,,1.78,1.52,0.93*0D\r\n
$GPGSV,3,1,12,17,84,275,24,14,63,060,20,19,56,233,28,30,40,157,19*7F\r\n
$GPGSV,3,2,12,46,37,214,28,01,33,057,,13,30,249,23,06,17,177,21*7E\r\n
$GPGSV,3,3,12,15,15,279,,21,13,039,14,24,11,318,,07,10,148,16*78\r\n
$GPRMC,144954.000,A,3947.6586,N,10509.2030,W,0.36,169.81,240523,,,A*7D\r\n
$GPGGA,144955.000,3947.6584,N,10509.2030,W,1,6,1.52,1676.8,M,-20.8,M,,0000*55\r\n
$GPGSA,A,3,17,14,19,30,13,07,,,,,,,1.78,1.52,0.93*0D\r\n
$GPRMC,144955.000,A,3947.6584,N,10509.2030,W,0.56,169.81,240523,,,A*78\r\n
$GPGGA,144956.000,3947.6586,N,10509.2030,W,1,6,1.52,1676.8,M,-20.8,M,,0000*54\r\n
$GPGSA,A,3,17,14,19,30,13,07,,,,,,,1.78,1.52,0.93*0D\r\n
$GPRMC,144956.000,A,3947.6586,N,10509.2030,W,0.12,169.81,240523,,,A*79\r\n
$GPGGA,144957.000,3947.6583,N,10509.2030,W,1,6,1.52,1676.8,M,-20.8,M,,0000*50\r\n
$GPGSA,A,3,17,14,19,30,13,07,,,,,,,1.78,1.52,0.93*0D\r\n
$GPRMC,144957.000,A,3947.6583,N,10509.2030,W,0.99,175.58,240523,,,A*77\r\n
$GPGGA,144958.000,3947.6585,N,10509.2030,W,1,6,1.52,1676.9,M,-20.8,M,,0000*58\r\n
$GPGSA,A,3,17,14,19,30,13,07,,,,,,,1.78,1.52,0.93*0D\r\n
$GPRMC,144958.000,A,3947.6585,N,10509.2030,W,0.35,175.58,240523,,,A*78\r\n
$GPGGA,144959.000,3947.6582,N,10509.2029,W,1,6,1.52,1676.9,M,-20.8,M,,0000*56\r\n
$GPGSA,A,3,17,14,19,30,13,07,,,,,,,1.78,1.52,0.93*0D\r\n
$GPGSV,3,1,12,17,84,275,24,14,63,060,19,19,56,233,28,30,40,157,19*75\r\n
$GPGSV,3,2,12,48,35,219,30,01,33,057,,13,30,249,23,06,17,177,21*76\r\n
$GPGSV,3,3,12,15,15,279,,21,13,039,15,24,11,318,,07,10,148,16*79\r\n
$GPRMC,144959.000,A,3947.6582,N,10509.2029,W,0.56,175.58,240523,,,A*73\r\n
$GPGGA,145000.000,3947.6585,N,10509.2030,W,1,6,1.52,1677.0,M,-20.8,M,,0000*55\r\n
$GPGSA,A,3,17,14,19,30,13,07,,,,,,,1.78,1.52,0.93*0D\r\n
$GPRMC,145000.000,A,3947.6585,N,10509.2030,W,1.06,7.76,240523,,,A*74\r\n
$GPGGA,145001.000,3947.6582,N,10509.2028,W,1,6,1.52,1677.0,M,-20.8,M,,0000*5A\r\n
$GPGSA,A,3,17,14,19,30,13,07,,,,,,,1.78,1.52,0.93*0D\r\n
$GPRMC,145001.000,A,3947.6582,N,10509.2028,W,0.66,128.09,240523,,,A*78\r\n
$GPGGA,145002.000,3947.6583,N,10509.2028,W,1,6,1.52,1677.1,M,-20.8,M,,0000*59\r\n
$GPGSA,A,3,17,14,19,30,13,07,,,,,,,1.78,1.52,0.93*0D\r\n
$GPRMC,145002.000,A,3947.6583,N,10509.2028,W,0.26,128.09,240523,,,A*7E\r\n
$GPGGA,145003.000,3947.6584,N,10509.2030,W,1,6,1.52,1677.1,M,-20.8,M,,0000*56\r\n
$GPGSA,A,3,17,14,19,30,13,07,,,,,,,1.78,1.52,0.93*0D\r\n
$GPRMC,145003.000,A,3947.6584,N,10509.2030,W,0.63,310.94,240523,,,A*7D\r\n
$GPGGA,145004.000,3947.6586,N,10509.2031,W,1,6,1.52,1677.1,M,-20.8,M,,0000*52\r\n
$GPGSA,A,3,17,14,19,30,13,07,,,,,,,1.78,1.52,0.93*0D\r\n
$GPGSV,3,1,12,17,84,275,24,14,63,060,19,19,56,233,28,30,40,157,20*7F\r\n
$GPGSV,3,2,12,48,35,219,30,01,33,057,,13,30,249,23,06,17,177,20*77\r\n
$GPGSV,3,3,12,15,15,279,,21,13,039,15,24,11,318,,07,10,148,16*79\r\n
$GPRMC,145004.000,A,3947.6586,N,10509.2031,W,0.66,339.87,240523,,,A*75\r\n
$GPGGA,145005.000,3947.6586,N,10509.2029,W,1,6,1.52,1677.2,M,-20.8,M,,0000*59\r\n
$GPGSA,A,3,17,14,19,30,13,07,,,,,,,1.78,1.52,0.93*0D\r\n
$GPRMC,145005.000,A,3947.6586,N,10509.2029,W,0.34,339.87,240523,,,A*7A\r\n
$GPGGA,145006.000,3947.6590,N,10509.2032,W,1,6,1.52,1677.2,M,-20.8,M,,0000*57\r\n
$GPGSA,A,3,17,14,19,30,13,07,,,,,,,1.78,1.52,0.93*0D\r\n
$GPRMC,145006.000,A,3947.6590,N,10509.2032,W,1.22,334.60,240523,,,A*76\r\n
$GPGGA,145007.000,3947.6592,N,10509.2034,W,1,6,1.52,1677.2,M,-20.8,M,,0000*52\r\n
$GPGSA,A,3,17,14,19,30,13,07,,,,,,,1.78,1.52,0.93*0D\r\n
$GPRMC,145007.000,A,3947.6592,N,10509.2034,W,1.19,310.96,240523,,,A*74\r\n
$GPGGA,145008.000,3947.6594,N,10509.2036,W,1,6,1.52,1677.3,M,-20.8,M,,0000*58\r\n
$GPGSA,A,3,17,14,19,30,13,07,,,,,,,1.78,1.52,0.93*0D\r\n
$GPRMC,145008.000,A,3947.6594,N,10509.2036,W,0.83,312.95,240523,,,A*7C\r\n
$GPGGA,145009.000,3947.6596,N,10509.2036,W,1,6,1.52,1677.3,M,-20.8,M,,0000*5B\r\n
$GPGSA,A,3,17,14,19,30,13,07,,,,,,,1.78,1.52,0.93*0D\r\n
$GPGSV,3,1,12,17,84,275,24,14,63,060,19,19,56,233,28,30,40,157,20*7F\r\n
$GPGSV,3,2,12,48,35,219,28,01,33,057,,13,30,249,23,06,17,177,20*7E\r\n
$GPGSV,3,3,12,15,15,279,,21,13,039,15,24,11,318,,07,10,148,16*79\r\n
$GPRMC,145009.000,A,3947.6596,N,10509.2036,W,0.87,338.80,240523,,,A*77\r\n
$GPGGA,145010.000,3947.6600,N,10509.2036,W,1,6,1.52,1677.4,M,-20.8,M,,0000*58\r\n
$GPGSA,A,3,17,14,19,30,13,07,,,,,,,1.78,1.52,0.93*0D\r\n
$GPRMC,145010.000,A,3947.6600,N,10509.2036,W,1.14,343.82,240523,,,A*76\r\n
$GPGGA,145011.000,3947.6601,N,10509.2035,W,1,6,1.52,1677.4,M,-20.8,M,,0000*5B\r\n
$GPGSA,A,3,17,14,19,30,13,07,,,,,,,1.78,1.52,0.93*0D\r\n
$GPRMC,145011.000,A,3947.6601,N,10509.2035,W,0.81,1.54,240523,,,A*76\r\n
$GPGGA,145012.000,3947.6601,N,10509.2035,W,1,6,1.52,1677.5,M,-20.8,M,,0000*59\r\n
$GPGSA,A,3,17,14,19,30,13,07,,,,,,,1.78,1.52,0.93*0D\r\n
$GPRMC,145012.000,A,3947.6601,N,10509.2035,W,0.31,1.54,240523,,,A*7E\r\n
$GPGGA,145013.000,3947.6602,N,10509.2037,W,1,6,1.52,1677.5,M,-20.8,M,,0000*59\r\n
$GPGSA,A,3,17,14,19,30,13,07,,,,,,,1.78,1.52,0.93*0D\r\n
$GPRMC,145013.000,A,3947.6602,N,10509.2037,W,0.98,276.72,240523,,,A*7B\r\n
$GPGGA,145014.000,3947.6603,N,10509.2036,W,1,6,1.52,1677.6,M,-20.8,M,,0000*5D\r\n
$GPGSA,A,3,17,14,19,30,13,07,,,,,,,1.78,1.52,0.93*0D\r\n
$GPGSV,3,1,12,17,84,275,25,14,63,060,19,19,56,233,28,30,40,157,20*7E\r\n
$GPGSV,3,2,12,01,33,057,,13,30,249,23,06,17,177,20,15,15,279,*78\r\n
$GPGSV,3,3,12,21,13,039,16,24,11,318,16,07,10,148,16,33,,,*41\r\n
$GPRMC,145014.000,A,3947.6603,N,10509.2036,W,0.42,276.72,240523,,,A*7B\r\n
$GPGGA,145015.000,3947.6602,N,10509.2034,W,1,6,1.52,1677.7,M,-20.8,M,,0000*5E\r\n
$GPGSA,A,3,17,14,19,30,13,07,,,,,,,1.78,1.52,0.93*0D\r\n
$GPRMC,145015.000,A,3947.6602,N,10509.2034,W,0.10,276.72,240523,,,A*7E\r\n
$GPGGA,145016.000,3947.6604,N,10509.2033,W,1,6,1.52,1677.7,M,-20.8,M,,0000*5C\r\n
$GPGSA,A,3,17,14,19,30,13,07,,,,,,,1.78,1.52,0.93*0D\r\n
$GPRMC,145016.000,A,3947.6604,N,10509.2033,W,0.13,276.72,240523,,,A*7F\r\n
$GPGGA,145017.000,3947.6606,N,10509.2030,W,1,6,1.52,1677.7,M,-20.8,M,,0000*5C\r\n
$GPGSA,A,3,17,14,19,30,13,07,,,,,,,1.78,1.52,0.93*0D\r\n
$GPRMC,145017.000,A,3947.6606,N,10509.2030,W,0.26,276.72,240523,,,A*79\r\n
$GPGGA,145018.000,3947.6605,N,10509.2033,W,1,6,1.52,1677.7,M,-20.8,M,,0000*53\r\n
$GPGSA,A,3,17,14,19,30,13,07,,,,,,,1.78,1.52,0.93*0D\r\n
$GPRMC,145018.000,A,3947.6605,N,10509.2033,W,0.29,276.72,240523,,,A*79\r\n
$GPGGA,145019.000,3947.6606,N,10509.2030,W,1,6,1.52,1677.7,M,-20.8,M,,0000*52\r\n
$GPGSA,A,3,17,14,19,30,13,07,,,,,,,1.78,1.52,0.93*0D\r\n
$GPGSV,3,1,12,17,84,275,24,14,63,060,18,19,56,233,28,30,40,157,20*7E\r\n
$GPGSV,3,2,12,01,33,057,,13,30,249,23,06,17,177,20,15,15,279,*78\r\n
$GPGSV,3,3,12,21,13,039,15,24,11,318,,07,10,148,15,33,,,*46\r\n
$GPRMC,145019.000,A,3947.6606,N,10509.2030,W,0.59,60.83,240523,,,A*44\r\n
$GPGGA,145020.000,3947.6605,N,10509.2031,W,1,6,1.52,1677.7,M,-20.8,M,,0000*5A\r\n
$GPGSA,A,3,17,14,19,30,13,07,,,,,,,1.78,1.52,0.93*0D\r\n
$GPRMC,145020.000,A,3947.6605,N,10509.2031,W,0.31,60.83,240523,,,A*42\r\n
$PAIR010,0,0,2263,312638*33\r\n
$GPGGA,145021.000,3947.6605,N,10509.2030,W,1,6,1.52,1677.8,M,-20.8,M,,0000*55\r\n
$GPGSA,A,3,17,14,19,30,13,07,,,,,,,1.78,1.52,0.93*0D\r\n
$GPRMC,145021.000,A,3947.6605,N,10509.2030,W,0.34,60.83,240523,,,A*47\r\n
$GPGGA,145022.000,3947.6604,N,10509.2030,W,1,6,1.52,1677.7,M,-20.8,M,,0000*58\r\n
$GPGSA,A,3,17,14,19,30,13,07,,,,,,,1.78,1.52,0.93*0D\r\n
$GPRMC,145022.000,A,3947.6604,N,10509.2030,W,0.12,60.83,240523,,,A*41\r\n
$GPGGA,145023.000,3947.6605,N,10509.2029,W,1,6,1.52,1677.7,M,-20.8,M,,0000*50\r\n
$GPGSA,A,3,17,14,19,30,13,07,,,,,,,1.78,1.52,0.93*0D\r\n
$GPRMC,145023.000,A,3947.6605,N,10509.2029,W,0.18,60.83,240523,,,A*43\r\n
$GPGGA,145024.000,3947.6604,N,10509.2028,W,1,6,1.52,1677.7,M,-20.8,M,,0000*57\r\n
$GPGSA,A,3,17,14,19,30,13,07,,,,,,,1.78,1.52,0.93*0D\r\n
$GPGSV,3,1,12,17,84,275,24,14,63,060,18,19,56,233,28,30,40,157,20*7E\r\n
$GPGSV,3,2,12,01,33,057,,13,30,249,23,06,17,177,20,15,15,279,*78\r\n
$GPGSV,3,3,12,21,13,039,15,24,11,318,,07,10,148,15,34,,,*41\r\n
$GPRMC,145024.000,A,3947.6604,N,10509.2028,W,0.29,60.83,240523,,,A*46\r\n
$GPGGA,145025.000,3947.6605,N,10509.2028,W,1,6,1.52,1677.7,M,-20.8,M,,0000*57\r\n
$GPGSA,A,3,17,14,19,30,13,07,,,,,,,1.78,1.52,0.93*0D\r\n
$GPRMC,145025.000,A,3947.6605,N,10509.2028,W,0.61,85.94,240523,,,A*47\r\n
$GPGGA,145026.000,3947.6604,N,10509.2027,W,1,6,1.52,1677.7,M,-20.8,M,,0000*5A\r\n
$GPGSA,A,3,17,14,19,30,13,07,,,,,,,1.78,1.52,0.93*0D\r\n
$GPRMC,145026.000,A,3947.6604,N,10509.2027,W,0.91,106.45,240523,,,A*73\r\n
$GPGGA,145027.000,3947.6604,N,10509.2024,W,1,6,1.52,1677.6,M,-20.8,M,,0000*59\r\n
$GPGSA,A,3,17,14,19,30,13,07,,,,,,,1.78,1.52,0.93*0D\r\n
$GPRMC,145027.000,A,3947.6604,N,10509.2024,W,0.91,108.63,240523,,,A*7B\r\n
$GPGGA,145028.000,3947.6605,N,10509.2022,W,1,6,1.52,1677.7,M,-20.8,M,,0000*50\r\n
$GPGSA,A,3,17,14,19,30,13,07,,,,,,,1.78,1.52,0.93*0D\r\n
$GPRMC,145028.000,A,3947.6605,N,10509.2022,W,0.64,56.96,240523,,,A*49\r\n
$GPGGA,145029.000,3947.6606,N,10509.2022,W,1,6,1.52,1677.6,M,-20.8,M,,0000*53\r\n
$GPGSA,A,3,17,14,19,30,13,07,,,,,,,1.78,1.52,0.93*0D\r\n
$GPGSV,3,1,12,17,84,275,24,14,63,060,19,19,56,233,28,30,40,157,22*7D\r\n
$GPGSV,3,2,12,01,32,056,,13,30,249,23,06,17,177,20,15,15,279,*78\r\n
$GPGSV,3,3,12,21,13,039,16,24,11,318,,07,10,148,15,37,,,*41\r\n
$GPRMC,145029.000,A,3947.6606,N,10509.2022,W,0.30,56.96,240523,,,A*4A\r\n
$GPGGA,145030.000,3947.6607,N,10509.2024,W,1,6,1.52,1677.7,M,-20.8,M,,0000*5D\r\n
$GPGSA,A,3,17,14,19,30,13,07,,,,,,,1.78,1.52,0.93*0D\r\n
$GPRMC,145030.000,A,3947.6607,N,10509.2024,W,0.61,284.83,240523,,,A*78\r\n
$GPGGA,145031.000,3947.6608,N,10509.2025,W,1,6,1.52,1677.7,M,-20.8,M,,0000*52\r\n
$GPGSA,A,3,17,14,19,30,13,07,,,,,,,1.78,1.52,0.93*0D\r\n
$GPRMC,145031.000,A,3947.6608,N,10509.2025,W,0.66,300.98,240523,,,A*77\r\n
$GPGGA,145032.000,3947.6609,N,10509.2027,W,1,6,1.52,1677.7,M,-20.8,M,,0000*52\r\n
$GPGSA,A,3,17,14,19,30,13,07,,,,,,,1.78,1.52,0.93*0D\r\n
$GPRMC,145032.000,A,3947.6609,N,10509.2027,W,0.68,294.59,240523,,,A*78\r\n
$GPGGA,145033.000,3947.6609,N,10509.2028,W,1,6,1.52,1677.7,M,-20.8,M,,0000*5C\r\n
$GPGSA,A,3,17,14,19,30,13,07,,,,,,,1.78,1.52,0.93*0D\r\n
$GPRMC,145033.000,A,3947.6609,N,10509.2028,W,0.47,294.59,240523,,,A*7B\r\n
$GPGGA,145034.000,3947.6609,N,10509.2027,W,1,6,1.52,1677.7,M,-20.8,M,,0000*54\r\n
$GPGSA,A,3,17,14,19,30,13,07,,,,,,,1.78,1.52,0.93*0D\r\n
$GPGSV,3,1,12,17,84,275,23,14,63,060,19,19,56,233,27,30,40,157,21*76\r\n
$GPGSV,3,2,12,01,32,056,,13,30,249,23,06,18,177,20,15,15,279,*77\r\n
$GPGSV,3,3,12,21,13,039,15,24,11,318,,07,09,148,15,42,,,*48\r\n
$GPRMC,145034.000,A,3947.6609,N,10509.2027,W,0.24,294.59,240523,,,A*76\r\n
$GPGGA,145035.000,3947.6606,N,10509.2024,W,1,6,1.52,1677.7,M,-20.8,M,,0000*59\r\n
$GPGSA,A,3,17,14,19,30,13,07,,,,,,,1.78,1.52,0.93*0D\r\n
$GPRMC,145035.000,A,3947.6606,N,10509.2024,W,0.67,165.64,240523,,,A*7F\r\n
$GPGGA,145036.000,3947.6607,N,10509.2023,W,1,6,1.52,1677.8,M,-20.8,M,,0000*53\r\n
$GPGSA,A,3,17,14,19,30,13,07,,,,,,,1.78,1.52,0.93*0D\r\n
$GPRMC,145036.000,A,3947.6607,N,10509.2023,W,0.61,165.64,240523,,,A*7C\r\n
$GPGGA,145037.000,3947.6606,N,10509.2024,W,1,6,1.52,1677.8,M,-20.8,M,,0000*54\r\n
$GPGSA,A,3,17,14,19,30,13,07,,,,,,,1.78,1.52,0.93*0D\r\n
$GPRMC,145037.000,A,3947.6606,N,10509.2024,W,0.41,165.64,240523,,,A*79\r\n
$GPGGA,145038.000,3947.6605,N,10509.2021,W,1,6,1.52,1677.8,M,-20.8,M,,0000*5D\r\n
$GPGSA,A,3,17,14,19,30,13,07,,,,,,,1.78,1.52,0.93*0D\r\n
$GPRMC,145038.000,A,3947.6605,N,10509.2021,W,0.44,165.64,240523,,,A*75\r\n
$GPGGA,145039.000,3947.6605,N,10509.2018,W,1,6,1.52,1677.8,M,-20.8,M,,0000*56\r\n
$GPGSA,A,3,17,14,19,30,13,07,,,,,,,1.78,1.52,0.93*0D\r\n
