$GNGSA,A,3,19,06,17,14,11,,,,,,,,1.13,0.82,0.78,1*0A
$GNGSA,A,3,82,80,83,81,73,,,,,,,,1.13,0.82,0.78,2*00
$GNRMC,163006.000,A,3947.6548,N,10509.2029,W,0.27,148.13,250523,,,D,V*14
$GNGGA,163007.000,3947.6548,N,10509.2029,W,2,17,0.82,1715.9,M,-20.8,M,,*72
$GNGSA,A,3,19,06,17,14,11,,,,,,,,1.13,0.82,0.78,1*0A
$GNGSA,A,3,82,80,83,81,73,,,,,,,,1.13,0.82,0.78,2*00
$GNRMC,163007.000,A,3947.6548,N,10509.2029,W,0.09,148.13,250523,,,D,V*19
$GNGGA,163008.000,3947.6548,N,10509.2029,W,2,17,0.82,1715.8,M,-20.8,M,,*7C
$GNGSA,A,3,19,06,17,14,11,,,,,,,,1.13,0.82,0.78,1*0A
$GNGSA,A,3,82,80,83,81,73,,,,,,,,1.13,0.82,0.78,2*00
$GNRMC,163008.000,A,3947.6548,N,10509.2029,W,0.10,148.13,250523,,,D,V*1E
$GNGGA,163009.000,3947.6548,N,10509.2030,W,2,17,0.82,1715.8,M,-20.8,M,,*75
$GNGSA,A,3,19,06,17,14,11,,,,,,,,1.13,0.82,0.78,1*0A
$GNGSA,A,3,82,80,83,81,73,,,,,,,,1.13,0.82,0.78,2*00
$GNRMC,163009.000,A,3947.6548,N,10509.2030,W,0.14,148.13,250523,,,D,V*13
$GNGGA,163010.000,3947.6549,N,10509.2031,W,2,17,0.82,1715.8,M,-20.8,M,,*7D
$GNGSA,A,3,19,06,17,14,11,,,,,,,,1.13,0.82,0.78,1*0A
$GNGSA,A,3,82,80,83,81,73,,,,,,,,1.13,0.82,0.78,2*00
$GPGSV,3,1,09,19,70,014,24,06,68,158,27,17,49,049,25,24,41,284,16,1*69
$GPGSV,3,2,09,46,37,214,28,14,29,115,16,11,27,198,28,12,18,305,18,1*61
$GPGSV,3,3,09,03,14,057,,1*59
$GNRMC,163010.000,A,3947.6549,N,10509.2031,W,0.19,148.13,250523,,,D,V*16
$GNGGA,163011.000,3947.6549,N,10509.2029,W,2,17,0.82,1715.8,M,-20.8,M,,*75
$GNGSA,A,3,19,06,17,14,11,,,,,,,,1.13,0.82,0.78,1*0A
$GNGSA,A,3,82,80,83,81,73,,,,,,,,1.13,0.82,0.78,2*00
$GNRMC,163011.000,A,3947.6549,N,10509.2029,W,0.13,148.13,250523,,,D,V*14
$GNGGA,163012.000,3947.6549,N,10509.2029,W,2,17,0.82,1715.9,M,-20.8,M,,*77
$GNGSA,A,3,19,06,17,14,11,,,,,,,,1.13,0.82,0.78,1*0A
$GNGSA,A,3,82,80,83,81,73,,,,,,,,1.13,0.82,0.78,2*00
$GNRMC,163012.000,A,3947.6549,N,10509.2029,W,0.10,148.13,250523,,,D,V*14
$GNGGA,163013.000,3947.6548,N,10509.2028,W,2,17,0.82,1715.9,M,-20.8,M,,*76
$GNGSA,A,3,19,06,17,14,11,,,,,,,,1.13,0.82,0.78,1*0A
$GNGSA,A,3,82,80,83,81,73,,,,,,,,1.13,0.82,0.78,2*00
$GNRMC,163013.000,A,3947.6548,N,10509.2028,W,0.07,148.13,250523,,,D,V*13
$GNGGA,163014.000,3947.6549,N,10509.2029,W,2,17,0.82,1715.9,M,-20.8,M,,*71
$GNGSA,A,3,19,06,17,14,11,,,,,,,,1.13,0.82,0.78,1*0A
$GNGSA,A,3,82,80,83,81,73,,,,,,,,1.13,0.82,0.78,2*00
$GNRMC,163014.000,A,3947.6549,N,10509.2029,W,0.62,144.47,250523,,,D,V*1A
$GNGGA,163015.000,3947.6548,N,10509.2028,W,2,17,0.82,1715.9,M,-20.8,M,,*70
$GNGSA,A,3,19,06,17,11,14,,,,,,,,1.13,0.82,0.78,1*0A
$GNGSA,A,3,82,80,83,81,73,,,,,,,,1.13,0.82,0.78,2*00
$GPGSV,3,1,09,19,70,014,24,06,68,158,27,17,49,049,26,24,41,284,16,1*6A
$GPGSV,3,2,09,46,37,214,28,11,28,198,28,14,28,116,16,12,19,305,18,1*6D
$GPGSV,3,3,09,03,14,057,,1*59
$GNRMC,163015.000,A,3947.6548,N,10509.2028,W,1.08,122.94,250523,,,D,V*18
$GNGGA,163016.000,3947.6547,N,10509.2025,W,2,17,0.82,1715.8,M,-20.8,M,,*70
$GNGSA,A,3,19,06,17,11,14,,,,,,,,1.13,0.82,0.78,1*0A
$GNGSA,A,3,82,80,83,81,73,,,,,,,,1.13,0.82,0.78,2*00
$GNRMC,163016.000,A,3947.6547,N,10509.2025,W,0.74,117.14,250523,,,D,V*1D
$GNGGA,163017.000,3947.6547,N,10509.2025,W,2,17,0.82,1715.8,M,-20.8,M,,*71
$GNGSA,A,3,19,06,17,11,14,,,,,,,,1.13,0.82,0.78,1*0A
$GNGSA,A,3,82,80,83,81,73,,,,,,,,1.13,0.82,0.78,2*00
$GNRMC,163017.000,A,3947.6547,N,10509.2025,W,0.47,117.14,250523,,,D,V*1C
$GNGGA,163018.000,3947.6546,N,10509.2025,W,2,17,0.82,1715.8,M,-20.8,M,,*7F
$GNGSA,A,3,19,06,17,11,14,,,,,,,,1.13,0.82,0.78,1*0A
$GNGSA,A,3,82,80,83,81,73,,,,,,,,1.13,0.82,0.78,2*00
$GNRMC,163018.000,A,3947.6546,N,10509.2025,W,0.42,117.14,250523,,,D,V*17
$GNGGA,163019.000,3947.6547,N,10509.2024,W,2,17,0.82,1715.8,M,-20.8,M,,*7E
$GNGSA,A,3,19,06,17,11,14,,,,,,,,1.13,0.82,0.78,1*0A
$GNGSA,A,3,82,80,83,81,73,,,,,,,,1.13,0.82,0.78,2*00
$GNRMC,163019.000,A,3947.6547,N,10509.2024,W,0.36,117.14,250523,,,D,V*15
$GNGGA,163020.000,3947.6546,N,10509.2023,W,2,17,0.82,1715.8,M,-20.8,M,,*72
$GNGSA,A,3,19,06,17,11,14,,,,,,,,1.13,0.82,0.78,1*0A
$GNGSA,A,3,82,80,83,81,73,,,,,,,,1.13,0.82,0.78,2*00
$GPGSV,3,1,09,19,69,017,24,06,68,158,26,17,48,050,26,24,41,284,16,1*69
$GPGSV,3,2,09,46,37,214,28,11,28,198,27,14,28,116,16,12,19,305,18,1*62
$GPGSV,3,3,09,03,14,057,,1*59
$GNRMC,163020.000,A,3947.6546,N,10509.2023,W,0.35,117.14,250523,,,D,V*1A
$GNGGA,163021.000,3947.6545,N,10509.2022,W,2,17,0.82,1715.8,M,-20.8,M,,*71
$GNGSA,A,3,19,06,17,11,14,,,,,,,,1.13,0.82,0.78,1*0A
$GNGSA,A,3,82,80,83,81,73,,,,,,,,1.13,0.82,0.78,2*00
$GNRMC,163021.000,A,3947.6545,N,10509.2022,W,0.36,117.14,250523,,,D,V*1A
