$GNRMC,141250.00,A,3947.65226,N,10509.20022,W,0.023,,190619,,,D*7E
$GNGGA,141250.00,3947.65226,N,10509.20022,W,2,12,0.58,1716.6,M,-21.5,M,,0000*41
$GNGSA,M,3,07,30,08,28,09,11,27,18,51,48,13,01,1.06,0.58,0.89*13
$GNGSA,M,3,78,87,88,77,68,69,79,67,81,,,,1.06,0.58,0.89*1C
$GPGSV,4,1,16,01,06,133,28,04,,,43,05,06,283,25,07,74,071,32*4A
$GPGSV,4,2,16,08,50,062,38,09,35,183,40,11,32,129,42,13,13,321,32*77
$GPGSV,4,3,16,17,03,201,21,18,15,111,24,23,04,162,41,27,17,041,24*73
$GPGSV,4,4,16,28,43,259,39,30,65,321,34,48,36,220,45,51,44,183,45*77
$GLGSV,3,1,10,67,07,202,24,68,33,251,29,69,27,310,29,77,34,068,11*6F
$GLGSV,3,2,10,78,57,351,33,79,21,294,24,81,09,169,38,86,03,017,*65
$GLGSV,3,3,10,87,41,064,23,88,39,130,40*61
$GNTXT,01,01,02,u-blox AG - www.u-blox.com*4E
$GNTXT,01,01,02,HW UBX-M8030 00080000*60
$GNTXT,01,01,02,ROM CORE 3.01 (107888)*2B
$GNTXT,01,01,02,FWVER=SPG 3.01*46
$GNTXT,01,01,02,PROTVER=18.00*11
$GNTXT,01,01,02,GPS;GLO;GAL;BDS*77
$GNTXT,01,01,02,SBAS;IMES;QZSS*49
$GNTXT,01,01,02,GNSS OTP=GPS;GLO*37
$GNTXT,01,01,02,LLC=FFFFFFFF-FFFF7CBF-FFED7FAA-FFFFFFFF-FFFFFFF9*52
$GNTXT,01,01,02,ANTSUPERV=AC SD PDoS SR*3E
$GNTXT,01,01,02,ANTSTATUS=OK*25
$GNTXT,01,01,02,PF=3FF*4B
$GNRMC,141251.00,A,3947.65230,N,10509.20019,W,0.032,,190619,,,D*70
$GNGGA,141251.00,3947.65230,N,10509.20019,W,2,12,0.58,1716.3,M,-21.5,M,,0000*4A
$GNGSA,M,3,07,30,08,28,09,11,27,18,51,48,13,01,1.06,0.58,0.89*13
$GNGSA,M,3,78,87,88,77,68,69,79,67,81,,,,1.06,0.58,0.89*1C
$GNRMC,141252.00,A,3947.65230,N,10509.20018,W,0.047,,190619,,,D*70
$GNGGA,141252.00,3947.65230,N,10509.20018,W,2,12,0.57,1716.0,M,-21.5,M,,0000*44
$GNGSA,M,3,07,30,08,28,09,11,27,18,51,48,13,01,1.05,0.57,0.88*1E
$GNGSA,M,3,78,87,88,77,68,69,79,67,81,,,,1.05,0.57,0.88*11
$GNRMC,141253.00,A,3947.65231,N,10509.20017,W,0.032,,190619,,,D*7D
$GNGGA,141253.00,3947.65231,N,10509.20017,W,2,12,0.59,1715.8,M,-21.5,M,,0000*4E
$GNGSA,M,3,07,30,08,28,09,11,27,18,51,48,13,01,1.09,0.59,0.92*17
$GNGSA,M,3,78,87,88,77,68,69,79,67,81,,,,1.09,0.59,0.92*18
$GNRMC,141254.00,A,3947.65232,N,10509.20016,W,0.039,,190619,,,D*73
$GNGGA,141254.00,3947.65232,N,10509.20016,W,2,12,0.59,1715.6,M,-21.5,M,,0000*45
$GNGSA,M,3,07,30,08,28,09,11,27,18,51,48,13,01,1.09,0.59,0.92*17
$GNGSA,M,3,78,87,88,77,68,69,79,67,81,,,,1.09,0.59,0.92*18
$GNRMC,141255.00,A,3947.65233,N,10509.20015,W,0.023,,190619,,,D*7B
$GNGGA,141255.00,3947.65233,N,10509.20015,W,2,12,0.59,1715.5,M,-21.5,M,,0000*45
$GNGSA,M,3,07,30,08,28,09,11,27,18,51,48,13,01,1.09,0.59,0.92*17
$GNGSA,M,3,78,87,88,77,68,69,79,67,81,,,,1.09,0.59,0.92*18
$GPGSV,4,1,16,01,06,133,29,04,,,43,05,06,283,24,07,74,071,34*4C
$GPGSV,4,2,16,08,50,062,39,09,35,183,40,11,32,129,42,13,13,321,31*75
$GPGSV,4,3,16,17,03,201,23,18,15,111,23,23,04,162,40,27,17,041,26*75
$GPGSV,4,4,16,28,43,259,38,30,65,321,34,48,36,220,45,51,44,183,45*76
$GLGSV,3,1,10,67,07,202,23,68,33,251,28,69,27,310,31,77,34,068,13*62
$GLGSV,3,2,10,78,57,351,32,79,22,295,25,81,09,169,38,86,03,017,*67
$GLGSV,3,3,10,87,41,064,19,88,39,130,40*68
$GNRMC,141256.00,A,3947.65235,N,10509.20014,W,0.028,,190619,,,D*74
$GNGGA,141256.00,3947.65235,N,10509.20014,W,2,12,0.55,1715.3,M,-21.5,M,,0000*4B
$GNGSA,M,3,07,30,08,28,09,11,27,18,51,48,13,01,1.04,0.55,0.88*1D
$GNGSA,M,3,78,87,88,77,68,69,79,67,81,,,,1.04,0.55,0.88*12
7A
$GNGGA,141257.00,3947.65236,N,10509.20014,W,2,12,0.57,1715.2,M,-21.5,M,,0000*4A
$GNGSA,M,3,07,30,08,28,09,11,27,51,48,13,01,05,1.05,0.57,0.88*12
$GNGSA,M,3,78,87,88,77,68,69,79,67,81,,,,1.05,0.57,0.88*11
$GNRMC,141258.00,A,3947.65237,N,10509.20016,W,0.067,,190619,,,D*71
$GNGGA,141258.00,3947.65237,N,10509.20016,W,2,12,0.57,1715.1,M,-21.5,M,,0000*45
$GNGSA,M,3,07,30,08,28,09,11,27,51,48,13,01,05,1.05,0.57,0.88*12
$GNGSA,M,3,78,87,88,77,68,69,79,67,81,,,,1.05,0.57,0.88*11
$GNRMC,141259.00,A,3947.65239,N,10509.20017,W,0.025,,190619,,,D*79
$GNGGA,141259.00,3947.65239,N,10509.20017,W,2,12,0.57,1715.1,M,-21.5,M,,0000*4B
$GNGSA,M,3,07,30,08,28,09,11,27,51,48,13,01,05,1.05,0.57,0.88*12
$GNGSA,M,3,78,87,88,77,68,69,79,67,81,,,,1.05,0.57,0.88*11
$GNRMC,141300.00,A,3947.65242,N,10509.20017,W,0.045,,190619,,,D*7E
$GNGGA,141300.00,3947.65242,N,10509.20017,W,2,12,0.57,1715.1,M,-21.5,M,,0000*4A
$GNGSA,M,3,07,30,08,28,09,11,27,18,51,48,13,01,1.05,0.57,0.88*1E
$GNGSA,M,3,78,87,88,77,68,69,79,67,81,,,,1.05,0.57,0.88*11
$GPGSV,4,1,16,01,06,133,29,04,,,43,05,06,283,27,07,74,071,33*48
$GPGSV,4,2,16,08,50,062,37,09,35,183,39,11,32,129,41,13,13,321,32*75
$GPGSV,4,3,16,17,03,201,28,18,15,111,26,23,04,162,41,27,17,041,28*74
$GPGSV,4,4,16,28,43,259,36,30,65,321,35,48,36,220,45,51,44,183,45*79
$GLGSV,3,1,10,67,07,202,24,68,33,251,24,69,27,310,29,77,34,068,23*63
$GLGSV,3,2,10,78,57,351,34,79,22,295,24,81,09,169,38,86,03,017,*60
$GLGSV,3,3,10,87,41,063,22,88,40,130,39*67
$GNRMC,141301.00,A,3947.65245,N,10509.20015,W,0.051,,190619,,,D*7F
$GNGGA,141301.00,3947.65245,N,10509.20015,W,2,12,0.57,1715.0,M,-21.5,M,,0000*4F
$GNGSA,M,3,07,30,08,28,09,11,27,18,51,48,13,01,1.05,0.57,0.88*1E
$GNGSA,M,3,78,87,88,77,68,69,79,67,81,,,,1.05,0.57,0.88*11
$GNRMC,141302.00,A,3947.65246,N,10509.20014,W,0.040,,190619,,,D*7E
$GNGGA,141302.00,3947.65246,N,10509.20014,W,2,12,0.59,1714.9,M,-21.5,M,,0000*48
$GNGSA,M,3,07,30,08,28,09,11,27,18,51,48,13,01,1.09,0.59,0.92*17
$GNGSA,M,3,78,87,88,77,68,69,79,67,81,,,,1.09,0.59,0.92*18
$GNRMC,141303.00,A,3947.65248,N,10509.20014,W,0.022,,190619,,,D*75
$GNGGA,141303.00,3947.65248,N,10509.20014,W,2,12,0.57,1714.8,M,-21.5,M,,0000*48
$GNGSA,M,3,07,30,08,28,09,11,27,18,51,48,13,01,1.08,0.57,0.92*18
$GNGSA,M,3,78,87,88,77,68,69,79,67,81,,,,1.08,0.57,0.92*17
$GNRMC,141304.00,A,3947.65250,N,10509.20014,W,0.052,,190619,,,D*7C
$GNGGA,141304.00,3947.65250,N,10509.20014,W,2,12,0.55,1714.8,M,-21.5,M,,0000*44
$GNGSA,M,3,07,30,08,28,09,11,27,18,51,48,13,01,1.04,0.55,0.88*1D
$GNGSA,M,3,78,87,88,77,68,69,79,67,81,,,,1.04,0.55,0.88*12
$GNRMC,141305.00,A,3947.65252,N,10509.20013,W,0.036,,190619,,,D*7A
$GNGGA,141305.00,3947.65252,N,10509.20013,W,2,12,0.58,1714.8,M,-21.5,M,,0000*4D
$GNGSA,M,3,07,30,08,28,09,11,27,18,51,48,13,01,1.09,0.58,0.93*17
$GNGSA,M,3,78,87,88,77,68,69,79,67,81,,,,1.09,0.58,0.93*18
$GPGSV,4,1,16,01,07,133,28,04,,,44,05,06,283,21,07,74,071,32*48
$GPGSV,4,2,16,08,50,062,38,09,35,183,38,11,32,129,41,13,13,321,31*78
$GPGSV,4,3,16,17,03,201,29,18,15,111,26,23,04,162,41,27,17,041,28*75
$GPGSV,4,4,16,28,43,259,37,30,65,321,36,48,36,220,45,51,44,183,46*78
$GLGSV,3,1,10,67,07,202,24,68,33,251,22,69,27,310,29,77,34,068,26*60
$GLGSV,3,2,10,78,57,351,34,79,22,295,24,81,09,169,38,86,03,017,*60
$GLGSV,3,3,10,87,41,063,20,88,40,130,39*65
$GNRMC,141306.00,A,3947.65253,N,10509.20012,W,0.049,,190619,,,D*71
$GNGGA,141306.00,3947.65253,N,10509.20012,W,2,12,0.55,1714.9,M,-21.5,M,,0000*42
$GNGSA,M,3,07,30,08,28,09,11,27,18,51,48,13,01,1.04,0.55,0.88*1D
$GNGSA,M,3,78,87,88,77,68,69,79,67,81,,,,1.04,0.55,0.88*12
$GNRMC,141307.00,A,3947.65253,N,10509.20012,W,0.063,,190619,,,D*78
$GNGGA,141307.00,3947.65253,N,10509.20012,W,2,12,0.55,1714.9,M,-21.5,M,,0000*43
$GNGSA,M,3,07,30,08,28,09,11,27,18,51,48,13,01,1.04,0.55,0.88*1D
$GNGSA,M,3,78,87,88,77,68,69,79,67,81,,,,1.04,0.55,0.88*12
$GNRMC,141308.00,A,3947.65253,N,10509.20011,W,0.013,,190619,,,D*73
$GNGGA,141308.00,3947.65253,N,10509.20011,W,2,12,0.55,1715.1,M,-21.5,M,,0000*46
$GNGSA,M,3,07,30,08,28,09,11,27,18,51,48,13,01,1.04,0.55,0.88*1D
$GNGSA,M,3,78,87,88,77,68,69,79,67,81,,,,1.04,0.55,0.88*12
$GNRMC,141309.00,A,3947.65252,N,10509.20012,W,0.004,,190619,,,D*76
$GNGGA,141309.00,3947.65252,N,10509.20012,W,2,12,0.55,1715.1,M,-21.5,M,,0000*45
$GNGSA,M,3,07,30,08,28,09,11,27,18,51,48,13,01,1.04,0.55,0.88*1D
$GNGSA,M,3,78,87,88,77,68,69,79,67,81,,,,1.04,0.55,0.88*12
$GNRMC,141310.00,A,3947.65250,N,10509.20011,W,0.093,,190619,,,D*71
$GNGGA,141310.00,3947.65250,N,10509.20011,W,2,12,0.55,1715.3,M,-21.5,M,,0000*4E
$GNGSA,M,3,07,30,08,28,09,11,27,51,48,13,01,05,1.04,0.55,0.88*11
$GNGSA,M,3,78,87,88,77,68,69,79,67,81,,,,1.04,0.55,0.88*12
$GPGSV,4,1,16,01,07,133,28,04,,,43,05,06,283,25,07,73,073,28*45
$GPGSV,4,2,16,08,49,062,39,09,34,183,40,11,32,129,39,13,13,321,27*77
$GPGSV,4,3,16,17,03,201,25,18,15,111,,23,04,162,41,27,17,041,22*77
$GPGSV,4,4,16,28,43,259,38,30,65,321,37,48,36,220,44,51,44,183,46*77
$GLGSV,3,1,10,67,07,202,24,68,33,251,26,69,27,310,25,77,34,068,26*68
$GLGSV,3,2,10,78,57,351,36,79,22,295,27,81,09,169,38,86,03,017,*61
$GLGSV,3,3,10,87,41,063,26,88,40,130,38*62
$GNRMC,141311.00,A,3947.65247,N,10509.20009,W,0.055,,190619,,,D*75
$GNGGA,141311.00,3947.65247,N,10509.20009,W,2,12,0.55,1715.6,M,-21.5,M,,0000*45
$GNGSA,M,3,07,30,08,28,09,11,27,51,48,13,01,05,1.10,0.55,0.95*18
$GNGSA,M,3,78,87,88,77,68,69,79,67,81,,,,1.10,0.55,0.95*1B
$GNRMC,141312.00,A,3947.65246,N,10509.20009,W,0.092,,190619,,,D*7C
$GNGGA,141312.00,3947.65246,N,10509.20009,W,2,12,0.55,1715.6,M,-21.5,M,,0000*47
$GNGSA,M,3,07,30,08,28,09,11,27,51,48,13,01,05,1.04,0.55,0.88*11
$GNGSA,M,3,78,87,88,77,68,69,79,67,81,,,,1.04,0.55,0.88*12
$GNRMC,141313.00,A,3947.65244,N,10509.20010,W,0.038,,190619,,,D*77
$GNGGA,141313.00,3947.65244,N,10509.20010,W,2,12,0.55,1715.7,M,-21.5,M,,0000*4D
$GNGSA,M,3,07,30,08,28,09,11,27,18,51,48,13,01,1.10,0.55,0.95*14
$GNGSA,M,3,78,87,88,77,68,69,79,67,81,,,,1.10,0.55,0.95*1B
$GNRMC,141314.00,A,3947.65245,N,10509.20011,W,0.039,,190619,,,D*71
$GNGGA,141314.00,3947.65245,N,10509.20011,W,2,12,0.55,1715.6,M,-21.5,M,,0000*4B
$GNGSA,M,3,07,30,08,28,09,11,27,18,51,48,13,01,1.04,0.55,0.88*1D
$GNGSA,M,3,78,87,88,77,68,69,79,67,81,,,,1.04,0.55,0.88*12
$GNRMC,141315.00,A,3947.65246,N,10509.20010,W,0.040,,190619,,,D*7C
$GNGGA,141315.00,3947.65246,N,10509.20010,W,2,12,0.55,1715.6,M,-21.5,M,,0000*48
$GNGSA,M,3,07,30,08,28,09,11,27,18,51,48,13,01,1.04,0.55,0.88*1D
$GNGSA,M,3,78,87,88,77,68,69,79,67,81,,,,1.04,0.55,0.88*12
$GPGSV,4,1,16,01,07,133,26,04,,,42,05,06,283,23,07,73,073,23*47
$GPGSV,4,2,16,08,49,062,40,09,34,183,40,11,32,129,39,13,13,321,28*76
$GPGSV,4,3,16,17,03,201,23,18,15,111,26,23,04,162,40,27,17,041,26*70
$GPGSV,4,4,16,28,43,259,39,30,65,321,37,48,36,220,44,51,44,183,46*76
$GLGSV,3,1,10,67,07,202,23,68,33,251,27,69,27,310,23,77,34,068,24*6A
$GLGSV,3,2,10,78,57,351,36,79,22,295,21,81,09,169,37,86,03,017,*68
$GLGSV,3,3,10,87,41,063,27,88,40,130,39*62
$GNRMC,141316.00,A,3947.65241,N,10509.20013,W,0.037,,190619,,,D*7B
$GNGGA,141316.00,3947.65241,N,10509.20013,W,2,12,0.55,1715.7,M,-21.5,M,,0000*4E
$GNGSA,M,3,07,30,08,28,09,11,27,18,51,48,13,01,1.04,0.55,0.88*1D
$GNGSA,M,3,78,87,88,77,68,69,79,67,81,,,,1.04,0.55,0.88*12
$GNRMC,141317.00,A,3947.65240,N,10509.20015,W,0.001,,190619,,,D*78
$GNGGA,141317.00,3947.65240,N,10509.20015,W,2,12,0.55,1715.8,M,-21.5,M,,0000*47
$GNGSA,M,3,07,30,08,28,09,11,27,18,51,48,13,01,1.04,0.55,0.88*1D
$GNGSA,M,3,78,87,88,77,68,69,79,67,81,,,,1.04,0.55,0.88*12
$GNRMC,141318.00,A,3947.65241,N,10509.20018,W,0.018,,190619,,,D*73
$GNGGA,141318.00,3947.65241,N,10509.20018,W,2,12,0.55,1715.8,M,-21.5,M,,0000*44
$GNGSA,M,3,07,30,08,28,09,11,27,18,51,48,13,01,1.04,0.55,0.88*1D
$GNGSA,M,3,78,87,88,77,68,69,79,67,81,,,,1.04,0.55,0.88*12
$GNRMC,141319.00,A,3947.65241,N,10509.20022,W,0.049,,190619,,,D*7F
$GNGGA,141319.00,3947.65241,N,10509.20022,W,2,12,0.55,1715.8,M,-21.5,M,,0000*4C
$GNGSA,M,3,07,30,08,28,09,11,27,18,51,48,13,01,1.04,0.55,0.88*1D
$GNGSA,M,3,78,87,88,77,68,69,79,67,81,,,,1.04,0.55,0.88*12
$GNRMC,141320.00,A,3947.65242,N,10509.20028,W,0.046,,190619,,,D*73
$GNGGA,141320.00,3947.65242,N,10509.20028,W,2,12,0.55,1715.8,M,-21.5,M,,0000*4F
$GNGSA,M,3,07,30,08,28,09,11,27,18,51,48,13,01,1.04,0.55,0.88*1D
$GNGSA,M,3,78,87,88,77,68,69,79,67,81,,,,1.04,0.55,0.88*12
$GPGSV,4,1,16,01,07,133,29,04,,,43,05,06,283,22,07,73,073,19*41
$GPGSV,4,2,16,08,49,062,39,09,34,183,40,11,32,129,41,13,13,321,29*76
$GPGSV,4,3,16,17,04,201,23,18,15,110,28,23,04,162,40,27,17,041,30*7F
$GPGSV,4,4,16,28,43,259,36,30,65,321,35,48,36,220,45,51,44,183,45*79
$GLGSV,3,1,10,67,07,202,25,68,33,251,26,69,27,310,25,77,34,068,22*6D
$GLGSV,3,2,10,78,57,351,35,79,22,295,26,81,09,169,37,86,03,017,*6C
$GLGSV,3,3,10,87,41,063,23,88,40,130,39*66
$GNRMC,141321.00,A,3947.65243,N,10509.20035,W,0.042,,190619,,,D*7B
$GNGGA,141321.00,3947.65243,N,10509.20035,W,2,12,0.55,1715.9,M,-21.5,M,,0000*42
$GNGSA,M,3,07,30,08,28,09,11,27,18,51,48,13,01,1.04,0.55,0.88*1D
$GNGSA,M,3,78,87,88,77,68,69,79,67,81,,,,1.04,0.55,0.88*12
$GNRMC,141322.00,A,3947.65244,N,10509.20040,W,0.038,,190619,,,D*70
$GNGGA,141322.00,3947.65244,N,10509.20040,W,2,12,0.55,1716.1,M,-21.5,M,,0000*4F
$GNGSA,M,3,07,30,08,28,09,11,27,18,51,48,13,01,1.04,0.55,0.88*1D
$GNGSA,M,3,78,87,88,77,68,69,79,67,81,,,,1.04,0.55,0.88*12
$GNRMC,141323.00,A,3947.65243,N,10509.20044,W,0.023,,190619,,,D*78
$GNGGA,141323.00,3947.65243,N,10509.20044,W,2,12,0.55,1716.2,M,-21.5,M,,0000*4E
$GNGSA,M,3,07,30,08,28,09,11,27,18,51,48,13,01,1.04,0.55,0.88*1D
$GNGSA,M,3,78,87,88,77,68,69,79,67,81,,,,1.04,0.55,0.88*12
$GNRMC,141324.00,A,3947.65244,N,10509.20051,W,0.050,,190619,,,D*78
$GNGGA,141324.00,3947.65244,N,10509.20051,W,2,12,0.55,1716.3,M,-21.5,M,,0000*4B
$GNGSA,M,3,07,30,08,28,09,11,27,18,51,48,13,01,1.04,0.55,0.88*1D
$GNGSA,M,3,78,87,88,77,68,69,79,67,81,,,,1.04,0.55,0.88*12
$GNRMC,141325.00,A,3947.65242,N,10509.20057,W,0.023,,190619,,,D*7D
$GNGGA,141325.00,3947.65242,N,10509.20057,W,2,12,0.55,1716.3,M,-21.5,M,,0000*4A
$GNGSA,M,3,07,30,08,28,09,11,27,18,51,48,13,01,1.04,0.55,0.88*1D
$GNGSA,M,3,78,87,88,77,68,69,79,67,81,,,,1.04,0.55,0.88*12
$GPGSV,4,1,16,01,07,133,29,04,,,42,05,06,283,19,07,73,073,24*46
$GPGSV,4,2,16,08,49,062,40,09,34,183,40,11,32,129,40,13,13,321,28*78
$GPGSV,4,3,16,17,04,201,23,18,15,110,29,23,04,162,40,27,17,041,29*76
$GPGSV,4,4,16,28,43,259,35,30,65,321,33,48,36,220,44,51,44,183,45*7D
$GLGSV,3,1,10,67,07,202,24,68,33,251,26,69,27,310,24,77,34,068,25*6A
$GLGSV,3,2,10,78,57,351,34,79,22,295,26,81,09,169,38,86,03,017,*62
$GLGSV,3,3,10,87,41,063,28,88,40,130,39*6D
$GNRMC,141326.00,A,3947.65240,N,10509.20063,W,0.011,,190619,,,D*7A
$GNGGA,141326.00,3947.65240,N,10509.20063,W,2,12,0.55,1716.4,M,-21.5,M,,0000*4B
$GNGSA,M,3,07,30,08,28,09,11,27,18,51,48,13,01,1.04,0.55,0.88*1D
$GNGSA,M,3,78,87,88,77,68,69,79,67,81,,,,1.04,0.55,0.88*12
$GNRMC,141327.00,A,3947.65240,N,10509.20068,W,0.014,,190619,,,D*75
$GNGGA,141327.00,3947.65240,N,10509.20068,W,2,12,0.55,1716.4,M,-21.5,M,,0000*41
$GNGSA,M,3,07,30,08,28,09,11,27,18,51,48,13,01,1.04,0.55,0.88*1D
$GNGSA,M,3,78,87,88,77,68,69,79,67,81,,,,1.04,0.55,0.88*12
$GNRMC,141328.00,A,3947.65240,N,10509.20073,W,0.011,,190619,,,D*75
$GNGGA,141328.00,3947.65240,N,10509.20073,W,2,12,0.55,1716.4,M,-21.5,M,,0000*44
$GNGSA,M,3,07,30,08,28,09,11,27,18,51,48,13,01,1.04,0.55,0.88*1D
$GNGSA,M,3,78,87,88,77,68,69,79,67,81,,,,1.04,0.55,0.88*12
$GNRMC,141329.00,A,3947.65236,N,10509.20079,W,0.030,,190619,,,D*7C
$GNGGA,141329.00,3947.65236,N,10509.20079,W,2,12,0.55,1716.4,M,-21.5,M,,0000*4E
$GNGSA,M,3,07,30,08,28,09,11,27,18,51,48,13,01,1.04,0.55,0.88*1D
$GNGSA,M,3,78,87,88,77,68,69,79,67,81,,,,1.04,0.55,0.88*12
$GNRMC,141330.00,A,3947.65235,N,10509.20084,W,0.042,,190619,,,D*70
$GNGGA,141330.00,3947.65235,N,10509.20084,W,2,12,0.55,1716.3,M,-21.5,M,,0000*40
$GNGSA,M,3,07,30,08,28,09,11,27,18,51,48,13,01,1.04,0.55,0.88*1D
$GNGSA,M,3,78,87,88,77,68,69,79,67,81,,,,1.04,0.55,0.88*12
$GPGSV,4,1,16,01,07,133,29,04,,,42,05,06,283,19,07,73,073,28*4A
$GPGSV,4,2,16,08,49,062,39,09,34,183,41,11,32,129,38,13,13,321,32*73
$GPGSV,4,3,16,17,04,201,27,18,15,110,29,23,04,162,40,27,17,040,29*73
$GPGSV,4,4,16,28,43,260,36,30,65,322,36,48,36,220,44,51,44,183,46*71
$GLGSV,3,1,10,67,07,202,25,68,33,251,25,69,27,310,27,77,34,068,24*6A
$GLGSV,3,2,10,78,57,351,34,79,22,295,27,81,09,169,38,86,03,017,*63
$GLGSV,3,3,10,87,41,063,31,88,40,130,39*65
$GNRMC,141331.00,A,3947.65232,N,10509.20088,W,0.045,,190619,,,D*7D
$GNGGA,141331.00,3947.65232,N,10509.20088,W,2,12,0.55,1716.3,M,-21.5,M,,0000*4A
$GNGSA,M,3,07,30,08,28,09,11,27,18,51,48,13,01,1.04,0.55,0.88*1D
$GNGSA,M,3,78,87,88,77,68,69,79,67,81,,,,1.04,0.55,0.88*12
$GNRMC,141332.00,A,3947.65228,N,10509.20091,W,0.036,,190619,,,D*79
$GNGGA,141332.00,3947.65228,N,10509.20091,W,2,12,0.55,1716.3,M,-21.5,M,,0000*4A
$GNGSA,M,3,07,30,08,28,09,11,27,18,51,48,13,01,1.04,0.55,0.88*1D
$GNGSA,M,3,78,87,88,77,68,69,79,67,81,,,,1.04,0.55,0.88*12
$GNRMC,141333.00,A,3947.65230,N,10509.20093,W,0.015,,190619,,,D*72
$GNGGA,141333.00,3947.65230,N,10509.20093,W,2,12,0.55,1716.2,M,-21.5,M,,0000*41
$GNGSA,M,3,07,30,08,28,09,11,27,18,51,48,13,01,1.04,0.55,0.88*1D
$GNGSA,M,3,78,87,88,77,68,69,79,67,81,,,,1.04,0.55,0.88*12
$GNRMC,141334.00,A,3947.65232,N,10509.20097,W,0.056,,190619,,,D*74
$GNGGA,141334.00,3947.65232,N,10509.20097,W,2,12,0.55,1716.0,M,-21.5,M,,0000*42
$GNGSA,M,3,07,30,08,28,09,11,27,18,51,48,13,01,1.04,0.55,0.88*1D
$GNGSA,M,3,78,87,88,77,68,69,79,67,81,,,,1.04,0.55,0.88*12
$GNRMC,141335.00,A,3947.65234,N,10509.20099,W,0.081,,190619,,,D*77
$GNGGA,141335.00,3947.65234,N,10509.20099,W,2,12,0.55,1715.9,M,-21.5,M,,0000*41
$GNGSA,M,3,07,30,08,28,09,11,27,18,51,48,13,01,1.04,0.55,0.88*1D
$GNGSA,M,3,78,87,88,77,68,69,79,67,81,,,,1.04,0.55,0.88*12
$GPGSV,4,1,16,01,07,133,28,04,,,41,05,06,283,16,07,73,073,29*46
$GPGSV,4,2,16,08,49,062,39,09,34,183,42,11,32,129,39,13,13,321,31*72
$GPGSV,4,3,16,17,04,201,24,18,15,110,28,23,04,162,40,27,17,040,28*70
$GPGSV,4,4,16,28,43,260,37,30,65,322,37,48,36,220,44,51,44,183,45*72
$GLGSV,3,1,10,67,07,202,23,68,33,251,24,69,27,310,31,77,34,068,27*69
$GLGSV,3,2,10,78,57,351,33,79,22,295,27,81,09,169,38,86,03,017,*64
$GLGSV,3,3,10,87,41,063,31,88,40,130,39*65
$GNRMC,141336.00,A,3947.65236,N,10509.20103,W,0.038,,190619,,,D*76
$GNGGA,141336.00,3947.65236,N,10509.20103,W,2,12,0.55,1715.8,M,-21.5,M,,0000*43
$GNGSA,M,3,07,30,08,28,09,11,27,18,51,48,13,01,1.04,0.55,0.88*1D
$GNGSA,M,3,78,87,88,77,68,69,79,67,81,,,,1.04,0.55,0.88*12
$GNRMC,141337.00,A,3947.65236,N,10509.20109,W,0.025,,190619,,,D*71
$GNGGA,141337.00,3947.65236,N,10509.20109,W,2,12,0.54,1715.8,M,-21.5,M,,0000*49
$GNGSA,M,3,07,30,08,28,09,11,27,18,51,48,13,01,1.01,0.54,0.86*17
$GNGSA,M,3,78,87,88,77,68,69,79,67,81,,,,1.01,0.54,0.86*18
$GNRMC,141338.00,A,3947.65236,N,10509.20113,W,0.031,,190619,,,D*70
$GNGGA,141338.00,3947.65236,N,10509.20113,W,2,12,0.54,1715.8,M,-21.5,M,,0000*4D
$GNGSA,M,3,07,30,08,28,09,11,27,18,51,48,13,01,1.01,0.54,0.86*17
$GNGSA,M,3,78,87,88,77,68,69,79,67,81,,,,1.01,0.54,0.86*18
$GNRMC,141339.00,A,3947.65238,N,10509.20116,W,0.021,,190619,,,D*7B
$GNGGA,141339.00,3947.65238,N,10509.20116,W,2,12,0.54,1715.8,M,-21.5,M,,0000*47
$GNGSA,M,3,07,30,08,28,09,11,27,18,51,48,13,01,1.01,0.54,0.86*17
$GNGSA,M,3,78,87,88,77,68,69,79,67,81,,,,1.01,0.54,0.86*18
$GNRMC,141340.00,A,3947.65236,N,10509.20118,W,0.072,,190619,,,D*73
$GNGGA,141340.00,3947.65236,N,10509.20118,W,2,12,0.54,1715.8,M,-21.5,M,,0000*49
$GNGSA,M,3,07,30,08,28,09,11,27,18,51,48,13,01,1.01,0.54,0.86*17
$GNGSA,M,3,78,87,88,77,68,69,79,67,81,,,,1.01,0.54,0.86*18
$GPGSV,4,1,16,01,07,133,28,04,,,41,05,06,283,22,07,73,073,30*49
$GPGSV,4,2,16,08,49,062,39,09,34,183,42,11,32,129,41,13,13,321,30*7C
$GPGSV,4,3,16,17,04,201,27,18,15,110,30,23,04,162,40,27,17,040,28*7A
$GPGSV,4,4,16,28,43,260,36,30,65,322,37,48,36,220,45,51,44,183,45*72
$GLGSV,3,1,10,67,07,202,22,68,33,251,22,69,27,310,32,77,34,068,27*6D
$GLGSV,3,2,10,78,57,351,32,79,22,295,26,81,09,169,37,86,03,017,*6B
$GLGSV,3,3,10,87,41,063,30,88,40,130,39*64
$GNRMC,141341.00,A,3947.65234,N,10509.20120,W,0.044,,190619,,,D*7E
$GNGGA,141341.00,3947.65234,N,10509.20120,W,2,12,0.54,1715.7,M,-21.5,M,,0000*4E
$GNGSA,M,3,07,30,08,28,09,11,27,18,51,48,13,01,1.01,0.54,0.86*17
$GNGSA,M,3,78,87,88,77,68,69,79,67,81,,,,1.01,0.54,0.86*18
$GNRMC,141342.00,A,3947.65231,N,10509.20125,W,0.036,,190619,,,D*78
$GNGGA,141342.00,3947.65231,N,10509.20125,W,2,12,0.54,1715.8,M,-21.5,M,,0000*42
$GNGSA,M,3,07,30,08,28,09,11,27,18,51,48,13,01,1.01,0.54,0.86*17
$GNGSA,M,3,78,87,88,77,68,69,79,67,81,,,,1.01,0.54,0.86*18
$GNRMC,141343.00,A,3947.65228,N,10509.20129,W,0.025,,190619,,,D*7F
$GNGGA,141343.00,3947.65228,N,10509.20129,W,2,12,0.54,1715.7,M,-21.5,M,,0000*48
$GNGSA,M,3,07,30,08,28,09,11,27,18,51,48,13,01,1.01,0.54,0.86*17
$GNGSA,M,3,78,87,88,77,68,69,79,67,81,,,,1.01,0.54,0.86*18
$GNRMC,141344.00,A,3947.65228,N,10509.20133,W,0.061,,190619,,,D*73
$GNGGA,141344.00,3947.65228,N,10509.20133,W,2,12,0.54,1715.5,M,-21.5,M,,0000*46
$GNGSA,M,3,07,30,08,28,09,11,27,18,51,48,13,01,1.01,0.54,0.86*17
$GNGSA,M,3,78,87,88,77,68,69,79,67,81,,,,1.01,0.54,0.86*18
$GNRMC,141345.00,A,3947.65225,N,10509.20140,W,0.026,,190619,,,D*78
$GNGGA,141345.00,3947.65225,N,10509.20140,W,2,12,0.54,1715.3,M,-21.5,M,,0000*48
$GNGSA,M,3,07,30,08,28,09,11,27,18,51,48,13,01,1.01,0.54,0.86*17
$GNGSA,M,3,78,87,88,77,68,69,79,67,81,,,,1.01,0.54,0.86*18
$GPGSV,4,1,16,01,07,133,30,04,,,41,05,06,283,16,07,73,073,29*4F
$GPGSV,4,2,16,08,49,062,41,09,34,183,42,11,32,129,39,13,13,321,30*7C
$GPGSV,4,3,16,17,04,201,25,18,15,110,29,23,04,162,41,27,17,040,23*7A
$GPGSV,4,4,16,28,43,260,37,30,65,322,36,48,36,220,44,51,44,183,46*70
$GLGSV,3,1,10,67,07,202,25,68,33,251,24,69,27,310,29,77,34,068,23*62
$GLGSV,3,2,10,78,57,351,30,79,22,295,19,81,09,169,38,86,03,017,*6A
$GLGSV,3,3,10,87,41,063,32,88,40,130,39*66
$GNRMC,141346.00,A,3947.65228,N,10509.20141,W,0.033,,190619,,,D*73
$GNGGA,141346.00,3947.65228,N,10509.20141,W,2,12,0.54,1715.3,M,-21.5,M,,0000*47
$GNGSA,M,3,07,30,08,28,09,11,27,18,51,48,13,01,1.01,0.54,0.86*17
$GNGSA,M,3,78,87,88,77,68,69,79,67,81,,,,1.01,0.54,0.86*18
$GNRMC,141347.00,A,3947.65231,N,10509.20141,W,0.042,,190619,,,D*7C
$GNGGA,141347.00,3947.65231,N,10509.20141,W,2,12,0.54,1715.3,M,-21.5,M,,0000*4E
$GNGSA,M,3,07,30,08,28,09,11,27,18,51,48,13,01,1.01,0.54,0.86*17
$GNGSA,M,3,78,87,88,77,68,69,79,67,81,,,,1.01,0.54,0.86*18
$GNRMC,141348.00,A,3947.65234,N,10509.20142,W,0.064,,190619,,,D*71
$GNGGA,141348.00,3947.65234,N,10509.20142,W,2,12,0.54,1715.2,M,-21.5,M,,0000*46
$GNGSA,M,3,07,30,08,28,09,11,27,18,51,48,13,01,1.01,0.54,0.86*17
$GNGSA,M,3,78,87,88,77,68,69,79,67,81,,,,1.01,0.54,0.86*18
$GNRMC,141349.00,A,3947.65238,N,10509.20143,W,0.027,,190619,,,D*7A
$GNGGA,141349.00,3947.65238,N,10509.20143,W,2,12,0.54,1715.1,M,-21.5,M,,0000*49
$GNGSA,M,3,07,30,08,28,09,11,27,18,51,48,13,01,1.01,0.54,0.86*17
$GNGSA,M,3,78,87,88,77,68,69,79,67,81,,,,1.01,0.54,0.86*18
