$GPRMC,140712.000,A,3947.6505,N,10509.2024,W,0.00,57.86,080818,,,D*4B
$GPGGA,140713.000,3947.6505,N,10509.2024,W,2,11,1.0,1717.0,M,-20.8,M,1.0,0000*72
$GPGSA,M,3,17,28,30,19,01,13,11,07,18,06,51,,1.7,1.0,1.4*34
$GPRMC,140713.000,A,3947.6505,N,10509.2024,W,0.00,57.86,080818,,,D*4A
$GPGGA,140714.000,3947.6506,N,10509.2024,W,2,11,1.0,1717.0,M,-20.8,M,2.0,0000*75
$GPGSA,M,3,17,28,30,19,01,13,11,07,18,06,51,,1.7,1.0,1.4*34
$GPRMC,140714.000,A,3947.6506,N,10509.2024,W,0.00,57.86,080818,,,D*4E
$GPGGA,140715.000,3947.6506,N,10509.2024,W,2,11,1.0,1717.0,M,-20.8,M,2.0,0000*74
$GPGSA,M,3,17,28,30,19,01,13,11,07,18,06,51,,1.7,1.0,1.4*34
$GPRMC,140715.000,A,3947.6506,N,10509.2024,W,0.00,57.86,080818,,,D*4F
$GPGGA,140716.000,3947.6506,N,10509.2024,W,2,11,1.0,1717.0,M,-20.8,M,2.0,0000*77
$GPGSA,M,3,17,28,30,19,01,13,11,07,18,06,51,,1.7,1.0,1.4*34
$GPGSV,3,1,12,17,69,234,33,28,65,035,34,30,51,152,44,19,38,227,38*72
$GPGSV,3,2,12,01,36,068,35,13,33,261,33,11,30,053,31,07,20,146,44*71
$GPGSV,3,3,12,18,19,046,24,06,07,182,33,51,43,183,45,15,17,292,23*77
$GPRMC,140716.000,A,3947.6506,N,10509.2024,W,0.00,57.86,080818,,,D*4C
$GPGGA,140717.000,3947.6506,N,10509.2024,W,2,11,1.0,1717.0,M,-20.8,M,3.0,0000*77
$GPGSA,M,3,17,28,30,19,01,13,11,07,18,06,51,,1.7,1.0,1.4*34
$GPRMC,140717.000,A,3947.6506,N,10509.2024,W,0.00,57.86,080818,,,D*4D
$GPGGA,140718.000,3947.6506,N,10509.2024,W,2,11,1.0,1717.0,M,-20.8,M,2.0,0000*79
$GPGSA,M,3,17,28,30,19,01,13,11,07,18,06,51,,1.7,1.0,1.4*34
$GPRMC,140718.000,A,3947.6506,N,10509.2024,W,0.00,57.86,080818,,,D*42
$GPGGA,140719.000,3947.6506,N,10509.2024,W,2,11,1.0,1717.0,M,-20.8,M,2.0,0000*78
$GPGSA,M,3,17,28,30,19,01,13,11,07,18,06,51,,1.7,1.0,1.4*34
$GPRMC,140719.000,A,3947.6506,N,10509.2024,W,0.00,57.86,080818,,,D*43
$GPGGA,140720.000,3947.6506,N,10509.2024,W,2,11,1.0,1717.0,M,-20.8,M,2.0,0000*72
$GPGSA,M,3,17,28,30,19,01,13,11,07,18,06,51,,1.7,1.0,1.4*34
$GPRMC,140720.000,A,3947.6506,N,10509.2024,W,0.00,57.86,080818,,,D*49
$GPGGA,140721.000,3947.6506,N,10509.2024,W,2,11,1.0,1717.0,M,-20.8,M,3.0,0000*72
$GPGSA,M,3,17,28,30,19,01,13,11,07,18,06,51,,1.7,1.0,1.4*34
$GPGSV,3,1,12,17,69,234,33,28,65,035,35,30,51,152,44,19,38,227,38*73
$GPGSV,3,2,12,01,36,068,35,13,33,261,33,11,30,053,32,07,20,146,43*75
$GPGSV,3,3,12,18,19,046,23,06,07,182,33,51,43,183,45,15,17,292,19*79
$GPRMC,140721.000,A,3947.6506,N,10509.2024,W,0.00,57.86,080818,,,D*48
$GPGGA,140722.000,3947.6506,N,10509.2024,W,2,11,1.0,1717.0,M,-20.8,M,4.0,0000*76
$GPGSA,M,3,17,28,30,19,01,13,11,07,18,06,51,,1.7,1.0,1.4*34
$GPRMC,140722.000,A,3947.6506,N,10509.2024,W,0.00,57.86,080818,,,D*4B
$GPGGA,140723.000,3947.6506,N,10509.2024,W,2,11,1.0,1717.0,M,-20.8,M,5.0,0000*76
$GPGSA,M,3,17,28,30,19,01,13,11,07,18,06,51,,1.7,1.0,1.4*34
$GPRMC,140723.000,A,3947.6506,N,10509.2024,W,0.00,57.86,080818,,,D*4A
$GPGGA,140724.000,3947.6506,N,10509.2024,W,2,11,1.0,1717.0,M,-20.8,M,2.0,0000*76
$GPGSA,M,3,17,28,30,19,01,13,11,07,18,06,51,,1.7,1.0,1.4*34
$GPRMC,140724.000,A,3947.6506,N,10509.2024,W,0.00,57.86,080818,,,D*4D
$GPGGA,140725.000,3947.6506,N,10509.2024,W,2,11,1.0,1717.0,M,-20.8,M,2.0,0000*77
$GPGSA,M,3,17,28,30,19,01,13,11,07,18,06,51,,1.7,1.0,1.4*34
$GPRMC,140725.000,A,3947.6506,N,10509.2024,W,0.00,57.86,080818,,,D*4C
$GPGGA,140726.000,3947.6506,N,10509.2024,W,2,11,1.0,1717.0,M,-20.8,M,2.0,0000*74
$GPGSA,M,3,17,28,30,19,01,13,11,07,18,06,51,,1.7,1.0,1.4*34
$GPGSV,3,1,12,17,69,234,34,28,65,035,35,30,51,152,44,19,38,227,39*75
$GPGSV,3,2,12,01,36,068,35,13,33,261,33,11,30,053,32,07,20,146,43*75
$GPGSV,3,3,12,18,19,046,23,06,07,182,33,51,43,183,45,15,17,292,18*78
$GPRMC,140726.000,A,3947.6506,N,10509.2024,W,0.00,57.86,080818,,,D*4F
$GPGGA,140727.000,3947.6506,N,10509.2024,W,2,11,1.0,1716.9,M,-20.8,M,3.0,0000*7C
$GPGSA,M,3,17,28,30,19,01,13,11,07,18,06,51,,1.7,1.0,1.4*34
$GPRMC,140727.000,A,3947.6506,N,10509.2024,W,0.00,57.86,080818,,,D*4E
$GPGGA,140728.000,3947.6506,N,10509.2024,W,2,11,1.0,1716.9,M,-20.8,M,4.0,0000*74
$GPGSA,M,3,17,28,30,19,01,13,11,07,18,06,51,,1.7,1.0,1.4*34
$GPRMC,140728.000,A,3947.6506,N,10509.2024,W,0.00,57.86,080818,,,D*41
$GPGGA,140729.000,3947.6506,N,10509.2024,W,2,11,1.0,1716.9,M,-20.8,M,2.0,0000*73
$GPGSA,M,3,17,28,30,19,01,13,11,07,18,06,51,,1.7,1.0,1.4*34
$GPRMC,140729.000,A,3947.6506,N,10509.2024,W,0.00,57.86,080818,,,D*40
$GPGGA,140730.000,3947.6506,N,10509.2024,W,2,11,1.0,1716.9,M,-20.8,M,2.0,0000*7B
$GPGSA,M,3,17,28,30,19,01,13,11,07,18,06,51,,1.7,1.0,1.4*34
$GPRMC,140730.000,A,3947.6506,N,10509.2024,W,0.00,57.86,080818,,,D*48
$GPGGA,140731.000,3947.6506,N,10509.2024,W,2,11,1.0,1716.9,M,-20.8,M,2.0,0000*7A
$GPGSA,M,3,17,28,30,19,01,13,11,07,18,06,51,,1.7,1.0,1.4*34
$GPGSV,3,1,12,17,69,234,34,28,65,035,35,30,51,152,45,19,38,227,39*74
$GPGSV,3,2,12,01,36,068,35,13,33,261,32,11,30,053,32,07,20,146,43*74
$GPGSV,3,3,12,18,19,046,24,06,07,182,33,51,43,183,45,15,17,292,17*70
$GPRMC,140731.000,A,3947.6506,N,10509.2024,W,0.00,57.86,080818,,,D*49
$GPGGA,140732.000,3947.6506,N,10509.2024,W,2,11,1.0,1716.9,M,-20.8,M,2.0,0000*79
$GPGSA,M,3,17,28,30,19,01,13,11,07,18,06,51,,1.7,1.0,1.4*34
$GPRMC,140732.000,A,3947.6506,N,10509.2024,W,0.00,57.86,080818,,,D*4A
$GPGGA,140733.000,3947.6506,N,10509.2024,W,2,11,1.0,1716.9,M,-20.8,M,3.0,0000*79
$GPGSA,M,3,17,28,30,19,01,13,11,07,18,06,51,,1.7,1.0,1.4*34
$GPRMC,140733.000,A,3947.6506,N,10509.2024,W,0.00,57.86,080818,,,D*4B
$GPGGA,140734.000,3947.6506,N,10509.2024,W,2,11,1.0,1716.9,M,-20.8,M,4.0,0000*79
$GPGSA,M,3,17,28,30,19,01,13,11,07,18,06,51,,1.7,1.0,1.4*34
$GPRMC,140734.000,A,3947.6506,N,10509.2024,W,0.00,57.86,080818,,,D*4C
$GPGGA,140735.000,3947.6506,N,10509.2024,W,2,11,1.0,1716.9,M,-20.8,M,5.0,0000*79
$GPGSA,M,3,17,28,30,19,01,13,11,07,18,06,51,,1.7,1.0,1.4*34
$GPRMC,140735.000,A,3947.6506,N,10509.2024,W,0.00,57.86,080818,,,D*4D
$GPGGA,140736.000,3947.6507,N,10509.2024,W,2,11,1.0,1716.9,M,-20.8,M,2.0,0000*7C
$GPGSA,M,3,17,28,30,19,01,13,11,07,18,06,51,,1.7,1.0,1.4*34
$GPGSV,3,1,12,17,69,234,34,28,65,035,35,30,51,152,45,19,38,227,39*74
$GPGSV,3,2,12,01,36,068,35,13,33,261,32,11,30,053,31,07,20,146,43*77
$GPGSV,3,3,12,18,19,046,25,06,07,182,33,51,43,183,45,15,17,292,19*7F
$GPRMC,140736.000,A,3947.6507,N,10509.2024,W,0.00,57.86,080818,,,D*4F
$GPGGA,140737.000,3947.6507,N,10509.2024,W,2,11,1.0,1716.9,M,-20.8,M,2.0,0000*7D
$GPGSA,M,3,17,28,30,19,01,13,11,07,18,06,51,,1.7,1.0,1.4*34
$GPRMC,140737.000,A,3947.6507,N,10509.2024,W,0.00,57.86,080818,,,D*4E
$GPGGA,140738.000,3947.6507,N,10509.2024,W,2,11,1.0,1716.9,M,-20.8,M,2.0,0000*72
$GPGSA,M,3,17,28,30,19,01,13,11,07,18,06,51,,1.7,1.0,1.4*34
$GPRMC,140738.000,A,3947.6507,N,10509.2024,W,0.00,57.86,080818,,,D*41
$GPGGA,140739.000,3947.6507,N,10509.2024,W,2,11,1.0,1716.9,M,-20.8,M,2.0,0000*73
$GPGSA,M,3,17,28,30,19,01,13,11,07,18,06,51,,1.7,1.0,1.4*34
$GPRMC,140739.000,A,3947.6507,N,10509.2024,W,0.00,57.86,080818,,,D*40
$GPGGA,140740.000,3947.6507,N,10509.2024,W,2,11,1.0,1716.9,M,-20.8,M,2.0,0000*7D
$GPGSA,M,3,17,28,30,19,01,13,11,07,18,06,51,,1.7,1.0,1.4*34
$GPRMC,140740.000,A,3947.6507,N,10509.2024,W,0.00,57.86,080818,,,D*4E
$GPGGA,140741.000,3947.6507,N,10509.2024,W,2,11,1.0,1716.9,M,-20.8,M,3.0,0000*7D
$GPGSA,M,3,17,28,30,19,01,13,11,07,18,06,51,,1.7,1.0,1.4*34
$GPGSV,3,1,12,17,69,234,32,28,65,035,35,30,51,152,45,19,38,227,38*73
$GPGSV,3,2,12,01,36,068,35,13,33,261,32,11,30,053,32,07,20,146,42*75
$GPGSV,3,3,12,18,19,046,26,06,07,182,32,51,43,183,45,15,17,292,18*7C
$GPRMC,140741.000,A,3947.6507,N,10509.2024,W,0.00,57.86,080818,,,D*4F
$GPGGA,140742.000,3947.6507,N,10509.2024,W,2,11,1.0,1716.9,M,-20.8,M,2.0,0000*7F
$GPGSA,M,3,17,28,30,19,01,13,11,07,18,06,51,,1.7,1.0,1.4*34
$GPRMC,140742.000,A,3947.6507,N,10509.2024,W,0.00,57.86,080818,,,D*4C
$GPGGA,140743.000,3947.6507,N,10509.2024,W,2,11,1.0,1716.9,M,-20.8,M,2.0,0000*7E
$GPGSA,M,3,17,28,30,19,01,13,11,07,18,06,51,,1.7,1.0,1.4*34
$GPRMC,140743.000,A,3947.6507,N,10509.2024,W,0.00,57.86,080818,,,D*4D
$GPGGA,140744.000,3947.6507,N,10509.2024,W,2,11,1.0,1716.9,M,-20.8,M,2.0,0000*79
$GPGSA,M,3,17,28,30,19,01,13,11,07,18,06,51,,1.7,1.0,1.4*34
$GPRMC,140744.000,A,3947.6507,N,10509.2024,W,0.00,57.86,080818,,,D*4A
$GPGGA,140745.000,3947.6507,N,10509.2024,W,2,11,1.0,1716.9,M,-20.8,M,1.0,0000*7B
$GPGSA,M,3,17,28,30,19,01,13,11,07,18,06,51,,1.7,1.0,1.4*34
$GPRMC,140745.000,A,3947.6507,N,10509.2024,W,0.00,57.86,080818,,,D*4B
$GPGGA,140746.000,3947.6507,N,10509.2024,W,2,11,1.0,1716.9,M,-20.8,M,2.0,0000*7B
$GPGSA,M,3,17,28,30,19,01,13,11,07,18,06,51,,1.7,1.0,1.4*34
$GPGSV,3,1,12,17,69,235,30,28,65,036,35,30,51,152,45,19,38,227,38*73
$GPGSV,3,2,12,01,36,068,34,13,33,260,32,11,30,053,32,07,20,146,42*75
$GPGSV,3,3,12,18,19,046,27,06,07,181,32,51,43,183,45,15,17,292,17*71
$GPRMC,140746.000,A,3947.6507,N,10509.2024,W,0.00,57.86,080818,,,D*48
$GPGGA,140747.000,3947.6507,N,10509.2024,W,2,11,1.0,1716.9,M,-20.8,M,3.0,0000*7B
$GPGSA,M,3,17,28,30,19,01,13,11,07,18,06,51,,1.7,1.0,1.4*34
$GPRMC,140747.000,A,3947.6507,N,10509.2024,W,0.00,57.86,080818,,,D*49
$GPGGA,140748.000,3947.6507,N,10509.2024,W,2,11,1.0,1716.9,M,-20.8,M,2.0,0000*75
$GPGSA,M,3,17,28,30,19,01,13,11,07,18,06,51,,1.7,1.0,1.4*34
$GPRMC,140748.000,A,3947.6507,N,10509.2024,W,0.00,57.86,080818,,,D*46
$GPGGA,140749.000,3947.6507,N,10509.2024,W,2,11,1.0,1716.9,M,-20.8,M,2.0,0000*74
$GPGSA,M,3,17,28,30,19,01,13,11,07,18,06,51,,1.7,1.0,1.4*34
$GPRMC,140749.000,A,3947.6507,N,10509.2024,W,0.00,57.86,080818,,,D*47
$GPGGA,140750.000,3947.6507,N,10509.2024,W,2,11,1.0,1716.9,M,-20.8,M,2.0,0000*7C
$GPGSA,M,3,17,28,30,19,01,13,11,07,18,06,51,,1.7,1.0,1.4*34
$GPRMC,140750.000,A,3947.6507,N,10509.2024,W,0.00,57.86,080818,,,D*4F
$GPGGA,140751.000,3947.6507,N,10509.2024,W,2,11,1.0,1716.9,M,-20.8,M,3.0,0000*7C
$GPGSA,M,3,17,28,30,19,01,13,11,07,18,06,51,,1.7,1.0,1.4*34
$GPGSV,3,1,12,17,69,235,30,28,65,036,35,30,51,152,44,19,38,227,39*73
$GPGSV,3,2,12,01,36,068,33,13,33,260,32,11,30,053,32,07,20,146,42*72
$GPGSV,3,3,12,18,19,046,28,06,07,181,32,51,43,183,45,15,17,292,*78
$GPRMC,140751.000,A,3947.6507,N,10509.2024,W,0.00,57.86,080818,,,D*4E
$GPGGA,140752.000,3947.6507,N,10509.2025,W,2,11,1.0,1716.9,M,-20.8,M,4.0,0000*79
$GPGSA,M,3,17,28,30,19,01,13,11,07,18,06,51,,1.7,1.0,1.4*34
$GPRMC,140752.000,A,3947.6507,N,10509.2025,W,0.00,57.86,080818,,,D*4C
$GPGGA,140753.000,3947.6507,N,10509.2025,W,2,11,1.0,1716.9,M,-20.8,M,5.0,0000*79
$GPGSA,M,3,17,28,30,19,01,13,11,07,18,06,51,,1.7,1.0,1.4*34
$GPRMC,140753.000,A,3947.6507,N,10509.2025,W,0.00,57.86,080818,,,D*4D
$GPGGA,140754.000,3947.6507,N,10509.2025,W,2,11,1.0,1716.9,M,-20.8,M,2.0,0000*79
$GPGSA,M,3,17,28,30,19,01,13,11,07,18,06,51,,1.7,1.0,1.4*34
$GPRMC,140754.000,A,3947.6507,N,10509.2025,W,0.00,57.86,080818,,,D*4A
$GPGGA,140755.000,3947.6507,N,10509.2025,W,2,11,1.0,1716.9,M,-20.8,M,2.0,0000*78
$GPGSA,M,3,17,28,30,19,01,13,11,07,18,06,51,,1.7,1.0,1.4*34
$GPRMC,140755.000,A,3947.6507,N,10509.2025,W,0.00,57.86,080818,,,D*4B
$GPGGA,140756.000,3947.6507,N,10509.2025,W,2,11,1.0,1716.9,M,-20.8,M,2.0,0000*7B
$GPGSA,M,3,17,28,30,19,01,13,11,07,18,06,51,,1.7,1.0,1.4*34
$GPGSV,3,1,12,17,69,235,29,28,65,036,35,30,51,152,44,19,38,227,39*7B
$GPGSV,3,2,12,01,36,068,33,13,33,260,32,11,30,053,32,07,20,146,42*72
$GPGSV,3,3,12,18,19,046,28,06,07,181,32,51,43,183,45,15,17,292,*78
$GPRMC,140756.000,A,3947.6507,N,10509.2025,W,0.00,57.86,080818,,,D*48
$GPGGA,140757.000,3947.6507,N,10509.2025,W,2,11,1.0,1716.9,M,-20.8,M,3.0,0000*7B
$GPGSA,M,3,17,28,30,19,01,13,11,07,18,06,51,,1.7,1.0,1.4*34
$GPRMC,140757.000,A,3947.6507,N,10509.2025,W,0.00,57.86,080818,,,D*49
$GPGGA,140758.000,3947.6507,N,10509.2025,W,2,11,1.0,1716.9,M,-20.8,M,4.0,0000*73
$GPGSA,M,3,17,28,30,19,01,13,11,07,18,06,51,,1.7,1.0,1.4*34
$GPRMC,140758.000,A,3947.6507,N,10509.2025,W,0.00,57.86,080818,,,D*46
$GPGGA,140759.000,3947.6507,N,10509.2025,W,2,11,1.0,1716.9,M,-20.8,M,5.0,0000*73
$GPGSA,M,3,17,28,30,19,01,13,11,07,18,06,51,,1.7,1.0,1.4*34
$GPRMC,140759.000,A,3947.6507,N,10509.2025,W,0.00,57.86,080818,,,D*47
$GPGGA,140800.000,3947.6507,N,10509.2025,W,2,11,1.0,1716.9,M,-20.8,M,2.0,0000*77
$GPGSA,M,3,17,28,30,19,01,13,11,07,18,06,51,,1.7,1.0,1.4*34
$GPRMC,140800.000,A,3947.6507,N,10509.2025,W,0.00,57.86,080818,,,D*44
$GPGGA,140801.000,3947.6507,N,10509.2025,W,2,11,1.0,1716.9,M,-20.8,M,2.0,0000*76
$GPGSA,M,3,17,28,30,19,01,13,11,07,18,06,51,,1.7,1.0,1.4*34
$GPGSV,3,1,12,17,69,235,23,28,65,036,35,30,51,152,44,19,38,227,38*70
$GPGSV,3,2,12,01,36,068,33,13,33,260,31,11,30,053,32,07,20,146,41*72
$GPGSV,3,3,12,18,19,046,27,06,07,181,32,51,43,183,45,15,17,292,*77
$GPRMC,140801.000,A,3947.6507,N,10509.2025,W,0.00,57.86,080818,,,D*45
$GPGGA,140802.000,3947.6507,N,10509.2025,W,2,11,1.0,1716.9,M,-20.8,M,2.0,0000*75
$GPGSA,M,3,17,28,30,19,01,13,11,07,18,06,51,,1.7,1.0,1.4*34
$GPRMC,140802.000,A,3947.6507,N,10509.2025,W,0.00,57.86,080818,,,D*46
$GPGGA,140803.000,3947.6507,N,10509.2025,W,2,11,1.0,1716.9,M,-20.8,M,2.0,0000*74
$GPGSA,M,3,17,28,30,19,01,13,11,07,18,06,51,,1.7,1.0,1.4*34
$GPRMC,140803.000,A,3947.6507,N,10509.2025,W,0.00,57.86,080818,,,D*47
$GPGGA,140804.000,3947.6507,N,10509.2025,W,2,11,1.0,1716.9,M,-20.8,M,3.0,0000*72
$GPGSA,M,3,17,28,30,19,01,13,11,07,18,06,51,,1.7,1.0,1.4*34
$GPRMC,140804.000,A,3947.6507,N,10509.2025,W,0.00,57.86,080818,,,D*40
$GPGGA,140805.000,3947.6507,N,10509.2025,W,2,11,1.0,1716.9,M,-20.8,M,4.0,0000*74
$GPGSA,M,3,17,28,30,19,01,13,11,07,18,06,51,,1.7,1.0,1.4*34
$GPRMC,140805.000,A,3947.6507,N,10509.2025,W,0.00,57.86,080818,,,D*41
$GPGGA,140806.000,3947.6507,N,10509.2025,W,2,11,1.0,1716.9,M,-20.8,M,2.0,0000*71
$GPGSA,M,3,17,28,30,19,01,13,11,07,18,06,51,,1.7,1.0,1.4*34
$GPGSV,3,1,12,17,69,235,18,28,65,036,35,30,51,152,44,19,38,227,38*78
$GPGSV,3,2,12,01,36,068,33,13,33,260,31,11,30,053,32,07,20,146,41*72
$GPGSV,3,3,12,18,19,046,26,06,07,181,32,51,43,183,45,15,17,292,*76
$GPRMC,140806.000,A,3947.6507,N,10509.2025,W,0.00,57.86,080818,,,D*42
$GPGGA,140807.000,3947.6507,N,10509.2025,W,2,11,1.0,1716.9,M,-20.8,M,2.0,0000*70
$GPGSA,M,3,17,28,30,19,01,13,11,07,18,06,51,,1.7,1.0,1.4*34
$GPRMC,140807.000,A,3947.6507,N,10509.2025,W,0.00,57.86,080818,,,D*43
$GPGGA,140808.000,3947.6507,N,10509.2025,W,2,11,1.0,1716.9,M,-20.8,M,2.0,0000*7F
$GPGSA,M,3,17,28,30,19,01,13,11,07,18,06,51,,1.7,1.0,1.4*34
$GPRMC,140808.000,A,3947.6507,N,10509.2025,W,0.00,57.86,080818,,,D*4C
$GPGGA,140809.000,3947.6507,N,10509.2025,W,2,11,1.0,1716.9,M,-20.8,M,2.0,0000*7E
$GPGSA,M,3,17,28,30,19,01,13,11,07,18,06,51,,1.7,1.0,1.4*34
$GPRMC,140809.000,A,3947.6507,N,10509.2025,W,0.00,57.86,080818,,,D*4D
$GPGGA,140810.000,3947.6508,N,10509.2025,W,2,11,1.0,1716.9,M,-20.8,M,3.0,0000*78
$GPGSA,M,3,17,28,30,19,01,13,11,07,18,06,51,,1.7,1.0,1.4*34
$GPRMC,140810.000,A,3947.6508,N,10509.2025,W,0.00,57.86,080818,,,D*4A
$GPGGA,140811.000,3947.6508,N,10509.2025,W,2,11,1.0,1716.9,M,-20.8,M,4.0,0000*7E
$GPGSA,M,3,17,28,30,19,01,13,11,07,18,06,51,,1.7,1.0,1.4*34
$GPGSV,3,1,12,17,69,235,24,28,65,036,35,30,51,152,43,19,38,227,38*70
$GPGSV,3,2,12,01,36,068,33,13,33,260,31,11,30,053,31,07,20,146,41*71
$GPGSV,3,3,12,18,19,046,26,06,07,181,32,51,43,183,45,15,17,292,*76
$GPRMC,140811.000,A,3947.6508,N,10509.2025,W,0.00,57.86,080818,,,D*4B
$GPGGA,140812.000,3947.6508,N,10509.2025,W,2,11,1.0,1716.9,M,-20.8,M,2.0,0000*7B
$GPGSA,M,3,17,28,30,19,01,13,11,07,18,06,51,,1.7,1.0,1.4*34
$GPGGA,141038.000,3947.6513,N,10509.2027,W,2,11,1.0,1716.1,M,-20.8,M,2.0,0000*7A
$GPGSA,M,3,17,28,30,19,01,13,11,07,18,06,51,,1.7,1.0,1.4*34
$GPRMC,141038.000,A,3947.6513,N,10509.2027,W,0.00,57.86,080818,,,D*41
$GPGGA,141039.000,3947.6513,N,10509.2027,W,2,11,1.0,1716.1,M,-20.8,M,3.0,0000*7A
$GPGSA,M,3,17,28,30,19,01,13,11,07,18,06,51,,1.7,1.0,1.4*34
$GPRMC,141039.000,A,3947.6513,N,10509.2027,W,0.00,57.86,080818,,,D*40
$GPGGA,141053.000,3947.6513,N,10509.2027,W,2,10,1.0,1716.1,M,-20.8,M,3.0,0000*77
$GPGSA,M,3,17,28,30,19,01,13,07,18,06,51,,,1.7,1.0,1.4*34
$GPRMC,141053.000,A,3947.6513,N,10509.2027,W,0.00,57.86,080818,,,D*4C
$GPGGA,141054.000,3947.6513,N,10509.2027,W,2,10,1.0,1716.1,M,-20.8,M,2.0,0000*71
$GPGSA,M,3,17,28,30,19,01,13,07,18,06,51,,,1.7,1.0,1.4*34
$GPRMC,141802.000,A,3947.6518,N,10509.2021,W,0.00,57.86,080818,,,D*4D
$GPGGA,141803.000,3947.6518,N,10509.2021,W,2,12,0.8,1716.2,M,-20.8,M,2.0,0000*7E
$GPGSA,M,3,17,28,30,19,01,13,11,18,07,15,06,51,1.4,0.8,1.2*3C
$GPGSV,3,1,12,17,73,243,35,28,63,044,38,30,46,154,41,19,42,230,39*7C
$GPGSV,3,2,12,01,35,063,32,13,31,256,34,11,27,050,32,18,17,043,29*7C
$GPGSV,3,3,12,07,16,147,41,15,15,293,23,06,11,181,32,51,43,183,44*72
$GPRMC,141803.000,A,3947.6518,N,10509.2021,W,0.00,57.86,080818,,,D*4C
$GPGGA,141804.000,3947.6518,N,10509.2021,W,2,12,0.8,1716.2,M,-20.8,M,2.0,0000*79
$GPGGA,141820.000,3947.6518,N,10509.2021,W,2,12,0.8,1716.3,M,-20.8,M,4.0,0000*78
$GPGSA,M,3,17,28,30,19,01,13,11,18,07,15,06,51,1.4,0.8,1.2*3C
$GPRMC,141820.000,A,3947.6518,N,10509.2021,W,0.00,57.86,080818,,,D*4D
$GPGGA,141821.000,3947.6518,N,10509.2021,W,2,12,0.8,1716.3,M,-20.8,M,2.0,0000*7F
$GPGSA,M,3,17,28,30,19,01,13,11,18,07,15,06,51,1.4,0.8,1.2*3C
$GPGSV,3,2,12,01,35,063,30,13,31,256,34,11,27,050,33,18,17,043,28*7E
$GPGSV,3,3,12,07,16,147,41,15,15,293,24,06,11,181,31,51,43,183,45*77
$GPRMC,141838.000,A,3947.6517,N,10509.2021,W,0.00,57.86,080818,,,D*4B
$GPGGA,141839.000,3947.6517,N,10509.2021,W,2,12,0.8,1716.4,M,-20.8,M,2.0,0000*7E
$GPGSA,M,3,17,28,30,19,01,13,11,18,07,15,06,51,1.4,0.8,1.2*3C
$GPRMC,141839.000,A,3947.6517,N,10509.2021,W,0.00,57.86,080818,,,D*4A
$GPGGA,141856.000,3947.6517,N,10509.2020,W,2,12,0.8,1716.4,M,-20.8,M,5.0,0000*71
$GPGSA,M,3,17,28,30,19,01,13,11,18,07,15,06,51,1.4,0.8,1.2*3C
$GPRMC,141856.000,A,3947.6517,N,10509.2020,W,0.00,57.86,080818,,,D*42
$GPGGA,141857.000,3947.6517,N,10509.2020,W,2,12,0.8,1716.4,M,-20.8,M,2.0,0000*77
$GPGGA,142002.000,3947.6516,N,10509.2019,W,2,12,0.8,1716.4,M,-20.8,M,4.0,0000*71
$GPGSA,M,3,17,28,30,19,01,13,11,18,15,07,06,51,1.4,0.8,1.2*3C
$GPRMC,142002.000,A,3947.6516,N,10509.2019,W,0.00,57.86,080818,,,D*43
$GPGGA,142003.000,3947.6516,N,10509.2019,W,2,12,0.8,1716.4,M,-20.8,M,2.0,0000*76
$GPGSA,M,3,17,28,30,19,01,13,11,18,15,07,06,51,1.4,0.8,1.2*3C
$GPGSV,3,1,12,17,74,246,36,28,62,047,35,30,45,154,44,19,43,231,40*7A
$GPGSA,M,3,17,28,30,19,01,13,11,18,15,07,06,51,1.4,0.8,1.2*3C
$GPRMC,142016.000,A,3947.6515,N,10509.2019,W,0.00,57.86,080818,,,D*45
$GPGGA,142017.000,3947.6515,N,10509.2019,W,2,12,0.8,1716.4,M,-20.8,M,2.0,0000*70
$GPGSA,M,3,17,28,30,19,01,13,11,18,15,07,06,51,1.4,0.8,1.2*3C
$GPRMC,142017.000,A,3947.6515,N,10509.2019,W,0.00,57.86,080818,,,D*44
$GPGGA,142236.000,3947.6513,N,10509.2018,W,2,12,0.8,1716.2,M,-20.8,M,3.0,0000*71
$GPGSA,M,3,17,28,30,19,01,13,11,18,15,07,06,51,1.4,0.8,1.2*3C
$GPRMC,142236.000,A,3947.6513,N,10509.2018,W,0.00,57.86,080818,,,D*42
$GPGGA,142237.000,3947.6513,N,10509.2018,W,2,12,0.8,1716.2,M,-20.8,M,4.0,0000*77
$GPGSA,M,3,17,28,30,19,01,13,11,18,15,07,06,51,1.4,0.8,1.2*3C
$GPRMC,142237.000,A,3947.6513,N,10509.2018,W,0.00,57.86,080818,,,D*43
$GPGGA,142315.000,3947.6513,N,10509.2017,W,2,11,0.8,1716.2,M,-20.8,M,2.0,0000*7C
