$GNRMC,162001.00,A,3947.65583,N,10509.20261,W,0.003,,270523,,,A,V*0E\r\n
$GNVTG,,T,,M,0.003,N,0.005,K,A*3B\r\n
$GNGGA,162001.00,3947.65583,N,10509.20261,W,1,12,0.79,1709.4,M,-21.5,M,,*47\r\n
$GNGSA,A,3,12,24,19,14,17,11,06,,,,,,1.33,0.79,1.07,1*00\r\n
$GNGSA,A,3,11,24,02,25,36,,,,,,,,1.33,0.79,1.07,3*0C\r\n
$GNGSA,A,3,36,29,30,45,46,,,,,,,,1.33,0.79,1.07,4*03\r\n
$GNGSA,A,3,,,,,,,,,,,,,1.33,0.79,1.07,5*0C\r\n
$GPGSV,3,1,11,03,14,058,06,06,67,160,40,11,27,198,40,12,18,305,18,1*6B\r\n
$GPGSV,3,2,11,14,29,115,26,17,49,049,30,19,70,015,28,24,41,284,15,1*67\r\n
$GPGSV,3,3,11,44,42,198,38,46,38,215,38,48,40,209,38,1*55\r\n
$GAGSV,2,1,05,02,57,316,24,11,58,059,32,24,14,121,24,25,67,105,42,1*72\r\n
$GAGSV,2,2,05,36,61,184,39,1*45\r\n
$GAGSV,2,1,05,02,57,316,31,11,58,059,28,24,14,121,21,25,67,105,35,7*7E\r\n
$GAGSV,2,2,05,36,61,184,35,7*4F\r\n
$GAGSV,2,1,06,07,00,316,,08,02,269,,10,31,044,,12,08,038,,0*76\r\n
$GAGSV,2,2,06,30,06,306,,34,12,208,,0*7C\r\n
$GBGSV,2,1,06,27,09,052,13,29,60,247,38,30,59,044,30,36,61,173,35,3*72\r\n
$GBGSV,2,2,06,45,53,301,27,46,15,149,23,3*79\r\n
$GBGSV,2,1,06,27,09,052,29,29,60,247,37,30,59,044,31,36,61,173,43,5*72\r\n
$GBGSV,2,2,06,45,53,301,25,46,15,149,31,5*7E\r\n
$GBGSV,1,1,02,26,03,320,,35,07,237,,0*74\r\n
$GQGSV,1,1,00,0*64\r\n
$GNGLL,3947.65583,N,10509.20261,W,162001.00,A,A*6F\r\n
$GNZDA,162001.00,27,05,2023,00,00*7F\r\n
$GNRMC,162002.00,A,3947.65583,N,10509.20261,W,0.003,,270523,,,A,V*0D\r\n
$GNVTG,,T,,M,0.003,N,0.005,K,A*3B\r\n
$GNGGA,162002.00,3947.65583,N,10509.20261,W,1,12,0.75,1709.4,M,-21.5,M,,*48\r\n
$GNGSA,A,3,12,24,19,14,17,03,11,06,,,,,1.23,0.75,0.97,1*06\r\n
$GNGSA,A,3,11,24,02,25,36,,,,,,,,1.23,0.75,0.97,3*09\r\n
$GNGSA,A,3,36,29,30,45,46,,,,,,,,1.23,0.75,0.97,4*06\r\n
$GNGSA,A,3,,,,,,,,,,,,,1.23,0.75,0.97,5*09\r\n
$GPGSV,3,1,11,03,14,058,14,06,67,160,40,11,27,198,40,12,18,305,18,1*68\r\n
$GPGSV,3,2,11,14,29,115,26,17,49,049,30,19,70,015,27,24,41,284,15,1*68\r\n
$GPGSV,3,3,11,44,42,198,38,46,38,215,38,48,40,209,38,1*55\r\n
$GAGSV,2,1,05,02,57,316,24,11,58,059,32,24,14,121,24,25,67,105,42,1*72\r\n
$GAGSV,2,2,05,36,61,184,39,1*45\r\n
$GAGSV,2,1,05,02,57,316,31,11,58,059,28,24,14,121,22,25,67,105,35,7*7D\r\n
$GAGSV,2,2,05,36,61,184,35,7*4F\r\n
$GAGSV,2,1,06,07,00,316,,08,02,269,,10,31,044,,12,08,038,,0*76\r\n
$GAGSV,2,2,06,30,06,306,,34,12,208,,0*7C\r\n
$GBGSV,2,1,06,27,09,052,09,29,60,247,38,30,59,044,30,36,61,173,35,3*79\r\n
$GBGSV,2,2,06,45,53,301,27,46,15,149,23,3*79\r\n
$GBGSV,2,1,06,27,09,052,29,29,60,247,38,30,59,044,31,36,61,173,43,5*7D\r\n
$GBGSV,2,2,06,45,53,301,25,46,15,149,31,5*7E\r\n
$GBGSV,1,1,02,26,03,320,,35,07,237,,0*74\r\n
$GQGSV,1,1,00,0*64\r\n
$GNGLL,3947.65583,N,10509.20261,W,162002.00,A,A*6C\r\n
$GNZDA,162002.00,27,05,2023,00,00*7C\r\n
$GNRMC,162003.00,A,3947.65583,N,10509.20261,W,0.003,,270523,,,A,V*0C\r\n
$GNVTG,,T,,M,0.003,N,0.005,K,A*3B\r\n
$GNGGA,162003.00,3947.65583,N,10509.20261,W,1,12,0.79,1709.4,M,-21.5,M,,*45\r\n
$GNGSA,A,3,12,24,19,14,17,03,11,06,,,,,1.33,0.79,1.07,1*03\r\n
$GNGSA,A,3,11,24,02,25,36,,,,,,,,1.33,0.79,1.07,3*0C\r\n
$GNGSA,A,3,36,29,30,45,46,,,,,,,,1.33,0.79,1.07,4*03\r\n
$GNGSA,A,3,,,,,,,,,,,,,1.33,0.79,1.07,5*0C\r\n
$GPGSV,3,1,11,03,14,058,10,06,67,160,40,11,27,198,40,12,18,305,18,1*6C\r\n
$GPGSV,3,2,11,14,29,115,26,17,49,049,30,19,70,015,27,24,41,284,16,1*6B\r\n
$GPGSV,3,3,11,44,42,198,38,46,38,215,38,48,40,209,38,1*55\r\n
$GAGSV,2,1,05,02,57,316,25,11,58,059,32,24,14,121,24,25,67,105,41,1*70\r\n
$GAGSV,2,2,05,36,61,184,39,1*45\r\n
$GAGSV,2,1,05,02,57,316,31,11,58,059,28,24,14,121,22,25,67,105,35,7*7D\r\n
$GAGSV,2,2,05,36,61,184,35,7*4F\r\n
$GAGSV,2,1,06,07,00,316,,08,02,269,,10,31,044,,12,08,038,,0*76\r\n
$GAGSV,2,2,06,30,06,306,,34,12,208,,0*7C\r\n
$GBGSV,2,1,06,27,09,052,08,29,60,247,38,30,59,044,30,36,61,173,34,3*79\r\n
$GBGSV,2,2,06,45,53,301,27,46,15,149,23,3*79\r\n
$GBGSV,2,1,06,27,09,052,29,29,60,247,37,30,59,044,31,36,61,173,43,5*72\r\n
$GBGSV,2,2,06,45,53,301,25,46,15,149,31,5*7E\r\n
$GBGSV,1,1,02,26,03,320,,35,07,237,,0*74\r\n
$GQGSV,1,1,00,0*64\r\n
$GNGLL,3947.65583,N,10509.20261,W,162003.00,A,A*6D\r\n
$GNZDA,162003.00,27,05,2023,00,00*7D\r\n
$GNRMC,162004.00,A,3947.65583,N,10509.20262,W,0.003,,270523,,,A,V*08\r\n
$GNVTG,,T,,M,0.003,N,0.005,K,A*3B\r\n
$GNGGA,162004.00,3947.65583,N,10509.20262,W,1,12,0.72,1709.5,M,-21.5,M,,*4B\r\n
$GNGSA,A,3,12,24,19,14,17,03,11,06,,,,,1.20,0.72,0.96,1*03\r\n
$GNGSA,A,3,11,24,02,25,36,,,,,,,,1.20,0.72,0.96,3*0C\r\n
$GNGSA,A,3,36,29,30,45,46,,,,,,,,1.20,0.72,0.96,4*03\r\n
$GNGSA,A,3,,,,,,,,,,,,,1.20,0.72,0.96,5*0C\r\n
$GPGSV,3,1,11,03,14,058,11,06,67,160,40,11,27,198,40,12,18,305,18,1*6D\r\n
$GPGSV,3,2,11,14,29,115,26,17,49,049,30,19,70,015,27,24,41,284,16,1*6B\r\n
$GPGSV,3,3,11,44,42,198,38,46,38,215,38,48,40,209,38,1*55\r\n
$GAGSV,2,1,05,02,57,316,25,11,57,059,32,24,14,121,24,25,67,105,42,1*7C\r\n
$GAGSV,2,2,05,36,61,184,39,1*45\r\n
$GAGSV,2,1,05,02,57,316,31,11,57,059,28,24,14,121,21,25,67,105,35,7*71\r\n
$GAGSV,2,2,05,36,61,184,35,7*4F\r\n
$GAGSV,2,1,06,07,00,316,,08,02,269,,10,31,044,,12,08,038,,0*76\r\n
$GAGSV,2,2,06,30,06,306,,34,12,208,,0*7C\r\n
$GBGSV,2,1,06,27,09,052,10,29,60,247,38,30,59,044,30,36,61,173,34,3*70\r\n
$GBGSV,2,2,06,45,53,301,27,46,15,149,23,3*79\r\n
$GBGSV,2,1,06,27,09,052,29,29,60,247,37,30,59,044,31,36,61,173,43,5*72\r\n
$GBGSV,2,2,06,45,53,301,25,46,15,149,31,5*7E\r\n
$GBGSV,1,1,02,26,03,320,,35,07,237,,0*74\r\n
$GQGSV,1,1,00,0*64\r\n
$GNGLL,3947.65583,N,10509.20262,W,162004.00,A,A*69\r\n
$GNZDA,162004.00,27,05,2023,00,00*7A\r\n
$GNRMC,162005.00,A,3947.65583,N,10509.20262,W,0.003,,270523,,,A,V*09\r\n
$GNVTG,,T,,M,0.003,N,0.005,K,A*3B\r\n
$GNGGA,162005.00,3947.65583,N,10509.20262,W,1,12,0.79,1709.5,M,-21.5,M,,*41\r\n
$GNGSA,A,3,12,24,19,14,17,11,06,,,,,,1.33,0.79,1.07,1*00\r\n
$GNGSA,A,3,11,24,02,25,36,,,,,,,,1.33,0.79,1.07,3*0C\r\n
$GNGSA,A,3,36,29,30,45,46,,,,,,,,1.33,0.79,1.07,4*03\r\n
$GNGSA,A,3,,,,,,,,,,,,,1.33,0.79,1.07,5*0C\r\n
$GPGSV,3,1,11,03,14,058,08,06,67,160,40,11,27,198,40,12,18,305,18,1*65\r\n
$GPGSV,3,2,11,14,29,115,26,17,49,049,30,19,70,015,27,24,41,284,15,1*68\r\n
$GPGSV,3,3,11,44,42,198,38,46,38,215,38,48,40,209,38,1*55\r\n
$GAGSV,2,1,05,02,57,316,25,11,57,059,32,24,14,121,24,25,67,105,42,1*7C\r\n
$GAGSV,2,2,05,36,61,184,39,1*45\r\n
$GAGSV,2,1,05,02,57,316,31,11,57,059,28,24,14,121,21,25,67,105,35,7*71\r\n
$GAGSV,2,2,05,36,61,184,35,7*4F\r\n
$GAGSV,2,1,06,07,00,316,,08,02,269,,10,31,044,,12,07,038,,0*79\r\n
$GAGSV,2,2,06,30,06,306,,34,12,208,,0*7C\r\n
$GBGSV,2,1,06,27,09,052,14,29,60,247,38,30,59,044,30,36,61,173,34,3*74\r\n
$GBGSV,2,2,06,45,53,301,27,46,15,149,23,3*79\r\n
$GBGSV,2,1,06,27,09,052,29,29,60,247,37,30,59,044,31,36,61,173,43,5*72\r\n
$GBGSV,2,2,06,45,53,301,25,46,15,149,31,5*7E\r\n
$GBGSV,1,1,02,26,03,320,,35,07,237,,0*74\r\n
$GQGSV,1,1,00,0*64\r\n
$GNGLL,3947.65583,N,10509.20262,W,162005.00,A,A*68\r\n
$GNZDA,162005.00,27,05,2023,00,00*7B\r\n
$GNRMC,162006.00,A,3947.65582,N,10509.20262,W,0.002,,270523,,,A,V*0A\r\n
$GNVTG,,T,,M,0.002,N,0.005,K,A*3A\r\n
$GNGGA,162006.00,3947.65582,N,10509.20262,W,1,12,0.79,1709.5,M,-21.5,M,,*43\r\n
$GNGSA,A,3,12,24,19,14,17,03,11,06,,,,,1.33,0.79,1.07,1*03\r\n
$GNGSA,A,3,11,24,02,25,36,,,,,,,,1.33,0.79,1.07,3*0C\r\n
$GNGSA,A,3,36,29,30,45,46,,,,,,,,1.33,0.79,1.07,4*03\r\n
$GNGSA,A,3,,,,,,,,,,,,,1.33,0.79,1.07,5*0C\r\n
$GPGSV,3,1,11,03,14,058,10,06,67,160,40,11,27,198,40,12,18,305,19,1*6D\r\n
$GPGSV,3,2,11,14,29,115,26,17,49,049,30,19,70,015,27,24,41,284,15,1*68\r\n
$GPGSV,3,3,11,44,42,198,38,46,38,215,38,48,40,209,38,1*55\r\n
$GAGSV,2,1,05,02,57,316,25,11,57,059,32,24,14,121,24,25,67,105,42,1*7C\r\n
$GAGSV,2,2,05,36,61,184,39,1*45\r\n
$GAGSV,2,1,05,02,57,316,31,11,57,059,28,24,14,121,22,25,67,105,35,7*72\r\n
$GAGSV,2,2,05,36,61,184,35,7*4F\r\n
$GAGSV,2,1,06,07,00,316,,08,02,269,,10,31,044,,12,07,038,,0*79\r\n
$GAGSV,2,2,06,30,06,306,,34,12,208,,0*7C\r\n
$GBGSV,2,1,06,27,09,052,15,29,60,247,38,30,59,044,30,36,61,173,34,3*75\r\n
$GBGSV,2,2,06,45,53,301,27,46,15,149,22,3*78\r\n
$GBGSV,2,1,07,27,09,052,30,29,60,247,37,30,59,044,31,35,07,237,20,5*7E\r\n
$GBGSV,2,2,07,36,61,173,43,45,53,301,25,46,15,149,31,5*4F\r\n
$GBGSV,1,1,01,26,03,320,,0*40\r\n
$GQGSV,1,1,00,0*64\r\n
$GNGLL,3947.65582,N,10509.20262,W,162006.00,A,A*6A\r\n
$GNZDA,162006.00,27,05,2023,00,00*78\r\n
$GNRMC,162007.00,A,3947.65582,N,10509.20262,W,0.002,,270523,,,A,V*0B\r\n
$GNVTG,,T,,M,0.002,N,0.005,K,A*3A\r\n
$GNGGA,162007.00,3947.65582,N,10509.20262,W,1,12,0.72,1709.5,M,-21.5,M,,*49\r\n
$GNGSA,A,3,12,24,19,14,17,03,11,06,,,,,1.20,0.72,0.96,1*03\r\n
$GNGSA,A,3,11,24,02,25,36,,,,,,,,1.20,0.72,0.96,3*0C\r\n
$GNGSA,A,3,36,29,30,45,46,,,,,,,,1.20,0.72,0.96,4*03\r\n
$GNGSA,A,3,,,,,,,,,,,,,1.20,0.72,0.96,5*0C\r\n
$GPGSV,3,1,11,03,14,058,11,06,67,160,39,11,27,198,40,12,18,305,19,1*62\r\n
$GPGSV,3,2,11,14,29,115,26,17,49,049,30,19,70,015,27,24,41,284,15,1*68\r\n
$GPGSV,3,3,11,44,42,198,38,46,38,215,38,48,40,209,38,1*55\r\n
$GAGSV,2,1,05,02,57,316,25,11,57,059,32,24,14,121,24,25,67,105,42,1*7C\r\n
$GAGSV,2,2,05,36,61,184,40,1*4B\r\n
$GAGSV,2,1,05,02,57,316,31,11,57,059,28,24,14,121,21,25,67,105,35,7*71\r\n
$GAGSV,2,2,05,36,61,184,35,7*4F\r\n
$GAGSV,2,1,06,07,00,316,,08,02,269,,10,31,044,,12,07,038,,0*79\r\n
$GAGSV,2,2,06,30,06,306,,34,12,208,,0*7C\r\n
$GBGSV,2,1,06,27,09,052,15,29,60,247,38,30,59,044,30,36,61,173,34,3*75\r\n
$GBGSV,2,2,06,45,53,301,27,46,15,149,23,3*79\r\n
$GBGSV,2,1,07,27,09,052,29,29,60,247,37,30,59,044,31,35,07,237,20,5*76\r\n
$GBGSV,2,2,07,36,61,173,43,45,53,301,25,46,15,149,31,5*4F\r\n
$GBGSV,1,1,01,26,03,320,,0*40\r\n
$GQGSV,1,1,00,0*64\r\n
$GNGLL,3947.65582,N,10509.20262,W,162007.00,A,A*6B\r\n
$GNZDA,162007.00,27,05,2023,00,00*79\r\n
$GNRMC,162008.00,A,3947.65582,N,10509.20262,W,0.002,,270523,,,A,V*04\r\n
$GNVTG,,T,,M,0.002,N,0.004,K,A*3B\r\n
$GNGGA,162008.00,3947.65582,N,10509.20262,W,1,12,0.72,1709.5,M,-21.5,M,,*46\r\n
$GNGSA,A,3,12,24,19,14,17,03,11,06,,,,,1.20,0.72,0.96,1*03\r\n
$GNGSA,A,3,11,24,02,25,36,,,,,,,,1.20,0.72,0.96,3*0C\r\n
$GNGSA,A,3,36,29,30,45,46,,,,,,,,1.20,0.72,0.96,4*03\r\n
$GNGSA,A,3,,,,,,,,,,,,,1.20,0.72,0.96,5*0C\r\n
$GPGSV,3,1,11,03,14,058,11,06,67,160,39,11,27,198,39,12,18,305,19,1*6C\r\n
$GPGSV,3,2,11,14,29,115,26,17,49,049,30,19,70,015,27,24,41,284,15,1*68\r\n
$GPGSV,3,3,11,44,42,198,38,46,38,215,38,48,40,209,38,1*55\r\n
$GAGSV,2,1,05,02,57,316,25,11,57,059,32,24,14,121,23,25,67,105,42,1*7B\r\n
$GAGSV,2,2,05,36,61,184,39,1*45\r\n
$GAGSV,2,1,05,02,57,316,31,11,57,059,28,24,14,121,21,25,67,105,35,7*71\r\n
$GAGSV,2,2,05,36,61,184,35,7*4F\r\n
$GAGSV,2,1,06,07,00,316,,08,02,269,,10,31,044,,12,07,038,,0*79\r\n
$GAGSV,2,2,06,30,06,306,,34,12,208,,0*7C\r\n
$GBGSV,2,1,06,27,09,052,14,29,60,247,38,30,59,044,30,36,61,173,34,3*74\r\n
$GBGSV,2,2,06,45,53,301,27,46,15,149,22,3*78\r\n
$GBGSV,2,1,07,27,09,052,29,29,60,247,37,30,59,044,31,35,07,237,19,5*7C\r\n
$GBGSV,2,2,07,36,61,173,43,45,53,301,25,46,15,149,31,5*4F\r\n
$GBGSV,1,1,01,26,03,320,,0*40\r\n
$GQGSV,1,1,00,0*64\r\n
$GNGLL,3947.65582,N,10509.20262,W,162008.00,A,A*64\r\n
$GNZDA,162008.00,27,05,2023,00,00*76\r\n
$GNRMC,162009.00,A,3947.65582,N,10509.20262,W,0.002,,270523,,,A,V*05\r\n
$GNVTG,,T,,M,0.002,N,0.004,K,A*3B\r\n
$GNGGA,162009.00,3947.65582,N,10509.20262,W,1,12,0.79,1709.5,M,-21.5,M,,*4C\r\n
$GNGSA,A,3,12,24,19,14,17,03,11,06,,,,,1.33,0.79,1.07,1*03\r\n
$GNGSA,A,3,11,24,02,25,36,,,,,,,,1.33,0.79,1.07,3*0C\r\n
$GNGSA,A,3,36,29,30,45,46,,,,,,,,1.33,0.79,1.07,4*03\r\n
$GNGSA,A,3,,,,,,,,,,,,,1.33,0.79,1.07,5*0C\r\n
$GPGSV,3,1,11,03,14,058,11,06,67,160,40,11,27,198,39,12,18,305,19,1*62\r\n
$GPGSV,3,2,11,14,29,115,26,17,49,049,30,19,70,015,26,24,41,284,16,1*6A\r\n
$GPGSV,3,3,11,44,42,198,38,46,38,215,38,48,40,209,38,1*55\r\n
$GAGSV,2,1,05,02,57,316,25,11,57,059,32,24,14,121,23,25,67,105,42,1*7B\r\n
$GAGSV,2,2,05,36,61,184,39,1*45\r\n
$GAGSV,2,1,05,02,57,316,31,11,57,059,28,24,14,121,22,25,67,105,35,7*72\r\n
$GAGSV,2,2,05,36,61,184,35,7*4F\r\n
$GAGSV,2,1,06,07,00,316,,08,02,269,,10,31,044,,12,07,038,,0*79\r\n
$GAGSV,2,2,06,30,06,306,,34,12,208,,0*7C\r\n
$GBGSV,2,1,06,27,09,052,14,29,60,247,38,30,59,044,30,36,61,173,34,3*74\r\n
$GBGSV,2,2,06,45,53,301,27,46,15,149,22,3*78\r\n
$GBGSV,2,1,07,27,09,052,29,29,60,247,38,30,59,044,31,35,07,237,19,5*73\r\n
$GBGSV,2,2,07,36,61,173,43,45,53,301,25,46,15,149,31,5*4F\r\n
$GBGSV,1,1,01,26,03,320,,0*40\r\n
$GQGSV,1,1,00,0*64\r\n
$GNGLL,3947.65582,N,10509.20262,W,162009.00,A,A*65\r\n
$GNZDA,162009.00,27,05,2023,00,00*77\r\n
$GNRMC,162010.00,A,3947.65582,N,10509.20262,W,0.002,,270523,,,A,V*0D\r\n
$GNVTG,,T,,M,0.002,N,0.004,K,A*3B\r\n
$GNGGA,162010.00,3947.65582,N,10509.20262,W,1,12,0.72,1709.5,M,-21.5,M,,*4F\r\n
$GNGSA,A,3,12,24,19,14,17,03,11,06,,,,,1.20,0.72,0.96,1*03\r\n
$GNGSA,A,3,11,24,02,25,36,,,,,,,,1.20,0.72,0.96,3*0C\r\n
$GNGSA,A,3,36,29,30,45,46,,,,,,,,1.20,0.72,0.96,4*03\r\n
$GNGSA,A,3,,,,,,,,,,,,,1.20,0.72,0.96,5*0C\r\n
$GPGSV,3,1,11,03,14,058,09,06,67,160,40,11,27,198,39,12,18,305,19,1*6B\r\n
$GPGSV,3,2,11,14,29,115,26,17,49,049,30,19,70,015,27,24,41,284,16,1*6B\r\n
$GPGSV,3,3,11,44,42,198,38,46,38,215,38,48,40,209,38,1*55\r\n
$GAGSV,2,1,05,02,57,316,25,11,57,059,32,24,14,121,24,25,67,105,42,1*7C\r\n
$GAGSV,2,2,05,36,61,184,39,1*45\r\n
$GAGSV,2,1,05,02,57,316,31,11,57,059,28,24,14,121,22,25,67,105,35,7*72\r\n
$GAGSV,2,2,05,36,61,184,35,7*4F\r\n
$GAGSV,2,1,06,07,00,316,,08,02,269,,10,31,044,,12,07,038,,0*79\r\n
$GAGSV,2,2,06,30,06,306,,34,12,208,,0*7C\r\n
$GBGSV,2,1,06,27,09,052,13,29,60,247,38,30,59,044,29,36,61,173,34,3*7B\r\n
$GBGSV,2,2,06,45,53,301,26,46,15,149,22,3*79\r\n
$GBGSV,2,1,07,27,09,052,29,29,60,247,37,30,59,044,31,35,07,237,19,5*7C\r\n
$GBGSV,2,2,07,36,61,173,43,45,53,301,25,46,15,149,31,5*4F\r\n
$GBGSV,1,1,01,26,03,320,,0*40\r\n
$GQGSV,1,1,00,0*64\r\n
$GNGLL,3947.65582,N,10509.20262,W,162010.00,A,A*6D\r\n
$GNZDA,162010.00,27,05,2023,00,00*7F\r\n
