$BDGGA,175302.00,3947.65488,N,10509.19966,W,2,12,0.63,1719.8,M,-21.5,M,,0000*48
$BDGLL,3947.65336,N,10509.20230,W,135629.00,A,D*68
$BDGSA,M,3,201,202,203,204,205,206,207,208,209,,,,1.33,0.63,1.17*1D
$BDGSV,4,1,13,201,72,023,30,202,50,160,43,203,25,055,27,204,04,052,27*70
$BDGSV,4,2,13,205,64,199,42,206,19,098,24,207,01,212,,208,51,296,40*70
$BDGSV,4,3,13,209,24,299,14,210,05,321,24,211,38,215,44,212,36,220,44*71
$BDGSV,4,4,13,213,44,183,41*40
$BDRMC,195043.00,A,3947.65340,N,10509.20314,W,0.088,,270818,,,D*73
$BDVTG,,T,,M,0.088,N,0.163,K,D*3C
$GATXT,01,01,02,GA...........................................................*4E
$GAGGA,175302.00,3947.65488,N,10509.19966,W,2,12,0.63,1719.8,M,-21.5,M,,0000*48
$GAGLL,3947.65336,N,10509.20230,W,135629.00,A,D*68
$GAGSA,M,3,300,301,302,303,304,305,306,307,308,,,,1.33,0.63,1.17*1D
$GAGSV,4,1,13,300,72,023,30,301,50,160,43,302,25,055,27,303,04,052,27*70
$GAGSV,4,2,13,304,64,199,42,305,19,098,24,306,01,212,,307,51,296,40*70
$GAGSV,4,3,13,308,24,299,14,309,05,321,24,310,38,215,44,311,36,220,44*71
$GAGSV,4,4,13,312,44,183,41*40
$GARMC,195043.00,A,3947.65340,N,10509.20314,W,0.088,,270818,,,D*73
$GAVTG,,T,,M,0.088,N,0.163,K,D*3C
$GBTXT,01,01,02,GB...........................................................*4E
$GBGGA,175302.00,3947.65488,N,10509.19966,W,2,12,0.63,1719.8,M,-21.5,M,,0000*48
$GBGLL,3947.65336,N,10509.20230,W,135629.00,A,D*68
$GBGSA,M,3,201,202,203,204,205,206,207,208,209,,,,1.33,0.63,1.17*1D
$GBGSV,4,1,13,201,72,023,30,202,50,160,43,203,25,055,27,204,04,052,27*70
$GBGSV,4,2,13,205,64,199,42,206,19,098,24,207,01,212,,208,51,296,40*70
$GBGSV,4,3,13,209,24,299,14,210,05,321,24,211,38,215,44,212,36,220,44*71
$GBGSV,4,4,13,213,44,183,41*40
$GBRMC,195043.00,A,3947.65340,N,10509.20314,W,0.088,,270818,,,D*73
$GBVTG,,T,,M,0.088,N,0.163,K,D*3C
$GLTXT,01,01,02,GL...........................................................*4E
$GLGGA,175302.00,3947.65488,N,10509.19966,W,2,12,0.63,1719.8,M,-21.5,M,,0000*48
$GLGLL,3947.65336,N,10509.20230,W,135629.00,A,D*68
$GLGSA,M,3,65,66,67,68,69,70,71,72,73,,,,1.33,0.63,1.17*1D
$GLGSV,4,1,13,65,72,023,30,66,50,160,43,67,25,055,27,68,04,052,27*70
$GLGSV,4,2,13,69,64,199,42,70,19,098,24,71,01,212,,72,51,296,40*70
$GLGSV,4,3,13,73,24,299,14,74,05,321,24,75,38,215,44,76,36,220,44*71
$GLGSV,4,4,13,77,44,183,41*40
$GLRMC,195043.00,A,3947.65340,N,10509.20314,W,0.088,,270818,,,D*73
$GLVTG,,T,,M,0.088,N,0.163,K,D*3C
$GNTXT,01,01,02,GN...........................................................*4E
$GNGGA,175302.00,3947.65488,N,10509.19966,W,2,12,0.63,1719.8,M,-21.5,M,,0000*48
$GNGLL,3947.65336,N,10509.20230,W,135629.00,A,D*68
$GNGSA,M,3,02,12,25,05,06,19,29,51,48,,,,1.33,0.63,1.17*1D
$GNGSV,4,1,13,02,72,023,30,05,50,160,43,06,25,055,27,09,04,052,27*70
$GNGSV,4,2,13,12,64,199,42,19,19,098,24,24,01,212,,25,51,296,40*70
$GNGSV,4,3,13,29,24,299,14,31,05,321,24,46,38,215,44,48,36,220,44*71
$GNGSV,4,4,13,51,44,183,41*40
$GNRMC,195043.00,A,3947.65340,N,10509.20314,W,0.088,,270818,,,D*73
$GNVTG,,T,,M,0.088,N,0.163,K,D*3C
$GPTXT,01,01,02,GP...........................................................*4E
$GPGGA,175302.00,3947.65488,N,10509.19966,W,2,12,0.63,1719.8,M,-21.5,M,,0000*48
$GPGLL,3947.65336,N,10509.20230,W,135629.00,A,D*68
$GPGSA,M,3,02,12,25,05,06,19,29,51,48,,,,1.33,0.63,1.17*1D
$GPGSV,4,1,13,02,72,023,30,05,50,160,43,06,25,055,27,09,04,052,27*70
$GPGSV,4,2,13,12,64,199,42,19,19,098,24,24,01,212,,25,51,296,40*70
$GPGSV,4,3,13,29,24,299,14,31,05,321,24,46,38,215,44,48,36,220,44*71
$GPGSV,4,4,13,51,44,183,41*40
$GPRMC,195043.00,A,3947.65340,N,10509.20314,W,0.088,,270818,,,D*73
$GPVTG,,T,,M,0.088,N,0.163,K,D*3C
$LCTXT,01,01,02,LC...........................................................*4E
$LCGGA,175302.00,3947.65488,N,10509.19966,W,2,12,0.63,1719.8,M,-21.5,M,,0000*48
$LCGLL,3947.65336,N,10509.20230,W,135629.00,A,D*68
$LCGSA,M,3,02,12,25,05,06,19,29,51,48,,,,1.33,0.63,1.17*1D
$LCGSV,4,1,13,02,72,023,30,05,50,160,43,06,25,055,27,09,04,052,27*70
$LCGSV,4,2,13,12,64,199,42,19,19,098,24,24,01,212,,25,51,296,40*70
$LCGSV,4,3,13,29,24,299,14,31,05,321,24,46,38,215,44,48,36,220,44*71
$LCGSV,4,4,13,51,44,183,41*40
$LCRMC,195043.00,A,3947.65340,N,10509.20314,W,0.088,,270818,,,D*73
$LCVTG,,T,,M,0.088,N,0.163,K,D*3C
$QZTXT,01,01,02,QZ...........................................................*4E
$QZGGA,175302.00,3947.65488,N,10509.19966,W,2,12,0.63,1719.8,M,-21.5,M,,0000*48
$QZGLL,3947.65336,N,10509.20230,W,135629.00,A,D*68
$QZGSA,M,3,193,194,195,196,197,198,199,200,,,,,1.33,0.63,1.17*1D
$QZGSV,2,1,8,193,72,023,30,194,50,160,43,195,25,055,27,196,04,052,27*70
$QZGSV,2,2,8,197,64,199,42,198,19,098,24,199,01,212,,200,51,296,40*70
$QZRMC,195043.00,A,3947.65340,N,10509.20314,W,0.088,,270818,,,D*73
$QZVTG,,T,,M,0.088,N,0.163,K,D*3C
$XXTXT,01,01,02,XX...........................................................*4E
$XXGGA,175302.00,3947.65488,N,10509.19966,W,2,12,0.63,1719.8,M,-21.5,M,,0000*48
$XXGLL,3947.65336,N,10509.20230,W,135629.00,A,D*68
$XXGSA,M,3,02,12,25,05,06,19,29,51,48,,,,1.33,0.63,1.17*1D
$XXGSV,4,1,13,02,72,023,30,05,50,160,43,06,25,055,27,09,04,052,27*70
$XXGSV,4,2,13,12,64,199,42,19,19,098,24,24,01,212,,25,51,296,40*70
$XXGSV,4,3,13,29,24,299,14,31,05,321,24,46,38,215,44,48,36,220,44*71
$XXGSV,4,4,13,51,44,183,41*40
$XXRMC,195043.00,A,3947.65340,N,10509.20314,W,0.088,,270818,,,D*73
$XXVTG,,T,,M,0.088,N,0.163,K,D*3C
$GNTXT,01,01,02,GA...........................................................*4E
$GNGGA,175302.00,3947.65488,N,10509.19966,W,2,12,0.63,1719.8,M,-21.5,M,,0000*48
$GNGLL,3947.65336,N,10509.20230,W,135629.00,A,D*68
$GNGSA,M,3,300,301,302,303,304,305,306,307,308,,,,1.33,0.63,1.17,3*1D
$GNGSV,4,1,13,02,72,023,30,05,50,160,43,06,25,055,27,09,04,052,27*70
$GNGSV,4,2,13,12,64,199,42,19,19,098,24,24,01,212,,25,51,296,40*70
$GNGSV,4,3,13,29,24,299,14,31,05,321,24,46,38,215,44,48,36,220,44*71
$GNGSV,4,4,13,51,44,183,41*40
$GNRMC,195043.00,A,3947.65340,N,10509.20314,W,0.088,,270818,,,D*73
$GNVTG,,T,,M,0.088,N,0.163,K,D*3C
$GNTXT,01,01,02,GA...........................................................*4E
$GNGGA,175302.00,3947.65488,N,10509.19966,W,2,12,0.63,1719.8,M,-21.5,M,,0000*48
$GNGLL,3947.65336,N,10509.20230,W,135629.00,A,D*68
$GNGSA,M,3,02,12,25,05,06,19,29,51,48,,,,1.33,0.63,1.17*1D
$GNGSV,4,1,13,02,72,023,30,05,50,160,43,06,25,055,27,09,04,052,27*70
$GNGSV,4,2,13,12,64,199,42,19,19,098,24,24,01,212,,25,51,296,40*70
$GNGSV,4,3,13,29,24,299,14,31,05,321,24,46,38,215,44,48,36,220,44*71
$GNGSV,4,4,13,51,44,183,41*40
$GNRMC,195043.00,A,3947.65340,N,10509.20314,W,0.088,,270818,,,D*73
$GNVTG,,T,,M,0.088,N,0.163,K,D*3C
