$GNRMC,172920.00,A,3947.65399,N,10509.20169,W,0.007,,060619,,,A,V*0E
$GNGGA,172920.00,3947.65399,N,10509.20169,W,1,12,0.57,1707.0,M,-21.5,M,,*4C
$GNGSA,A,3,07,13,17,19,01,28,11,15,30,,,,1.09,0.57,0.92,1*07
$GNGSA,A,3,74,84,85,73,83,75,,,,,,,1.09,0.57,0.92,2*0C
$GNGSA,A,3,27,28,30,,,,,,,,,,1.09,0.57,0.92,4*09
$GPGSV,3,1,12,01,36,067,37,06,06,183,32,07,15,145,41,11,31,053,27,1*68
$GPGSV,3,3,12,19,44,227,45,24,01,319,,28,67,027,33,30,46,151,43,1*68
$GPGSV,3,2,12,13,33,260,,15,17,293,17,17,69,234,28,18,19,045,,6*6D
$GLGSV,2,1,08,65,04,282,,66,04,338,19,73,40,111,40,74,70,031,35,1*7D
$GLGSV,2,1,08,65,04,282,,66,04,338,20,73,40,111,38,74,70,031,20,3*7E
$GAGSV,3,1,10,01,39,309,36,04,11,285,11,09,00,331,,13,63,094,32,7*7C
$GAGSV,3,3,10,26,38,182,42,27,28,105,25,7*7C
$GAGSV,3,2,10,15,23,042,32,18,54,058,38,19,07,232,23,21,74,046,34,2*72
$GBGSV,2,2,05,30,39,213,42,1*4C
$GBGSV,2,2,05,30,39,213,,*7B
$GNVTG,,T,,M,0.006,N,0.011,K,A*3B
$GNGGA,172921.00,3947.65400,N,10509.20168,W,1,12,0.55,1707.0,M,-21.5,M,,*49
$GNGSA,A,3,07,13,17,19,01,28,11,15,30,,,,1.03,0.55,0.87,1*0B
$GNGSA,A,3,04,26,13,01,15,21,27,,,,,,1.03,0.55,0.87,3*0F
$GPGSV,3,1,12,01,36,067,37,06,06,183,32,07,15,145,41,11,31,053,27,1*68
$GPGSV,3,3,12,19,44,227,45,24,01,319,,28,67,027,32,30,46,151,43,1*69
$GPGSV,3,2,12,13,33,260,,15,17,293,16,17,69,234,29,18,19,045,,6*6D
$GLGSV,2,1,08,65,04,282,,66,04,338,19,73,40,111,40,74,70,031,35,1*7D
$GLGSV,2,1,08,65,04,282,,66,04,338,20,73,40,111,38,74,70,031,20,3*7E
$GAGSV,3,1,10,01,39,309,35,04,11,285,13,09,00,331,,13,63,094,32,7*7D
$GAGSV,3,2,10,15,23,042,20,18,54,058,24,19,07,232,21,21,74,046,34,7*7B
$GAGSV,3,1,10,01,39,309,32,04,11,285,,09,00,331,,13,63,094,21,2*7F
$GAGSV,3,3,10,26,38,182,39,27,28,105,29,2*79
$GBGSV,2,1,05,06,02,336,,16,00,341,,27,78,096,27,28,28,046,27,1*74
$GBGSV,2,1,05,06,02,336,,16,00,341,,27,78,096,,28,28,046,,*45
$GNGLL,3947.65400,N,10509.20168,W,172921.00,A,A*65
$GNVTG,,T,,M,0.012,N,0.022,K,A*3E
$GNGSA,A,3,07,13,17,19,01,28,11,15,30,,,,1.03,0.55,0.87,1*0B
$GNGSA,A,3,04,26,13,01,15,21,27,,,,,,1.03,0.55,0.87,3*0F
$GNGSA,A,3,27,28,30,,,,,,,,,,1.03,0.55,0.87,4*05
$GPGSV,3,2,12,13,33,260,31,15,17,293,21,17,69,234,24,18,19,045,,1*61
$GPGSV,3,2,12,13,33,260,,15,17,293,16,17,69,234,28,18,19,045,,6*6C
$GLGSV,2,1,08,65,04,282,,66,04,338,19,73,40,111,40,74,70,031,35,1*7D
$GLGSV,2,1,08,65,04,282,,66,04,338,20,73,40,111,38,74,70,031,21,3*7F
$GAGSV,3,1,10,01,39,309,35,04,11,285,13,09,00,331,,13,63,094,31,7*7E
$GAGSV,3,2,10,15,23,042,21,18,53,058,25,19,07,232,21,21,74,046,34,7*7C
$GBGSV,2,1,05,06,02,336,,16,00,341,,27,78,096,27,28,28,046,27,1*74
$GBGSV,2,1,05,06,02,336,,16,00,341,,27,78,096,,28,28,046,,*45
$GNGLL,3947.65400,N,10509.20167,W,172922.00,A,A*69
$GNVTG,,T,,M,0.008,N,0.014,K,A*30
$GNGGA,172923.00,3947.65401,N,10509.20167,W,1,12,0.55,1707.0,M,-21.5,M,,*45
$GNGSA,A,3,07,13,17,19,01,28,11,15,30,,,,1.03,0.55,0.87,1*0B
$GNGSA,A,3,74,84,85,73,83,75,,,,,,,1.03,0.55,0.87,2*00
$GPGSV,3,1,12,01,36,067,37,06,06,183,32,07,15,145,41,11,31,053,28,1*67
$GPGSV,3,2,12,13,33,260,,15,17,293,16,17,69,234,28,18,19,045,,6*6C
$GLGSV,2,1,08,65,04,282,,66,04,338,18,73,40,111,40,74,70,031,34,1*7D
$GLGSV,2,1,08,65,04,282,,66,04,338,20,73,40,111,38,74,70,031,21,3*7F
$GAGSV,3,1,10,01,39,309,35,04,11,285,11,09,00,331,,13,63,094,31,7*7C
$GAGSV,3,3,10,26,38,182,39,27,28,105,29,2*79
$GBGSV,2,2,05,30,39,213,,*7B
$GNRMC,172924.00,A,3947.65402,N,10509.20166,W,0.007,,060619,,,A,V*00
$GNGSA,A,3,74,84,85,73,83,75,,,,,,,1.03,0.55,0.87,2*00
$GNGSA,A,3,04,26,13,01,15,21,27,,,,,,1.03,0.55,0.87,3*0F
$GPGSV,3,1,12,01,36,067,37,06,06,183,32,07,15,145,41,11,31,053,28,1*67
$GLGSV,2,1,08,65,04,282,,66,04,338,18,73,40,111,40,74,70,031,34,1*7D
$GLGSV,2,2,08,75,27,320,32,83,20,030,25,84,76,071,29,85,38,198,39,3*74
$GAGSV,3,2,10,15,23,042,20,18,53,058,26,19,07,232,21,21,74,049,34,7*71
$GAGSV,3,2,10,15,23,042,32,18,53,058,38,19,07,232,24,21,74,049,34,2*7D
$GBGSV,2,1,05,06,02,336,,16,00,341,,27,78,096,27,28,28,046,27,1*74
$GBGSV,2,1,05,06,02,336,,16,00,341,,27,78,096,,28,28,046,,*45
$GNGLL,3947.65402,N,10509.20166,W,172924.00,A,A*6C
$GNVTG,,T,,M,0.017,N,0.031,K,A*39
$GNGSA,A,3,07,13,17,19,01,28,11,15,30,,,,1.03,0.55,0.87,1*0B
$GNGSA,A,3,04,26,13,01,15,21,27,,,,,,1.03,0.55,0.87,3*0F
$GPGSV,3,2,12,13,33,260,31,15,17,293,21,17,69,234,26,18,19,045,,1*63
$GPGSV,3,1,12,01,36,067,25,06,06,183,33,07,15,145,30,11,31,053,,6*6E
$GPGSV,3,2,12,13,33,260,,15,17,293,15,17,69,234,29,18,19,045,,6*6E
$GLGSV,2,1,08,65,04,282,,66,04,338,19,73,40,111,40,74,70,031,33,1*7B
$GLGSV,3,1,09,65,04,282,,66,04,338,19,73,40,111,38,74,70,031,21,3*75
$GLGSV,3,3,09,3*73
$GAGSV,3,2,10,15,23,042,20,18,53,058,26,19,07,232,21,21,74,049,34,7*71
$GAGSV,3,2,10,15,23,042,32,18,53,058,38,19,07,232,23,21,74,049,34,2*7A
$GAGSV,3,3,10,26,38,182,39,27,28,105,29,2*79
$GBGSV,2,2,05,30,39,213,41,1*4F
$GBGSV,2,1,05,06,02,336,,16,00,341,,27,78,096,,28,28,046,,*45
$GNGLL,3947.65402,N,10509.20165,W,172925.00,A,A*6E
$GNRMC,172926.00,A,3947.65402,N,10509.20165,W,0.016,,060619,,,A,V*01
$GNGGA,172926.00,3947.65402,N,10509.20165,W,1,12,0.55,1707.0,M,-21.5,M,,*41
$GNGSA,A,3,07,13,17,19,01,28,11,15,30,,,,1.03,0.55,0.87,1*0B
$GNGSA,A,3,27,28,30,,,,,,,,,,1.03,0.55,0.87,4*05
$GPGSV,3,2,12,13,33,260,31,15,17,293,21,17,69,234,26,18,19,045,,1*63
$GPGSV,3,1,12,01,36,067,25,06,06,183,33,07,15,145,30,11,31,053,,6*6E
$GPGSV,3,3,12,19,44,227,,24,01,319,,28,67,027,,30,46,151,39,6*63
$GLGSV,2,2,08,75,27,320,30,83,20,030,07,84,76,071,23,85,38,198,41,1*71
$GLGSV,3,1,09,65,04,282,,66,04,338,19,73,40,111,38,74,70,031,21,3*75
$GAGSV,3,1,10,01,39,309,36,04,11,285,12,09,00,331,,13,63,094,32,7*7F
$GAGSV,3,3,10,26,38,182,42,27,28,105,26,7*7F
$GAGSV,3,2,10,15,23,042,32,18,53,058,38,19,07,232,24,21,74,049,33,2*7A
$GBGSV,2,1,05,06,02,336,,16,00,341,,27,78,096,27,28,28,046,27,1*74
$GBGSV,2,1,05,06,02,336,,16,00,341,,27,78,096,,28,28,046,,*45
$GNGLL,3947.65402,N,10509.20165,W,172926.00,A,A*6D
$GNVTG,,T,,M,0.023,N,0.042,K,A*3A
$GNGGA,172927.00,3947.65403,N,10509.20165,W,1,12,0.55,1707.0,M,-21.5,M,,*41
$GNGSA,A,3,07,13,17,19,01,28,11,15,30,,,,1.03,0.55,0.87,1*0B
$GNGSA,A,3,74,84,85,73,83,75,,,,,,,1.03,0.55,0.87,2*00
$GNGSA,A,3,27,28,30,,,,,,,,,,1.03,0.55,0.87,4*05
$GPGSV,3,3,12,19,44,227,44,24,01,319,,28,67,027,32,30,46,151,43,1*68
$GPGSV,3,2,12,13,33,260,,15,17,293,17,17,69,234,29,18,19,045,,6*6C
$GPGSV,3,3,12,19,44,227,,24,01,319,,28,67,027,,30,46,151,39,6*63
$GLGSV,2,2,08,75,27,320,31,83,20,030,10,84,76,071,22,85,38,198,41,1*77
$GLGSV,3,2,09,75,27,320,31,83,20,030,25,84,76,071,29,85,38,198,39,3*77
$GAGSV,3,1,10,01,39,309,35,04,11,285,11,09,00,331,,13,63,094,31,7*7C
$GAGSV,3,3,10,26,39,182,42,27,28,105,27,7*7F
$GAGSV,3,2,10,15,23,042,32,18,53,058,38,19,07,232,24,21,74,049,33,2*7A
$GBGSV,2,2,05,30,39,213,41,1*4F
$GBGSV,2,2,05,30,39,213,,*7B
$GNRMC,172928.00,A,3947.65403,N,10509.20165,W,0.008,,060619,,,A,V*01
$GNGGA,172928.00,3947.65403,N,10509.20165,W,1,12,0.55,1707.0,M,-21.5,M,,*4E
$GNGSA,A,3,07,13,17,19,01,28,11,15,30,,,,1.03,0.55,0.87,1*0B
$GNGSA,A,3,74,84,85,73,83,75,,,,,,,1.03,0.55,0.87,2*00
$GNGSA,A,3,04,26,13,01,15,21,27,,,,,,1.03,0.55,0.87,3*0F
$GNGSA,A,3,27,28,30,,,,,,,,,,1.03,0.55,0.87,4*05
$GPGSV,3,2,12,13,33,260,31,15,17,293,20,17,69,234,27,18,19,045,,1*63
$GPGSV,3,1,12,01,36,067,25,06,06,183,33,07,15,145,30,11,31,053,,6*6E
$GPGSV,3,3,12,19,44,227,,24,01,319,,28,67,027,,30,46,151,39,6*63
$GLGSV,2,2,08,75,27,320,31,83,20,030,09,84,76,071,21,85,38,198,41,1*7C
$GLGSV,3,2,09,75,27,320,32,83,20,030,25,84,76,071,29,85,38,198,39,3*74
$GAGSV,3,1,10,01,39,309,35,04,11,285,10,09,00,331,,13,63,094,32,7*7E
$GAGSV,3,3,10,26,39,182,42,27,28,106,26,7*7D
$GAGSV,3,2,10,15,23,042,32,18,53,058,38,19,07,232,24,21,74,049,33,2*7A
$GBGSV,2,1,05,06,02,336,,16,00,341,,27,78,096,27,28,28,046,27,1*74
$GBGSV,2,1,05,06,02,336,,16,00,341,,27,78,096,,28,28,046,,*45
$GNGLL,3947.65403,N,10509.20165,W,172928.00,A,A*62
$GNVTG,,T,,M,0.023,N,0.043,K,A*3B
$GNGGA,172929.00,3947.65403,N,10509.20165,W,1,12,0.55,1707.1,M,-21.5,M,,*4E
$GNGSA,A,3,07,13,17,19,01,28,11,15,30,,,,1.03,0.55,0.87,1*0B
$GNGSA,A,3,04,26,13,01,15,21,27,,,,,,1.03,0.55,0.87,3*0F
$GPGSV,3,1,12,01,36,067,38,06,06,183,33,07,15,145,41,11,31,053,28,1*69
$GPGSV,3,3,12,19,44,227,44,24,01,319,,28,67,027,32,30,46,151,42,1*69
$GPGSV,3,2,12,13,33,260,,15,17,293,16,17,69,234,29,18,19,045,,6*6D
$GLGSV,2,1,08,65,04,282,,66,04,338,21,73,40,111,41,74,70,031,33,1*71
$GAGSV,3,3,10,26,39,182,42,27,28,106,27,7*7C
$GAGSV,3,3,10,26,39,182,39,27,28,106,29,2*7B
$GBGSV,2,1,05,06,02,336,,16,00,341,,27,78,096,,28,28,046,,*45
$GNGLL,3947.65403,N,10509.20165,W,172929.00,A,A*63
$GNRMC,172930.00,A,3947.65404,N,10509.20164,W,0.019,,060619,,,A,V*0E
$GNVTG,,T,,M,0.019,N,0.034,K,A*32
$GNGGA,172930.00,3947.65404,N,10509.20164,W,1,12,0.55,1707.1,M,-21.5,M,,*40
$GNGSA,A,3,07,13,17,19,01,28,11,15,30,,,,1.03,0.55,0.87,1*0B
$GNGSA,A,3,74,84,85,73,83,75,,,,,,,1.03,0.55,0.87,2*00
$GNGSA,A,3,04,26,13,01,15,21,27,,,,,,1.03,0.55,0.87,3*0F
$GNGSA,A,3,27,28,30,,,,,,,,,,1.03,0.55,0.87,4*05
$GPGSV,3,1,12,01,36,067,38,06,06,183,33,07,15,145,41,11,31,053,28,1*69
$GPGSV,3,2,12,13,33,260,31,15,17,293,18,17,69,234,25,18,19,045,23,1*6B
$GPGSV,3,3,12,19,44,227,44,24,01,319,,28,67,027,32,30,46,151,42,1*69
$GPGSV,3,1,12,01,36,067,25,06,06,183,33,07,15,145,30,11,31,053,,6*6E
$GPGSV,3,2,12,13,33,260,,15,17,293,16,17,69,234,29,18,19,045,,6*6D
$GPGSV,3,3,12,19,44,227,,24,01,319,,28,67,027,,30,46,151,39,6*63
$GLGSV,2,1,08,65,04,282,,66,04,338,21,73,40,111,41,74,70,031,33,1*71
$GLGSV,2,2,08,75,27,320,31,83,20,030,12,84,76,071,20,85,38,198,41,1*77
$GLGSV,3,1,09,65,04,282,,66,04,338,19,73,40,111,38,74,70,031,22,3*76
$GLGSV,3,2,09,75,27,320,32,83,20,030,25,84,76,071,29,85,38,198,39,3*74
$GLGSV,3,3,09,3*73
$GAGSV,3,1,10,01,39,309,35,04,11,285,11,09,00,331,,13,63,094,32,7*7F
$GAGSV,3,2,10,15,23,042,19,18,53,058,26,19,07,232,20,21,74,049,34,7*7A
$GAGSV,3,3,10,26,39,182,42,27,28,106,27,7*7C
$GAGSV,3,1,10,01,39,309,32,04,11,285,,09,00,331,,13,63,094,22,2*7C
$GAGSV,3,2,10,15,23,042,32,18,53,058,38,19,07,232,23,21,74,049,34,2*7A
$GAGSV,3,3,10,26,39,182,39,27,28,106,29,2*7B
$GBGSV,2,1,05,06,02,336,,16,00,341,,27,78,096,27,28,28,046,26,1*75
$GBGSV,2,2,05,30,39,213,41,1*4F
$GBGSV,2,1,05,06,02,336,,16,00,341,,27,78,096,,28,28,046,,*45
$GBGSV,2,2,05,30,39,213,,*7B
$GNGLL,3947.65404,N,10509.20164,W,172930.00,A,A*6D
$GNRMC,172931.00,A,3947.65404,N,10509.20163,W,0.014,,060619,,,A,V*05
$GNVTG,,T,,M,0.014,N,0.025,K,A*3F
$GNGGA,172931.00,3947.65404,N,10509.20163,W,1,12,0.55,1707.1,M,-21.5,M,,*46
$GNGSA,A,3,07,13,17,19,01,28,11,15,30,,,,1.03,0.55,0.87,1*0B
$GNGSA,A,3,74,84,85,73,83,75,,,,,,,1.03,0.55,0.87,2*00
$GNGSA,A,3,04,26,13,01,15,21,27,,,,,,1.03,0.55,0.87,3*0F
$GNGSA,A,3,27,28,30,,,,,,,,,,1.03,0.55,0.87,4*05
$GPGSV,3,1,12,01,36,067,37,06,06,183,33,07,15,145,41,11,31,053,28,1*66
$GPGSV,3,2,12,13,33,260,31,15,17,293,16,17,69,234,25,18,19,045,22,1*64
$GPGSV,3,3,12,19,44,227,44,24,01,319,,28,67,027,32,30,46,151,42,1*69
$GPGSV,3,1,12,01,36,067,25,06,06,183,33,07,15,145,30,11,31,053,,6*6E
$GPGSV,3,2,12,13,33,260,,15,17,293,16,17,69,234,29,18,19,045,,6*6D
$GPGSV,3,3,12,19,44,227,,24,01,319,,28,67,027,,30,46,151,39,6*63
$GLGSV,2,1,08,65,04,282,,66,04,338,20,73,40,111,41,74,70,031,33,1*70
$GLGSV,2,2,08,75,27,320,31,83,20,030,12,84,76,071,19,85,38,198,41,1*7D
$GLGSV,3,1,09,65,04,282,,66,04,338,18,73,40,111,38,74,70,031,22,3*77
$GLGSV,3,2,09,75,27,320,32,83,20,030,25,84,76,071,29,85,38,198,39,3*74
$GLGSV,3,3,09,3*73
$GAGSV,3,1,10,01,39,309,35,04,11,285,14,09,00,331,,13,63,094,32,7*7A
$GAGSV,3,2,10,15,23,042,18,18,53,058,26,19,07,232,20,21,74,049,34,7*7B
$GAGSV,3,3,10,26,39,182,42,27,28,106,27,7*7C
$GAGSV,3,1,10,01,39,309,32,04,11,285,,09,00,331,,13,63,094,22,2*7C
$GAGSV,3,2,10,15,23,042,32,18,53,058,38,19,07,232,23,21,74,049,34,2*7A
$GAGSV,3,3,10,26,39,182,39,27,28,106,29,2*7B
$GBGSV,2,1,05,06,02,336,,16,00,341,,27,78,096,27,28,28,046,26,1*75
$GBGSV,2,2,05,30,39,213,42,1*4C
$GBGSV,2,1,05,06,02,336,,16,00,341,,27,78,096,,28,28,046,,*45
$GBGSV,2,2,05,30,39,213,,*7B
$GNGLL,3947.65404,N,10509.20163,W,172931.00,A,A*6B
$GNRMC,172932.00,A,3947.65404,N,10509.20162,W,0.004,,060619,,,A,V*06
$GNVTG,,T,,M,0.004,N,0.007,K,A*3E
$GNGGA,172932.00,3947.65404,N,10509.20162,W,1,12,0.56,1707.2,M,-21.5,M,,*44
$GNGSA,A,3,07,13,17,19,01,28,18,11,15,30,,,1.06,0.56,0.90,1*02
$GNGSA,A,3,74,84,85,73,83,75,,,,,,,1.06,0.56,0.90,2*00
$GNGSA,A,3,04,26,13,01,15,21,27,,,,,,1.06,0.56,0.90,3*0F
$GNGSA,A,3,27,28,30,,,,,,,,,,1.06,0.56,0.90,4*05
$GPGSV,3,1,12,01,36,067,38,06,06,183,33,07,15,145,41,11,31,053,28,1*69
$GPGSV,3,2,12,13,33,260,31,15,17,293,14,17,69,234,26,18,19,045,22,1*65
$GPGSV,3,3,12,19,44,227,44,24,01,319,,28,67,027,32,30,46,151,42,1*69
$GPGSV,3,1,12,01,36,067,25,06,06,183,34,07,15,145,31,11,31,053,,6*68
$GPGSV,3,2,12,13,33,260,,15,17,293,16,17,69,234,29,18,19,045,,6*6D
$GPGSV,3,3,12,19,44,227,,24,01,319,,28,67,027,,30,46,151,39,6*63
$GLGSV,2,1,08,65,04,282,,66,04,338,20,73,40,111,41,74,70,031,33,1*70
$GLGSV,2,2,08,75,27,320,32,83,20,030,12,84,76,071,19,85,38,198,41,1*7E
$GLGSV,3,1,09,65,04,282,,66,04,338,18,73,40,111,38,74,70,031,21,3*74
$GLGSV,3,2,09,75,27,320,31,83,20,030,25,84,76,071,28,85,38,198,39,3*76
$GLGSV,3,3,09,3*73
$GAGSV,3,1,10,01,39,309,35,04,11,285,11,09,00,331,,13,63,094,32,7*7F
$GAGSV,3,2,10,15,23,042,18,18,53,058,25,19,07,232,20,21,74,049,34,7*78
$GAGSV,3,3,10,26,39,182,42,27,28,106,27,7*7C
$GAGSV,3,1,10,01,39,309,32,04,11,285,,09,00,331,,13,63,094,22,2*7C
$GAGSV,3,2,10,15,23,042,32,18,53,058,38,19,07,232,24,21,74,049,34,2*7D
$GAGSV,3,3,10,26,39,182,39,27,28,106,29,2*7B
$GBGSV,2,1,05,06,02,336,,16,00,341,,27,78,096,27,28,28,046,26,1*75
$GBGSV,2,2,05,30,39,213,42,1*4C
$GBGSV,2,1,05,06,02,336,,16,00,341,,27,78,096,,28,28,046,,*45
$GBGSV,2,2,05,30,39,213,,*7B
$GNGLL,3947.65404,N,10509.20162,W,172932.00,A,A*69
$GNRMC,172933.00,A,3947.65404,N,10509.20162,W,0.010,,060619,,,A,V*02
$GNVTG,,T,,M,0.010,N,0.018,K,A*35
$GNGGA,172933.00,3947.65404,N,10509.20162,W,1,12,0.55,1707.2,M,-21.5,M,,*46
$GNGSA,A,3,07,13,17,19,01,28,18,11,15,30,,,1.03,0.55,0.87,1*02
$GNGSA,A,3,74,84,85,73,83,75,,,,,,,1.03,0.55,0.87,2*00
$GNGSA,A,3,04,26,13,01,15,21,27,,,,,,1.03,0.55,0.87,3*0F
$GNGSA,A,3,27,28,30,,,,,,,,,,1.03,0.55,0.87,4*05
$GPGSV,3,1,12,01,36,067,38,06,06,183,33,07,15,145,41,11,31,053,28,1*69
$GPGSV,3,2,12,13,33,260,31,15,17,293,15,17,69,234,25,18,19,045,22,1*67
$GPGSV,3,3,12,19,44,227,44,24,01,319,,28,67,027,32,30,46,151,42,1*69
$GPGSV,3,1,12,01,36,067,24,06,06,183,33,07,15,145,30,11,31,053,,6*6F
$GPGSV,3,2,12,13,33,260,,15,17,293,17,17,69,234,29,18,19,045,,6*6C
$GPGSV,3,3,12,19,44,227,,24,01,319,,28,67,027,,30,46,151,39,6*63
$GLGSV,2,1,08,65,04,282,,66,04,338,19,73,40,111,41,74,70,031,33,1*7A
$GLGSV,2,2,08,75,27,320,32,83,20,030,12,84,76,071,19,85,38,198,40,1*7F
$GLGSV,3,1,09,65,04,282,,66,04,338,18,73,40,111,38,74,70,031,21,3*74
$GLGSV,3,2,09,75,27,320,32,83,20,030,25,84,76,071,28,85,38,198,39,3*75
$GLGSV,3,3,09,3*73
$GAGSV,3,1,10,01,39,309,35,04,11,285,13,09,00,331,,13,63,094,32,7*7D
$GAGSV,3,2,10,15,23,042,19,18,53,058,26,19,07,232,20,21,74,049,34,7*7A
$GAGSV,3,3,10,26,39,182,42,27,28,106,27,7*7C
$GAGSV,3,1,10,01,39,309,31,04,11,285,,09,00,331,,13,63,094,22,2*7F
$GAGSV,3,2,10,15,23,042,32,18,53,058,38,19,07,232,24,21,74,049,34,2*7D
$GAGSV,3,3,10,26,39,182,39,27,28,106,29,2*7B
$GBGSV,2,1,05,06,02,336,,16,00,341,,27,78,096,27,28,28,046,26,1*75
$GBGSV,2,2,05,30,39,213,42,1*4C
$GBGSV,2,1,05,06,02,336,,16,00,341,,27,78,096,,28,28,046,,*45
$GBGSV,2,2,05,30,39,213,,*7B
$GNGLL,3947.65404,N,10509.20162,W,172933.00,A,A*68
$GNRMC,172934.00,A,3947.65404,N,10509.20161,W,0.010,,060619,,,A,V*06
$GNVTG,,T,,M,0.010,N,0.019,K,A*34
$GNGGA,172934.00,3947.65404,N,10509.20161,W,1,12,0.55,1707.2,M,-21.5,M,,*42
$GNGSA,A,3,07,13,17,19,01,28,18,11,15,30,,,1.03,0.55,0.87,1*02
$GNGSA,A,3,74,84,85,73,83,75,,,,,,,1.03,0.55,0.87,2*00
$GNGSA,A,3,04,26,13,01,15,21,27,,,,,,1.03,0.55,0.87,3*0F
$GNGSA,A,3,27,28,30,,,,,,,,,,1.03,0.55,0.87,4*05
$GPGSV,3,1,12,01,36,067,38,06,06,183,33,07,15,145,41,11,31,053,28,1*69
$GPGSV,3,2,12,13,33,260,31,15,17,293,15,17,69,234,24,18,19,045,21,1*65
$GPGSV,3,3,12,19,44,227,44,24,01,319,,28,67,027,32,30,46,151,42,1*69
$GPGSV,3,1,12,01,36,067,25,06,06,183,33,07,15,145,30,11,31,053,,6*6E
$GPGSV,3,2,12,13,33,260,,15,17,293,17,17,69,234,29,18,19,045,,6*6C
$GPGSV,3,3,12,19,44,227,,24,01,319,,28,67,027,,30,46,151,39,6*63
$GLGSV,2,1,08,65,04,282,,66,04,338,19,73,40,111,41,74,70,031,33,1*7A
$GLGSV,2,2,08,75,27,320,32,83,20,030,08,84,76,071,19,85,38,198,40,1*74
$GLGSV,3,1,09,65,04,282,,66,04,338,19,73,40,111,38,74,70,031,22,3*76
$GLGSV,3,2,09,75,27,320,32,83,20,030,25,84,76,071,28,85,38,198,39,3*75
$GLGSV,3,3,09,3*73
$GAGSV,3,1,10,01,39,309,35,04,11,285,09,09,00,331,,13,63,094,32,7*76
$GAGSV,3,2,10,15,23,042,19,18,53,058,27,19,07,232,20,21,74,049,34,7*7B
$GAGSV,3,3,10,26,39,182,42,27,28,106,27,7*7C
$GAGSV,3,1,10,01,39,309,32,04,11,285,,09,00,331,,13,63,094,22,2*7C
$GAGSV,3,2,10,15,23,042,32,18,53,058,38,19,07,232,24,21,74,049,34,2*7D
$GAGSV,3,3,10,26,39,182,39,27,28,106,29,2*7B
$GBGSV,2,1,05,06,02,336,,16,00,341,,27,78,096,28,28,28,046,26,1*7A
$GBGSV,2,2,05,30,39,213,41,1*4F
$GBGSV,2,1,05,06,02,336,,16,00,341,,27,78,096,,28,28,046,,*45
$GBGSV,2,2,05,30,39,213,,*7B
$GNGLL,3947.65404,N,10509.20161,W,172934.00,A,A*6C
$GNRMC,172935.00,A,3947.65404,N,10509.20161,W,0.024,,060619,,,A,V*00
$GNVTG,,T,,M,0.024,N,0.045,K,A*3A
$GNGGA,172935.00,3947.65404,N,10509.20161,W,1,12,0.56,1707.3,M,-21.5,M,,*41
$GNGSA,A,3,07,13,17,19,01,28,18,11,15,30,,,1.06,0.56,0.90,1*02
$GNGSA,A,3,74,84,85,73,83,75,,,,,,,1.06,0.56,0.90,2*00
$GNGSA,A,3,04,26,13,01,15,21,27,,,,,,1.06,0.56,0.90,3*0F
$GNGSA,A,3,27,28,30,,,,,,,,,,1.06,0.56,0.90,4*05
$GPGSV,3,1,12,01,36,067,38,06,06,183,33,07,15,145,41,11,31,053,28,1*69
$GPGSV,3,2,12,13,33,260,31,15,17,293,16,17,69,234,23,18,19,045,21,1*61
$GPGSV,3,3,12,19,44,227,44,24,01,319,,28,67,027,32,30,46,151,42,1*69
$GPGSV,3,1,12,01,36,067,25,06,06,183,33,07,15,145,30,11,31,053,,6*6E
$GPGSV,3,2,12,13,33,260,,15,17,293,17,17,69,234,29,18,19,045,,6*6C
$GPGSV,3,3,12,19,44,227,,24,01,319,,28,67,027,,30,46,151,39,6*63
$GLGSV,3,1,09,65,04,282,,66,04,338,20,73,40,111,41,74,70,031,34,1*77
$GLGSV,3,2,09,75,27,320,32,83,20,030,08,84,76,071,18,85,38,198,40,1*75
$GLGSV,3,3,09,1*71
$GLGSV,3,1,09,65,04,282,,66,04,338,19,73,40,111,38,74,70,031,22,3*76
$GLGSV,3,2,09,75,27,320,32,83,20,030,25,84,76,071,28,85,38,198,39,3*75
$GLGSV,3,3,09,3*73
$GAGSV,3,1,10,01,39,309,35,04,11,285,12,09,00,331,,13,63,094,32,7*7C
$GAGSV,3,2,10,15,23,042,18,18,53,058,27,19,07,232,20,21,74,049,34,7*7A
$GAGSV,3,3,10,26,39,182,42,27,28,106,28,7*73
$GAGSV,3,1,10,01,39,309,32,04,11,285,,09,00,331,,13,63,094,22,2*7C
$GAGSV,3,2,10,15,23,042,32,18,53,058,38,19,07,232,24,21,74,049,34,2*7D
$GAGSV,3,3,10,26,39,182,39,27,28,106,29,2*7B
$GBGSV,2,1,05,06,02,336,,16,00,341,,27,78,096,28,28,28,046,26,1*7A
$GBGSV,2,2,05,30,39,213,41,1*4F
$GBGSV,2,1,05,06,02,336,,16,00,341,,27,78,096,,28,28,046,,*45
$GBGSV,2,2,05,30,39,213,,*7B
$GNGLL,3947.65404,N,10509.20161,W,172935.00,A,A*6D
$GNRMC,172936.00,A,3947.65404,N,10509.20160,W,0.017,,060619,,,A,V*02
$GNVTG,,T,,M,0.017,N,0.031,K,A*39
$GNGGA,172936.00,3947.65404,N,10509.20160,W,1,12,0.55,1707.3,M,-21.5,M,,*40
$GNGSA,A,3,07,13,17,19,01,28,18,11,15,30,,,1.03,0.55,0.87,1*02
$GNGSA,A,3,74,84,85,73,83,75,,,,,,,1.03,0.55,0.87,2*00
$GNGSA,A,3,04,26,13,01,15,21,27,,,,,,1.03,0.55,0.87,3*0F
$GNGSA,A,3,27,28,30,,,,,,,,,,1.03,0.55,0.87,4*05
$GPGSV,3,1,12,01,36,067,38,06,06,183,33,07,15,145,41,11,31,053,29,1*68
$GPGSV,3,2,12,13,33,260,31,15,17,293,16,17,69,234,23,18,19,045,21,1*61
$GPGSV,3,3,12,19,44,227,44,24,01,319,,28,67,027,33,30,46,151,42,1*68
$GPGSV,3,1,12,01,36,067,25,06,06,183,33,07,15,145,30,11,31,053,,6*6E
$GPGSV,3,2,12,13,33,260,,15,17,293,18,17,69,234,29,18,19,045,,6*63
$GPGSV,3,3,12,19,44,227,,24,01,319,,28,67,027,,30,46,151,39,6*63
$GLGSV,3,1,09,65,04,282,,66,04,338,20,73,40,111,41,74,70,031,34,1*77
$GLGSV,3,2,09,75,27,320,33,83,20,030,09,84,76,071,19,85,38,198,40,1*74
$GLGSV,3,3,09,1*71
$GLGSV,3,1,09,65,04,282,,66,04,338,19,73,40,111,38,74,70,031,23,3*77
$GLGSV,3,2,09,75,27,320,32,83,20,030,25,84,76,071,28,85,38,198,39,3*75
$GLGSV,3,3,09,3*73
$GAGSV,3,1,10,01,39,309,35,04,11,285,11,09,00,331,,13,63,094,32,7*7F
$GAGSV,3,2,10,15,23,042,18,18,53,058,27,19,07,232,19,21,74,049,34,7*70
$GAGSV,3,3,10,26,39,182,42,27,28,106,28,7*73
$GAGSV,3,1,10,01,39,309,32,04,11,285,,09,00,331,,13,63,094,22,2*7C
$GAGSV,3,2,10,15,23,042,32,18,53,058,38,19,07,232,25,21,74,049,33,2*7B
$GAGSV,3,3,10,26,39,182,39,27,28,106,29,2*7B
$GBGSV,2,1,05,06,02,336,,16,00,341,,27,78,096,28,28,28,046,26,1*7A
$GBGSV,2,2,05,30,39,213,41,1*4F
$GBGSV,2,1,05,06,02,336,,16,00,341,,27,78,096,,28,28,046,,*45
$GBGSV,2,2,05,30,39,213,,*7B
$GNGLL,3947.65404,N,10509.20160,W,172936.00,A,A*6F
$GNRMC,172937.00,A,3947.65404,N,10509.20161,W,0.018,,060619,,,A,V*0D
$GNVTG,,T,,M,0.018,N,0.033,K,A*34
$GNGGA,172937.00,3947.65404,N,10509.20161,W,1,12,0.54,1707.3,M,-21.5,M,,*41
$GNGSA,A,3,07,13,17,19,01,28,18,11,15,30,,,1.00,0.54,0.85,1*02
$GNGSA,A,3,74,84,85,73,83,75,,,,,,,1.00,0.54,0.85,2*00
$GNGSA,A,3,04,26,13,01,15,21,27,,,,,,1.00,0.54,0.85,3*0F
$GNGSA,A,3,27,28,30,,,,,,,,,,1.00,0.54,0.85,4*05
$GPGSV,3,1,12,01,36,067,38,06,06,183,34,07,15,145,41,11,31,053,29,1*6F
$GPGSV,3,2,12,13,33,260,31,15,17,293,17,17,69,234,23,18,19,045,21,1*60
$GPGSV,3,3,12,19,44,227,44,24,01,319,,28,67,027,33,30,46,151,42,1*68
$GPGSV,3,1,12,01,36,067,25,06,06,183,33,07,15,145,30,11,31,053,,6*6E
$GPGSV,3,2,12,13,33,260,,15,17,293,17,17,69,234,28,18,19,045,,6*6D
$GPGSV,3,3,12,19,44,227,,24,01,319,,28,67,027,,30,46,151,39,6*63
$GLGSV,3,1,09,65,04,282,,66,04,338,19,73,40,111,41,74,70,031,34,1*7D
$GLGSV,3,2,09,75,27,320,33,83,20,030,10,84,76,071,19,85,38,198,40,1*7C
$GLGSV,3,3,09,1*71
$GLGSV,3,1,09,65,04,282,,66,04,338,19,73,40,111,38,74,70,031,22,3*76
$GLGSV,3,2,09,75,27,320,31,83,20,030,25,84,76,071,28,85,38,198,39,3*76
$GLGSV,3,3,09,3*73
$GAGSV,3,1,10,01,39,309,35,04,11,285,10,09,00,331,,13,63,094,32,7*7E
$GAGSV,3,2,10,15,23,042,17,18,53,058,28,19,07,232,19,21,74,049,34,7*70
$GAGSV,3,3,10,26,39,182,42,27,28,106,28,7*73
$GAGSV,3,1,10,01,39,309,32,04,11,285,,09,00,331,,13,63,094,21,2*7F
$GAGSV,3,2,10,15,23,042,33,18,53,058,38,19,07,232,24,21,74,049,33,2*7B
$GAGSV,3,3,10,26,39,182,39,27,28,106,29,2*7B
$GBGSV,2,1,05,06,02,336,,16,00,341,,27,78,096,28,28,28,046,26,1*7A
$GBGSV,2,2,05,30,39,213,41,1*4F
$GBGSV,2,1,05,06,02,336,,16,00,341,,27,78,096,,28,28,046,,*45
$GBGSV,2,2,05,30,39,213,,*7B
$GNGLL,3947.65404,N,10509.20161,W,172937.00,A,A*6F
$GNRMC,172938.00,A,3947.65404,N,10509.20161,W,0.035,,060619,,,A,V*0D
$GNVTG,,T,,M,0.035,N,0.065,K,A*38
$GNGGA,172938.00,3947.65404,N,10509.20161,W,1,12,0.54,1707.3,M,-21.5,M,,*4E
$GNGSA,A,3,07,13,17,19,01,28,18,11,15,30,,,1.00,0.54,0.85,1*02
$GNGSA,A,3,74,84,85,73,83,75,,,,,,,1.00,0.54,0.85,2*00
$GNGSA,A,3,04,26,13,01,15,21,27,,,,,,1.00,0.54,0.85,3*0F
$GNGSA,A,3,27,28,30,,,,,,,,,,1.00,0.54,0.85,4*05
$GPGSV,3,1,12,01,36,067,38,06,06,183,34,07,15,145,41,11,31,053,29,1*6F
$GPGSV,3,2,12,13,33,260,31,15,17,293,17,17,69,234,22,18,19,045,22,1*62
$GPGSV,3,3,12,19,44,227,44,24,01,319,,28,67,027,33,30,46,151,42,1*68
$GPGSV,3,1,12,01,36,067,25,06,06,183,33,07,15,145,30,11,31,053,,6*6E
$GPGSV,3,2,12,13,33,260,,15,17,293,17,17,69,234,28,18,19,045,,6*6D
$GPGSV,3,3,12,19,44,227,,24,01,319,,28,67,027,,30,46,151,39,6*63
$GLGSV,3,1,09,65,04,282,,66,04,338,19,73,40,111,41,74,70,031,34,1*7D
$GLGSV,3,2,09,75,27,320,32,83,20,030,11,84,76,071,19,85,38,198,40,1*7C
$GLGSV,3,3,09,1*71
$GLGSV,3,1,09,65,04,282,,66,04,338,19,73,40,111,39,74,70,031,23,3*76
$GLGSV,3,2,09,75,27,320,32,83,20,030,25,84,76,071,28,85,38,198,39,3*75
$GLGSV,3,3,09,3*73
$GAGSV,3,1,10,01,39,309,35,04,11,285,12,09,00,331,,13,63,094,32,7*7C
$GAGSV,3,2,10,15,23,042,17,18,53,058,28,19,07,232,19,21,74,049,34,7*70
$GAGSV,3,3,10,26,39,182,42,27,28,106,27,7*7C
$GAGSV,3,1,10,01,39,309,32,04,11,285,,09,00,331,,13,63,094,22,2*7C
$GAGSV,3,2,10,15,23,042,33,18,53,058,38,19,07,232,24,21,74,049,34,2*7C
$GAGSV,3,3,10,26,39,182,39,27,28,106,29,2*7B
$GBGSV,2,1,05,06,02,336,,16,00,341,,27,78,096,28,28,28,046,26,1*7A
$GBGSV,2,2,05,30,39,213,41,1*4F
$GBGSV,2,1,05,06,02,336,,16,00,341,,27,78,096,,28,28,046,,*45
$GBGSV,2,2,05,30,39,213,,*7B
$GNGLL,3947.65404,N,10509.20161,W,172938.00,A,A*60
$GNRMC,172939.00,A,3947.65404,N,10509.20161,W,0.007,,060619,,,A,V*0D
$GNVTG,,T,,M,0.007,N,0.013,K,A*38
$GNGGA,172939.00,3947.65404,N,10509.20161,W,1,12,0.54,1707.3,M,-21.5,M,,*4F
$GNGSA,A,3,07,13,17,19,01,28,18,11,15,30,,,1.00,0.54,0.85,1*02
$GNGSA,A,3,74,84,85,73,83,75,,,,,,,1.00,0.54,0.85,2*00
$GNGSA,A,3,04,26,13,01,15,21,27,,,,,,1.00,0.54,0.85,3*0F
$GNGSA,A,3,27,28,30,,,,,,,,,,1.00,0.54,0.85,4*05
$GPGSV,3,1,12,01,36,067,38,06,06,183,34,07,15,145,41,11,31,053,29,1*6F
$GPGSV,3,2,12,13,33,260,31,15,17,293,19,17,69,234,21,18,19,045,21,1*6C
$GPGSV,3,3,12,19,44,227,44,24,01,319,,28,67,027,33,30,46,151,42,1*68
$GPGSV,3,1,12,01,36,067,25,06,06,183,33,07,15,145,30,11,31,053,,6*6E
$GPGSV,3,2,12,13,33,260,,15,17,293,18,17,69,234,28,18,19,045,,6*62
$GPGSV,3,3,12,19,44,227,,24,01,319,,28,67,027,,30,46,151,39,6*63
$GLGSV,3,1,09,65,04,282,,66,04,338,19,73,40,111,42,74,70,031,34,1*7E
$GLGSV,3,2,09,75,27,320,32,83,20,030,10,84,76,071,19,85,38,198,40,1*7D
$GLGSV,3,3,09,1*71
$GLGSV,3,1,09,65,04,282,,66,04,338,20,73,40,111,39,74,70,031,23,3*7C
$GLGSV,3,2,09,75,27,320,31,83,20,030,26,84,76,071,27,85,38,198,39,3*7A
$GLGSV,3,3,09,90,,,39,3*70
$GAGSV,3,1,10,01,39,309,35,04,11,285,07,09,00,331,,13,63,094,31,7*7B
$GAGSV,3,2,10,15,23,042,17,18,53,058,28,19,07,232,19,21,74,049,34,7*70
$GAGSV,3,3,10,26,39,182,42,27,28,106,27,7*7C
$GAGSV,3,1,10,01,39,309,32,04,11,285,,09,00,331,,13,63,094,21,2*7F
$GAGSV,3,2,10,15,23,042,33,18,53,058,38,19,07,232,24,21,74,049,34,2*7C
$GAGSV,3,3,10,26,39,182,39,27,28,106,29,2*7B
$GBGSV,2,1,05,06,02,336,,16,00,341,,27,78,096,29,28,28,046,26,1*7B
$GBGSV,2,2,05,30,39,213,41,1*4F
$GBGSV,2,1,05,06,02,336,,16,00,341,,27,78,096,,28,28,046,,*45
$GBGSV,2,2,05,30,39,213,,*7B
$GNGLL,3947.65404,N,10509.20161,W,172939.00,A,A*61
$GNRMC,172940.00,A,3947.65404,N,10509.20161,W,0.011,,060619,,,A,V*04
$GNVTG,,T,,M,0.011,N,0.020,K,A*3F
$GNGGA,172940.00,3947.65404,N,10509.20161,W,1,12,0.54,1707.3,M,-21.5,M,,*41
$GNGSA,A,3,07,13,17,19,01,28,18,11,15,30,,,1.00,0.54,0.85,1*02
$GNGSA,A,3,74,84,85,73,83,75,,,,,,,1.00,0.54,0.85,2*00
$GNGSA,A,3,04,26,13,01,15,21,27,,,,,,1.00,0.54,0.85,3*0F
$GNGSA,A,3,27,28,30,,,,,,,,,,1.00,0.54,0.85,4*05
$GPGSV,3,1,12,01,36,067,38,06,06,183,33,07,15,145,41,11,31,053,29,1*68
$GPGSV,3,2,12,13,33,260,32,15,17,293,19,17,69,234,21,18,19,045,21,1*6F
$GPGSV,3,3,12,19,44,227,44,24,01,319,,28,67,027,33,30,46,151,42,1*68
$GPGSV,3,1,12,01,36,067,25,06,06,183,32,07,15,145,30,11,31,053,,6*6F
$GPGSV,3,2,12,13,33,260,,15,17,293,19,17,69,234,28,18,19,045,,6*63
$GPGSV,3,3,12,19,44,227,,24,01,319,,28,67,027,,30,46,151,39,6*63
$GLGSV,3,1,09,65,04,282,,66,04,338,19,73,40,111,41,74,70,031,34,1*7D
$GLGSV,3,2,09,75,27,320,33,83,20,030,10,84,76,071,18,85,38,198,40,1*7D
$GLGSV,3,3,09,1*71
$GLGSV,2,1,08,65,04,282,,66,04,338,20,73,40,111,39,74,70,031,22,3*7D
$GLGSV,2,2,08,75,27,320,31,83,20,030,26,84,76,071,27,85,38,198,38,3*7B
$GAGSV,3,1,10,01,39,309,35,04,11,285,10,09,00,331,,13,63,094,31,7*7D
$GAGSV,3,2,10,15,23,042,16,18,53,058,29,19,07,232,19,21,74,049,34,7*70
$GAGSV,3,3,10,26,39,182,42,27,28,106,27,7*7C
$GAGSV,3,1,10,01,39,309,31,04,11,285,,09,00,331,,13,63,094,21,2*7C
$GAGSV,3,2,10,15,23,042,32,18,53,058,38,19,07,232,24,21,74,049,34,2*7D
$GAGSV,3,3,10,26,39,182,39,27,28,106,29,2*7B
$GBGSV,2,1,05,06,02,336,,16,00,341,,27,78,096,29,28,28,046,26,1*7B
$GBGSV,2,2,05,30,39,213,41,1*4F
$GBGSV,2,1,05,06,02,336,,16,00,341,,27,78,096,,28,28,046,,*45
$GBGSV,2,2,05,30,39,213,,*7B
$GNGLL,3947.65404,N,10509.20161,W,172940.00,A,A*6F
$GNRMC,172941.00,A,3947.65403,N,10509.20161,W,0.015,,060619,,,A,V*06
$GNVTG,,T,,M,0.015,N,0.027,K,A*3C
$GNGGA,172941.00,3947.65403,N,10509.20161,W,1,12,0.54,1707.4,M,-21.5,M,,*40
$GNGSA,A,3,07,13,17,19,01,28,18,11,15,30,,,1.00,0.54,0.85,1*02
$GNGSA,A,3,74,84,85,73,83,75,,,,,,,1.00,0.54,0.85,2*00
$GNGSA,A,3,04,26,13,01,15,21,27,,,,,,1.00,0.54,0.85,3*0F
$GNGSA,A,3,27,28,30,,,,,,,,,,1.00,0.54,0.85,4*05
$GPGSV,3,1,12,01,36,067,38,06,06,183,34,07,15,145,41,11,31,053,29,1*6F
$GPGSV,3,2,12,13,33,260,31,15,17,293,20,17,69,234,21,18,19,045,20,1*67
$GPGSV,3,3,12,19,44,227,44,24,01,319,,28,67,027,33,30,46,151,42,1*68
$GPGSV,3,1,12,01,36,067,25,06,06,183,33,07,15,145,31,11,31,053,,6*6F
$GPGSV,3,2,12,13,33,260,,15,17,293,18,17,69,234,28,18,19,045,,6*62
$GPGSV,3,3,12,19,44,227,,24,01,319,,28,67,027,,30,46,151,39,6*63
$GLGSV,3,1,09,65,04,282,,66,04,338,18,73,40,111,41,74,70,031,34,1*7C
$GLGSV,3,2,09,75,27,320,32,83,20,030,07,84,76,071,18,85,38,198,40,1*7A
$GLGSV,3,3,09,1*71
$GLGSV,3,1,09,65,04,282,,66,04,338,20,73,40,111,39,74,70,031,23,3*7C
$GLGSV,3,2,09,75,27,320,31,83,20,030,26,84,76,071,27,85,38,198,38,3*7B
$GLGSV,3,3,09,3*73
$GAGSV,3,1,10,01,39,309,35,04,11,285,10,09,00,331,,13,63,094,31,7*7D
$GAGSV,3,2,10,15,23,042,16,18,53,058,29,19,07,232,19,21,74,049,34,7*70
$GAGSV,3,3,10,26,39,182,42,27,28,106,27,7*7C
$GAGSV,3,1,10,01,39,309,32,04,11,285,,09,00,331,,13,63,094,21,2*7F
$GAGSV,3,2,10,15,23,042,32,18,53,058,38,19,07,232,24,21,74,049,34,2*7D
$GAGSV,3,3,10,26,39,182,39,27,28,106,29,2*7B
$GBGSV,2,1,05,06,02,336,,16,00,341,,27,78,096,29,28,28,046,26,1*7B
$GBGSV,2,2,05,30,39,213,41,1*4F
$GBGSV,2,1,05,06,02,336,,16,00,341,,27,78,096,,28,28,046,,*45
$GBGSV,2,2,05,30,39,213,,*7B
$GNGLL,3947.65403,N,10509.20161,W,172941.00,A,A*69
$GNRMC,172942.00,A,3947.65403,N,10509.20160,W,0.002,,060619,,,A,V*02
$GNVTG,,T,,M,0.002,N,0.004,K,A*3B
$GNGGA,172942.00,3947.65403,N,10509.20160,W,1,12,0.54,1707.4,M,-21.5,M,,*42
$GNGSA,A,3,07,13,17,19,01,28,18,11,15,30,,,1.00,0.54,0.84,1*03
$GNGSA,A,3,74,84,85,73,83,75,,,,,,,1.00,0.54,0.84,2*01
$GNGSA,A,3,04,26,13,01,15,21,27,,,,,,1.00,0.54,0.84,3*0E
$GNGSA,A,3,27,28,30,,,,,,,,,,1.00,0.54,0.84,4*04
$GPGSV,3,1,12,01,36,067,38,06,06,183,34,07,15,145,41,11,31,053,29,1*6F
$GPGSV,3,2,12,13,33,260,31,15,17,293,19,17,69,234,20,18,19,045,19,1*66
$GPGSV,3,3,12,19,44,227,44,24,01,319,,28,67,027,33,30,46,151,42,1*68
$GPGSV,3,1,12,01,36,067,25,06,06,183,33,07,15,145,30,11,31,053,,6*6E
$GPGSV,3,2,12,13,33,260,,15,17,293,18,17,69,234,28,18,19,045,,6*62
$GPGSV,3,3,12,19,44,227,,24,01,319,,28,67,027,,30,46,151,39,6*63
$GLGSV,3,1,09,65,04,282,,66,04,338,18,73,40,111,41,74,70,031,34,1*7C
$GLGSV,3,2,09,75,27,320,32,83,20,030,11,84,76,071,19,85,38,198,40,1*7C
$GLGSV,3,3,09,1*71
$GLGSV,3,1,09,65,04,282,,66,04,338,19,73,40,111,39,74,70,031,23,3*76
$GLGSV,3,2,09,75,27,320,31,83,20,030,26,84,76,071,27,85,38,198,38,3*7B
$GLGSV,3,3,09,3*73
$GAGSV,3,1,10,01,39,309,35,04,11,285,08,09,00,331,,13,63,094,32,7*77
$GAGSV,3,2,10,15,23,042,17,18,53,058,29,19,07,232,19,21,74,049,34,7*71
$GAGSV,3,3,10,26,39,182,42,27,28,106,27,7*7C
$GAGSV,3,1,10,01,39,309,32,04,11,285,,09,00,331,,13,63,094,21,2*7F
$GAGSV,3,2,10,15,23,042,32,18,53,058,38,19,07,232,24,21,74,049,34,2*7D
$GAGSV,3,3,10,26,39,182,39,27,28,106,29,2*7B
$GBGSV,2,1,05,06,02,336,,16,00,341,,27,78,096,29,28,28,046,26,1*7B
$GBGSV,2,2,05,30,39,213,41,1*4F
$GBGSV,2,1,05,06,02,336,,16,00,341,,27,78,096,,28,28,046,,*45
$GBGSV,2,2,05,30,39,213,,*7B
$GNGLL,3947.65403,N,10509.20160,W,172942.00,A,A*6B
$GNRMC,172943.00,A,3947.65402,N,10509.20160,W,0.019,,060619,,,A,V*08
$GNVTG,,T,,M,0.019,N,0.035,K,A*33
$GNGGA,172943.00,3947.65402,N,10509.20160,W,1,12,0.54,1707.5,M,-21.5,M,,*43
$GNGSA,A,3,07,13,17,19,01,28,18,11,15,30,,,1.00,0.54,0.84,1*03
$GNGSA,A,3,74,84,85,73,83,75,,,,,,,1.00,0.54,0.84,2*01
$GNGSA,A,3,04,26,13,01,15,21,27,,,,,,1.00,0.54,0.84,3*0E
$GNGSA,A,3,27,28,30,,,,,,,,,,1.00,0.54,0.84,4*04
$GPGSV,3,1,12,01,36,067,39,06,06,183,34,07,15,145,41,11,31,053,29,1*6E
$GPGSV,3,2,12,13,33,260,31,15,17,293,19,17,69,234,19,18,19,045,20,1*66
$GPGSV,3,3,12,19,44,227,45,24,01,319,,28,67,027,33,30,46,151,42,1*69
$GPGSV,3,1,12,01,36,067,25,06,06,183,33,07,15,145,30,11,31,053,,6*6E
$GPGSV,3,2,12,13,33,260,,15,17,293,19,17,69,234,28,18,19,045,,6*63
$GPGSV,3,3,12,19,44,227,,24,01,319,,28,67,027,,30,46,151,39,6*63
$GLGSV,3,1,09,65,04,282,,66,04,338,19,73,40,111,41,74,70,031,34,1*7D
$GLGSV,3,2,09,75,27,320,32,83,20,030,11,84,76,071,19,85,38,198,40,1*7C
$GLGSV,3,3,09,1*71
$GLGSV,3,1,09,65,04,282,,66,04,338,19,73,40,111,38,74,70,031,23,3*77
$GLGSV,3,2,09,75,27,320,31,83,20,030,26,84,76,071,27,85,38,198,38,3*7B
$GLGSV,3,3,09,3*73
$GAGSV,3,1,10,01,39,309,35,04,11,285,11,09,00,331,,13,63,094,32,7*7F
$GAGSV,3,2,10,15,23,042,17,18,53,058,29,19,07,232,19,21,74,049,34,7*71
$GAGSV,3,3,10,26,39,182,42,27,28,106,27,7*7C
$GAGSV,3,1,10,01,39,309,31,04,11,285,,09,00,331,,13,63,094,21,2*7C
$GAGSV,3,2,10,15,23,042,32,18,53,058,38,19,07,232,24,21,74,049,34,2*7D
$GAGSV,3,3,10,26,39,182,39,27,28,106,29,2*7B
7B
$GBGSV,2,2,05,30,39,213,41,1*4F
$GBGSV,2,1,05,06,02,336,,16,00,341,,27,78,096,,28,28,046,,*45
$GBGSV,2,2,05,30,39,213,,*7B
$GNGLL,3947.65402,N,10509.20160,W,172943.00,A,A*6B
$GNRMC,172944.00,A,3947.65401,N,10509.20160,W,0.012,,060619,,,A,V*07
$GNVTG,,T,,M,0.012,N,0.023,K,A*3F
$GNGGA,172944.00,3947.65401,N,10509.20160,W,1,12,0.54,1707.5,M,-21.5,M,,*47
$GNGSA,A,3,07,13,17,19,01,28,18,11,15,30,,,1.00,0.54,0.84,1*03
$GNGSA,A,3,74,84,85,73,83,75,,,,,,,1.00,0.54,0.84,2*01
$GNGSA,A,3,04,26,13,01,15,21,27,,,,,,1.00,0.54,0.84,3*0E
$GNGSA,A,3,27,28,30,,,,,,,,,,1.00,0.54,0.84,4*04
$GPGSV,3,1,12,01,36,067,39,06,06,183,34,07,15,145,41,11,31,053,29,1*6E
$GPGSV,3,2,12,13,33,260,31,15,17,293,19,17,69,234,19,18,19,045,19,1*6C
$GPGSV,3,3,12,19,44,227,45,24,01,319,,28,67,027,33,30,46,151,42,1*69
$GPGSV,3,1,12,01,36,067,26,06,06,183,32,07,15,145,31,11,31,053,,6*6D
$GPGSV,3,2,12,13,33,260,,15,17,293,20,17,69,234,28,18,19,045,,6*69
$GPGSV,3,3,12,19,44,227,,24,01,319,,28,67,027,,30,46,151,39,6*63
$GLGSV,3,1,09,65,04,282,,66,04,338,20,73,40,111,41,74,70,031,34,1*77
$GLGSV,3,2,09,75,27,320,32,83,20,030,10,84,76,071,19,85,38,198,41,1*7C
$GLGSV,3,3,09,1*71
$GLGSV,3,1,09,65,04,282,,66,04,338,20,73,40,111,39,74,70,031,24,3*7B
$GLGSV,3,2,09,75,27,320,31,83,20,030,26,84,76,071,26,85,38,198,38,3*7A
$GLGSV,3,3,09,3*73
$GAGSV,3,1,10,01,39,309,35,04,11,285,08,09,00,331,,13,63,094,32,7*77
$GAGSV,3,2,10,15,23,042,17,18,53,058,29,19,07,232,19,21,74,049,34,7*71
$GAGSV,3,3,10,26,39,182,42,27,28,106,27,7*7C
$GAGSV,3,1,10,01,39,309,32,04,11,285,,09,00,331,,13,63,094,22,2*7C
$GAGSV,3,2,10,15,23,042,32,18,53,058,38,19,07,232,24,21,74,049,33,2*7A
$GAGSV,3,3,10,26,39,182,39,27,28,106,29,2*7B
$GBGSV,2,1,05,06,02,336,,16,00,341,,27,78,096,28,28,28,046,26,1*7A
$GBGSV,2,2,05,30,39,213,41,1*4F
$GBGSV,2,1,05,06,02,336,,16,00,341,,27,78,096,,28,28,046,,*45
$GBGSV,2,2,05,30,39,213,,*7B
$GNGLL,3947.65401,N,10509.20160,W,172944.00,A,A*6F
$GNRMC,172945.00,A,3947.65401,N,10509.20160,W,0.028,,060619,,,A,V*0F
$GNVTG,,T,,M,0.028,N,0.052,K,A*30
$GNGGA,172945.00,3947.65401,N,10509.20160,W,1,12,0.54,1707.6,M,-21.5,M,,*45
$GNGSA,A,3,07,13,17,19,01,28,18,11,15,30,,,1.00,0.54,0.84,1*03
$GNGSA,A,3,74,84,85,73,83,75,,,,,,,1.00,0.54,0.84,2*01
$GNGSA,A,3,04,26,13,01,15,21,27,,,,,,1.00,0.54,0.84,3*0E
$GNGSA,A,3,27,28,30,,,,,,,,,,1.00,0.54,0.84,4*04
$GPGSV,3,1,12,01,36,067,39,06,06,183,33,07,15,145,41,11,31,053,29,1*69
$GPGSV,3,2,12,13,33,260,31,15,17,293,18,17,69,234,20,18,19,045,20,1*6D
$GPGSV,3,3,12,19,44,227,45,24,01,319,,28,67,027,33,30,46,151,42,1*69
$GPGSV,3,1,12,01,36,067,26,06,06,183,33,07,15,145,31,11,31,053,,6*6C
$GPGSV,3,2,12,13,33,260,,15,17,293,19,17,69,234,28,18,19,045,,6*63
$GPGSV,3,3,12,19,44,227,,24,01,319,,28,67,027,,30,46,151,39,6*63
$GLGSV,3,1,09,65,04,282,,66,04,338,19,73,40,111,41,74,70,031,34,1*7D
$GLGSV,3,2,09,75,27,320,32,83,20,030,11,84,76,071,20,85,38,198,41,1*77
$GLGSV,3,3,09,1*71
$GLGSV,3,1,09,65,04,282,,66,04,338,20,73,40,111,38,74,70,031,23,3*7D
$GLGSV,3,2,09,75,27,320,31,83,20,030,26,84,76,071,26,85,38,198,38,3*7A
$GLGSV,3,3,09,3*73
$GAGSV,3,1,10,01,39,309,35,04,11,285,08,09,00,331,,13,63,094,32,7*77
$GAGSV,3,2,10,15,23,042,16,18,53,058,29,19,07,232,18,21,74,049,34,7*71
$GAGSV,3,3,10,26,39,182,42,27,28,106,28,7*73
$GAGSV,3,1,10,01,39,309,31,04,11,285,,09,00,331,,13,63,094,21,2*7C
$GAGSV,3,2,10,15,23,042,32,18,53,058,38,19,07,232,24,21,74,049,33,2*7A
$GAGSV,3,3,10,26,39,182,39,27,28,106,29,2*7B
$GBGSV,2,1,05,06,02,336,,16,00,341,,27,78,096,28,28,28,046,25,1*79
$GBGSV,2,2,05,30,39,213,41,1*4F
$GBGSV,2,1,05,06,02,336,,16,00,341,,27,78,096,,28,28,046,,*45
$GBGSV,2,2,05,30,39,213,,*7B
$GNGLL,3947.65401,N,10509.20160,W,172945.00,A,A*6E
$GNRMC,172946.00,A,3947.65400,N,10509.20160,W,0.003,,060619,,,A,V*04
$GNVTG,,T,,M,0.003,N,0.006,K,A*38
$GNGGA,172946.00,3947.65400,N,10509.20160,W,1,12,0.54,1707.6,M,-21.5,M,,*47
$GNGSA,A,3,07,13,17,19,01,28,18,11,15,30,,,1.00,0.54,0.84,1*03
$GNGSA,A,3,74,84,85,73,83,75,,,,,,,1.00,0.54,0.84,2*01
$GNGSA,A,3,04,26,13,01,15,21,27,,,,,,1.00,0.54,0.84,3*0E
$GNGSA,A,3,27,28,30,,,,,,,,,,1.00,0.54,0.84,4*04
$GPGSV,3,1,12,01,36,067,39,06,06,183,34,07,15,145,41,11,31,053,29,1*6E
$GPGSV,3,2,12,13,33,260,31,15,17,293,18,17,69,234,19,18,19,045,20,1*67
$GPGSV,3,3,12,19,44,227,45,24,01,319,,28,67,027,33,30,46,151,42,1*69
$GPGSV,3,1,12,01,36,067,26,06,06,183,32,07,15,145,31,11,31,053,,6*6D
$GPGSV,3,2,12,13,33,260,,15,17,293,19,17,69,234,28,18,19,045,,6*63
$GPGSV,3,3,12,19,44,227,,24,01,319,,28,67,027,,30,46,151,39,6*63
$GLGSV,3,1,09,65,04,282,,66,04,338,20,73,40,111,41,74,70,031,34,1*77
$GLGSV,3,2,09,75,27,320,32,83,20,030,11,84,76,071,20,85,38,198,41,1*77
$GLGSV,3,3,09,1*71
$GLGSV,3,1,09,65,04,282,,66,04,338,20,73,40,111,38,74,70,031,23,3*7D
$GLGSV,3,2,09,75,27,320,31,83,20,030,26,84,76,071,26,85,38,198,38,3*7A
$GLGSV,3,3,09,3*73
$GAGSV,3,1,10,01,39,309,35,04,11,285,09,09,00,331,,13,63,094,32,7*76
$GAGSV,3,2,10,15,23,042,17,18,53,058,29,19,07,232,17,21,74,049,34,7*7F
$GAGSV,3,3,10,26,39,182,42,27,28,106,27,7*7C
$GAGSV,3,1,10,01,39,309,31,04,11,285,,09,00,331,,13,63,094,21,2*7C
$GAGSV,3,2,10,15,23,042,33,18,53,058,38,19,07,232,23,21,74,049,33,2*7C
$GAGSV,3,3,10,26,39,182,39,27,28,106,29,2*7B
7A
$GBGSV,2,2,05,30,39,213,41,1*4F
$GBGSV,2,1,05,06,02,336,,16,00,341,,27,78,096,,28,28,046,,*45
$GBGSV,2,2,05,30,39,213,,*7B
$GNGLL,3947.65400,N,10509.20160,W,172946.00,A,A*6C
$GNRMC,172947.00,A,3947.65399,N,10509.20159,W,0.006,,060619,,,A,V*0D
$GNVTG,,T,,M,0.006,N,0.011,K,A*3B
$GNGGA,172947.00,3947.65399,N,10509.20159,W,1,12,0.56,1707.7,M,-21.5,M,,*48
$GNGSA,A,3,07,13,17,19,01,28,18,11,15,30,,,1.06,0.56,0.90,1*02
$GNGSA,A,3,74,84,85,73,83,75,,,,,,,1.06,0.56,0.90,2*00
$GNGSA,A,3,04,26,13,01,15,21,27,,,,,,1.06,0.56,0.90,3*0F
$GNGSA,A,3,27,28,30,,,,,,,,,,1.06,0.56,0.90,4*05
$GPGSV,3,1,12,01,36,067,39,06,06,183,34,07,15,145,41,11,31,053,29,1*6E
$GPGSV,3,2,12,13,33,260,31,15,17,293,17,17,69,234,19,18,19,045,20,1*68
$GPGSV,3,3,12,19,44,227,45,24,01,319,,28,67,027,33,30,46,151,42,1*69
$GPGSV,3,1,12,01,36,067,26,06,06,183,32,07,15,145,31,11,31,053,,6*6D
$GPGSV,3,2,12,13,33,260,,15,17,293,20,17,69,234,28,18,19,045,,6*69
$GPGSV,3,3,12,19,44,227,,24,01,319,,28,67,027,,30,46,151,39,6*63
$GLGSV,3,1,09,65,04,282,,66,04,338,20,73,40,111,41,74,70,031,34,1*77
$GLGSV,3,2,09,75,27,320,32,83,20,030,12,84,76,071,20,85,38,198,41,1*74
$GLGSV,3,3,09,1*71
$GLGSV,3,1,09,65,04,282,,66,04,338,20,73,40,111,39,74,70,031,24,3*7B
$GLGSV,3,2,09,75,27,320,31,83,20,030,26,84,76,071,26,85,38,198,38,3*7A
$GLGSV,3,3,09,3*73
$GAGSV,3,1,10,01,39,309,35,04,11,285,10,09,00,331,,13,63,094,32,7*7E
$GAGSV,3,2,10,15,23,042,18,18,53,058,30,19,07,232,16,21,74,049,34,7*79
$GAGSV,3,3,10,26,39,182,42,27,28,106,27,7*7C
$GAGSV,3,1,10,01,39,309,31,04,11,285,,09,00,331,,13,63,094,21,2*7C
$GAGSV,3,2,10,15,23,042,32,18,53,058,38,19,07,232,23,21,74,049,33,2*7D
$GAGSV,3,3,10,26,39,182,39,27,28,106,29,2*7B
$GBGSV,2,1,05,06,02,336,,16,00,341,,27,78,096,28,28,28,046,25,1*79
$GBGSV,2,2,05,30,39,213,41,1*4F
$GBGSV,2,1,05,06,02,336,,16,00,341,,27,78,096,,28,28,046,,*45
$GBGSV,2,2,05,30,39,213,,*7B
$GNGLL,3947.65399,N,10509.20159,W,172947.00,A,A*60
$GNRMC,172948.00,A,3947.65398,N,10509.20159,W,0.008,,060619,,,A,V*0D
$GNVTG,,T,,M,0.008,N,0.015,K,A*31
$GNGGA,172948.00,3947.65398,N,10509.20159,W,1,12,0.54,1707.7,M,-21.5,M,,*44
$GNGSA,A,3,07,13,17,19,01,28,18,11,15,30,,,1.00,0.54,0.84,1*03
$GNGSA,A,3,74,84,85,73,83,75,,,,,,,1.00,0.54,0.84,2*01
$GNGSA,A,3,04,26,13,01,15,21,27,,,,,,1.00,0.54,0.84,3*0E
$GNGSA,A,3,27,28,30,,,,,,,,,,1.00,0.54,0.84,4*04
$GPGSV,3,1,12,01,36,067,39,06,06,183,34,07,15,145,41,11,31,053,29,1*6E
$GPGSV,3,2,12,13,33,260,31,15,17,293,15,17,69,234,20,18,19,045,20,1*60
$GPGSV,3,3,12,19,44,227,45,24,01,319,,28,67,027,33,30,46,151,42,1*69
$GPGSV,3,1,12,01,36,067,26,06,06,183,32,07,15,145,31,11,31,053,,6*6D
$GPGSV,3,2,12,13,33,260,,15,17,293,20,17,69,234,28,18,19,045,,6*69
$GPGSV,3,3,12,19,44,227,,24,01,319,,28,67,027,,30,46,151,39,6*63
$GLGSV,3,1,09,65,04,282,,66,04,338,21,73,40,111,41,74,70,031,34,1*76
$GLGSV,3,2,09,75,27,320,32,83,20,030,11,84,76,071,20,85,38,198,42,1*74
$GLGSV,3,3,09,1*71
$GLGSV,3,1,09,65,04,282,,66,04,338,19,73,40,111,39,74,70,031,24,3*71
$GLGSV,3,2,09,75,27,320,31,83,20,030,25,84,76,071,26,85,38,198,38,3*79
$GLGSV,3,3,09,3*73
$GAGSV,3,1,10,01,39,309,35,04,11,285,12,09,00,331,,13,63,094,32,7*7C
$GAGSV,3,2,10,15,23,042,18,18,53,058,30,19,07,232,16,21,74,049,34,7*79
$GAGSV,3,3,10,26,39,182,42,27,28,106,27,7*7C
$GAGSV,3,1,10,01,39,309,31,04,11,285,,09,00,331,,13,63,094,21,2*7C
$GAGSV,3,2,10,15,23,042,32,18,53,058,38,19,07,232,23,21,74,049,33,2*7D
$GAGSV,3,3,10,26,39,182,39,27,28,106,29,2*7B
$GBGSV,2,1,05,06,02,336,,16,00,341,,27,78,096,28,28,28,046,25,1*79
$GBGSV,2,2,05,30,39,213,41,1*4F
$GBGSV,2,1,05,06,02,336,,16,00,341,,27,78,096,,28,28,046,,*45
$GBGSV,2,2,05,30,39,213,,*7B
$GNGLL,3947.65398,N,10509.20159,W,172948.00,A,A*6E
V*0F
$GNVTG,,T,,M,0.026,N,0.048,K,A*35
$GNGGA,172949.00,3947.65397,N,10509.20159,W,1,12,0.54,1707.8,M,-21.5,M,,*45
$GNGSA,A,3,07,13,17,19,01,28,18,11,15,30,,,1.00,0.54,0.84,1*03
$GNGSA,A,3,74,84,85,73,83,75,,,,,,,1.00,0.54,0.84,2*01
$GNGSA,A,3,04,26,13,01,15,21,27,,,,,,1.00,0.54,0.84,3*0E
$GNGSA,A,3,27,28,30,,,,,,,,,,1.00,0.54,0.84,4*04
$GPGSV,3,1,12,01,36,067,38,06,06,183,34,07,15,145,41,11,31,053,29,1*6F
$GPGSV,3,2,12,13,33,260,31,15,17,293,14,17,69,234,20,18,19,045,20,1*61
$GPGSV,3,3,12,19,44,227,45,24,01,319,,28,67,027,33,30,46,151,42,1*69
$GPGSV,3,1,12,01,36,067,26,06,06,183,33,07,15,145,31,11,31,053,,6*6C
$GPGSV,3,2,12,13,33,260,,15,17,293,20,17,69,234,28,18,19,045,,6*69
$GPGSV,3,3,12,19,44,227,,24,01,319,,28,67,027,,30,46,151,39,6*63
$GLGSV,3,1,09,65,04,282,,66,04,338,21,73,40,111,41,74,70,031,34,1*76
$GLGSV,3,2,09,75,27,320,32,83,20,030,08,84,76,071,21,85,38,198,42,1*7D
$GLGSV,3,3,09,1*71
$GLGSV,3,1,09,65,04,282,,66,04,338,19,73,40,111,39,74,70,031,24,3*71
$GLGSV,3,2,09,75,27,320,31,83,20,030,25,84,76,071,26,85,38,198,38,3*79
$GLGSV,3,3,09,3*73
$GAGSV,3,1,10,01,39,309,35,04,11,285,10,09,00,331,,13,63,094,32,7*7E
$GAGSV,3,2,10,15,23,042,16,18,53,058,30,19,07,232,17,21,74,049,34,7*76
$GAGSV,3,3,10,26,39,182,42,27,28,106,27,7*7C
$GAGSV,3,1,10,01,39,309,31,04,11,285,,09,00,331,,13,63,094,21,2*7C
$GAGSV,3,2,10,15,23,042,32,18,53,058,38,19,07,232,24,21,74,049,33,2*7A
$GAGSV,3,3,10,26,39,182,39,27,28,106,29,2*7B
$GBGSV,2,1,05,06,02,336,,16,00,341,,27,78,096,28,28,28,046,25,1*79
$GBGSV,2,2,05,30,39,213,40,1*4E
$GBGSV,2,1,05,06,02,336,,16,00,341,,27,78,096,,28,28,046,,*45
$GBGSV,2,2,05,30,39,213,,*7B
$GNGLL,3947.65397,N,10509.20159,W,172949.00,A,A*60
$GNRMC,172950.00,A,3947.65397,N,10509.20159,W,0.025,,060619,,,A,V*04
$GNVTG,,T,,M,0.025,N,0.046,K,A*38
$GNGGA,172950.00,3947.65397,N,10509.20159,W,1,12,0.56,1707.9,M,-21.5,M,,*4E
$GNGSA,A,3,07,13,17,19,01,28,18,11,15,30,,,1.06,0.56,0.90,1*02
$GNGSA,A,3,74,84,85,73,83,75,,,,,,,1.06,0.56,0.90,2*00
$GNGSA,A,3,04,26,13,01,15,21,27,,,,,,1.06,0.56,0.90,3*0F
$GNGSA,A,3,27,28,30,,,,,,,,,,1.06,0.56,0.90,4*05
$GPGSV,3,1,12,01,36,067,38,06,06,183,34,07,15,145,42,11,31,053,29,1*6C
$GPGSV,3,2,12,13,33,260,31,15,17,293,11,17,69,234,21,18,19,045,20,1*65
$GPGSV,3,3,12,19,44,227,45,24,01,319,,28,67,027,33,30,46,151,42,1*69
$GPGSV,3,1,12,01,36,067,26,06,06,183,32,07,15,145,30,11,31,053,,6*6C
$GPGSV,3,2,12,13,33,260,,15,17,293,20,17,69,234,28,18,19,045,,6*69
$GPGSV,3,3,12,19,44,227,,24,01,319,,28,67,027,,30,46,151,39,6*63
$GLGSV,3,1,09,65,04,282,,66,04,338,22,73,40,111,41,74,70,031,34,1*75
$GLGSV,3,2,09,75,27,320,32,83,20,030,11,84,76,071,22,85,38,198,42,1*76
$GLGSV,3,3,09,1*71
$GLGSV,3,1,09,65,04,282,,66,04,338,19,73,40,111,39,74,70,031,24,3*71
8,3*7A
$GLGSV,3,3,09,3*73
$GAGSV,3,1,10,01,39,309,35,04,11,285,09,09,00,331,,13,63,094,32,7*76
$GAGSV,3,2,10,15,23,042,15,18,53,058,30,19,07,232,16,21,74,049,34,7*74
$GAGSV,3,3,10,26,39,182,42,27,28,106,27,7*7C
$GAGSV,3,1,10,01,39,309,31,04,11,285,,09,00,331,,13,63,094,21,2*7C
$GAGSV,3,2,10,15,23,042,32,18,53,058,38,19,07,232,24,21,74,049,33,2*7A
$GAGSV,3,3,10,26,39,182,39,27,28,106,29,2*7B
$GBGSV,2,1,05,06,02,336,,16,00,341,,27,78,096,28,28,28,046,25,1*79
$GBGSV,2,2,05,30,39,213,40,1*4E
$GBGSV,2,1,05,06,02,336,,16,00,341,,27,78,096,,28,28,046,,*45
$GBGSV,2,2,05,30,39,213,,*7B
$GNGLL,3947.65397,N,10509.20159,W,172950.00,A,A*68
$GNRMC,172951.00,A,3947.65396,N,10509.20159,W,0.025,,060619,,,A,V*04
$GNVTG,,T,,M,0.025,N,0.047,K,A*39
$GNGGA,172951.00,3947.65396,N,10509.20159,W,1,12,0.54,1707.9,M,-21.5,M,,*4C
$GNGSA,A,3,07,13,17,19,01,28,18,11,15,30,,,1.00,0.54,0.84,1*03
$GNGSA,A,3,74,84,85,73,83,75,,,,,,,1.00,0.54,0.84,2*01
$GNGSA,A,3,04,26,13,01,15,21,27,,,,,,1.00,0.54,0.84,3*0E
$GNGSA,A,3,27,28,30,,,,,,,,,,1.00,0.54,0.84,4*04
$GPGSV,3,1,12,01,36,067,38,06,06,183,34,07,15,145,42,11,31,053,29,1*6C
$GPGSV,3,2,12,13,33,260,31,15,17,293,13,17,69,234,21,18,19,045,20,1*67
$GPGSV,3,3,12,19,44,227,44,24,01,319,,28,67,027,32,30,46,151,42,1*69
$GPGSV,3,1,12,01,36,067,26,06,06,183,32,07,15,145,30,11,31,053,,6*6C
$GPGSV,3,2,12,13,33,260,,15,17,293,20,17,69,234,28,18,19,045,,6*69
$GPGSV,3,3,12,19,44,227,,24,01,319,,28,67,027,,30,46,151,39,6*63
$GLGSV,3,1,09,65,04,282,,66,04,338,22,73,40,111,41,74,70,031,34,1*75
$GLGSV,3,2,09,75,27,320,32,83,20,030,09,84,76,071,21,85,38,198,42,1*7C
$GLGSV,3,3,09,1*71
$GLGSV,3,1,09,65,04,282,,66,04,338,19,73,40,111,39,74,70,031,24,3*71
$GLGSV,3,2,09,75,27,320,31,83,20,030,26,84,76,071,27,85,38,198,38,3*7B
$GLGSV,3,3,09,3*73
$GAGSV,3,1,10,01,39,309,35,04,11,285,11,09,00,331,,13,63,094,32,7*7F
$GAGSV,3,2,10,15,23,042,14,18,53,058,30,19,07,232,17,21,74,049,34,7*74
$GAGSV,3,3,10,26,39,182,42,27,28,106,27,7*7C
$GAGSV,3,1,10,01,39,309,31,04,11,285,,09,00,331,,13,63,094,21,2*7C
$GAGSV,3,2,10,15,23,042,33,18,53,058,38,19,07,232,24,21,74,049,33,2*7B
$GAGSV,3,3,10,26,39,182,39,27,28,106,29,2*7B
$GBGSV,2,1,05,06,02,336,,16,00,341,,27,78,096,28,28,28,046,25,1*79
$GBGSV,2,2,05,30,39,213,40,1*4E
$GBGSV,2,1,05,06,02,336,,16,00,341,,27,78,096,,28,28,046,,*45
$GBGSV,2,2,05,30,39,213,,*7B
$GNGLL,3947.65396,N,10509.20159,W,172951.00,A,A*68
$GNRMC,172952.00,A,3947.65395,N,10509.20159,W,0.020,,060619,,,A,V*01
$GNVTG,,T,,M,0.020,N,0.038,K,A*34
$GNGGA,172952.00,3947.65395,N,10509.20159,W,1,12,0.54,1708.0,M,-21.5,M,,*4A
$GNGSA,A,3,07,13,17,19,01,28,18,11,15,30,,,1.00,0.54,0.84,1*03
$GNGSA,A,3,74,84,85,73,83,75,,,,,,,1.00,0.54,0.84,2*01
$GNGSA,A,3,04,26,13,01,15,21,27,,,,,,1.00,0.54,0.84,3*0E
$GNGSA,A,3,27,28,30,,,,,,,,,,1.00,0.54,0.84,4*04
$GPGSV,3,1,12,01,36,067,38,06,06,183,34,07,15,145,42,11,31,053,29,1*6C
$GPGSV,3,2,12,13,33,260,31,15,17,293,12,17,69,234,21,18,19,045,20,1*66
$GPGSV,3,3,12,19,44,227,44,24,01,319,,28,67,027,32,30,46,151,42,1*69
$GPGSV,3,1,12,01,36,067,26,06,06,183,32,07,15,145,30,11,31,053,,6*6C
$GPGSV,3,2,12,13,33,260,,15,17,293,20,17,69,234,28,18,19,045,,6*69
$GPGSV,3,3,12,19,44,227,,24,01,319,,28,67,027,,30,46,151,39,6*63
$GLGSV,3,1,09,65,04,282,,66,04,338,22,73,40,111,41,74,70,031,34,1*75
$GLGSV,3,2,09,75,27,320,32,83,20,030,09,84,76,071,21,85,38,198,42,1*7C
$GLGSV,3,3,09,1*71
$GLGSV,3,1,09,65,04,282,,66,04,338,19,73,40,111,39,74,70,031,24,3*71
$GLGSV,3,2,09,75,27,320,31,83,20,030,26,84,76,071,26,85,38,198,38,3*7A
$GLGSV,3,3,09,3*73
$GAGSV,3,1,10,01,39,309,35,04,11,285,09,09,00,331,,13,63,094,32,7*76
$GAGSV,3,2,10,15,23,042,13,18,53,058,31,19,07,232,16,21,74,049,34,7*73
$GAGSV,3,3,10,26,39,182,42,27,28,106,27,7*7C
$GAGSV,3,1,10,01,39,309,31,04,11,285,,09,00,331,,13,63,094,21,2*7C
$GAGSV,3,2,10,15,23,042,32,18,53,058,38,19,07,232,24,21,74,049,33,2*7A
$GAGSV,3,3,10,26,39,182,39,27,28,106,29,2*7B
$GBGSV,2,1,05,06,02,336,,16,00,341,,27,78,096,28,28,28,046,25,1*79
$GBGSV,2,2,05,30,39,213,40,1*4E
$GBGSV,2,1,05,06,02,336,,16,00,341,,27,78,096,,28,28,046,,*45
$GBGSV,2,2,05,30,39,213,,*7B
$GNGLL,3947.65395,N,10509.20159,W,172952.00,A,A*68
$GNRMC,172953.00,A,3947.65394,N,10509.20158,W,0.019,,060619,,,A,V*0A
$GNVTG,,T,,M,0.019,N,0.035,K,A*33
$GNGGA,172953.00,3947.65394,N,10509.20158,W,1,12,0.54,1708.0,M,-21.5,M,,*4B
$GNGSA,A,3,07,13,17,19,01,28,18,11,15,30,,,1.00,0.54,0.84,1*03
$GNGSA,A,3,74,84,85,73,83,75,,,,,,,1.00,0.54,0.84,2*01
$GNGSA,A,3,04,26,13,01,15,21,27,,,,,,1.00,0.54,0.84,3*0E
$GNGSA,A,3,27,28,30,,,,,,,,,,1.00,0.54,0.84,4*04
$GPGSV,3,1,12,01,36,067,38,06,06,183,34,07,15,145,42,11,31,053,29,1*6C
$GPGSV,3,2,12,13,33,260,31,15,17,293,13,17,69,234,22,18,19,045,20,1*64
$GPGSV,3,3,12,19,44,227,44,24,01,319,,28,67,027,32,30,46,151,42,1*69
$GPGSV,3,1,12,01,36,067,26,06,06,183,32,07,15,145,30,11,31,053,,6*6C
$GPGSV,3,2,12,13,33,260,,15,17,293,20,17,69,234,28,18,19,045,,6*69
$GPGSV,3,3,12,19,44,227,,24,01,319,,28,67,027,,30,46,151,39,6*63
$GLGSV,3,1,09,65,04,282,,66,04,338,22,73,40,111,41,74,70,031,34,1*75
$GLGSV,3,2,09,75,27,320,31,83,20,030,13,84,76,071,22,85,38,198,42,1*77
$GLGSV,3,3,09,1*71
$GLGSV,3,1,09,65,04,282,,66,04,338,18,73,40,111,39,74,70,031,25,3*71
$GLGSV,3,2,09,75,27,320,31,83,20,030,26,84,76,071,26,85,38,198,38,3*7A
$GLGSV,3,3,09,3*73
$GAGSV,3,1,10,01,39,309,35,04,11,285,09,09,00,331,,13,63,094,32,7*76
$GAGSV,3,2,10,15,23,042,12,18,53,058,31,19,07,232,15,21,74,049,34,7*71
$GAGSV,3,3,10,26,39,182,42,27,28,106,27,7*7C
$GAGSV,3,1,10,01,39,309,31,04,11,285,,09,00,331,,13,63,094,21,2*7C
$GAGSV,3,2,10,15,23,042,32,18,53,058,38,19,07,232,25,21,74,049,33,2*7B
$GAGSV,3,3,10,26,39,182,39,27,28,106,30,2*73
$GBGSV,2,1,05,06,02,336,,16,00,341,,27,78,096,28,28,28,046,24,1*78
$GBGSV,2,2,05,30,39,213,40,1*4E
$GBGSV,2,1,05,06,02,336,,16,00,341,,27,78,096,,28,28,046,,*45
$GBGSV,2,2,05,30,39,213,,*7B
$GNGLL,3947.65394,N,10509.20158,W,172953.00,A,A*69
$GNRMC,172954.00,A,3947.65393,N,10509.20158,W,0.018,,060619,,,A,V*0B
$GNVTG,,T,,M,0.018,N,0.033,K,A*34
$GNGGA,172954.00,3947.65393,N,10509.20158,W,1,12,0.54,1708.1,M,-21.5,M,,*4A
$GNGSA,A,3,07,13,17,19,01,28,18,11,15,30,,,1.00,0.54,0.84,1*03
$GNGSA,A,3,74,84,85,73,83,75,,,,,,,1.00,0.54,0.84,2*01
$GNGSA,A,3,04,26,13,01,15,21,27,,,,,,1.00,0.54,0.84,3*0E
$GNGSA,A,3,27,28,30,,,,,,,,,,1.00,0.54,0.84,4*04
$GPGSV,3,1,12,01,36,067,38,06,06,183,34,07,15,145,41,11,31,053,29,1*6F
$GPGSV,3,2,12,13,33,260,31,15,17,293,09,17,69,234,22,18,19,045,19,1*65
$GPGSV,3,3,12,19,44,227,44,24,01,319,,28,67,027,32,30,46,151,42,1*69
$GPGSV,3,1,12,01,36,067,26,06,06,183,33,07,15,145,30,11,31,053,,6*6D
$GPGSV,3,2,12,13,33,260,,15,17,293,20,17,69,234,28,18,19,045,,6*69
$GPGSV,3,3,12,19,44,227,,24,01,319,,28,67,027,,30,46,151,39,6*63
$GLGSV,3,1,09,65,04,282,,66,04,338,21,73,40,111,41,74,70,031,33,1*71
$GLGSV,3,2,09,75,27,320,31,83,20,030,10,84,76,071,22,85,38,198,42,1*74
$GLGSV,3,3,09,1*71
$GLGSV,3,1,09,65,04,282,,66,04,338,18,73,40,111,39,74,70,031,25,3*71
$GLGSV,3,2,09,75,27,320,30,83,20,030,26,84,76,071,26,85,38,198,38,3*7B
$GLGSV,3,3,09,3*73
$GAGSV,3,1,10,01,39,309,35,04,11,285,11,09,00,331,,13,63,094,32,7*7F
$GAGSV,3,2,10,15,23,042,12,18,53,058,31,19,07,232,16,21,74,049,34,7*72
$GAGSV,3,3,10,26,39,182,42,27,28,106,27,7*7C
$GAGSV,3,1,10,01,39,309,31,04,11,285,,09,00,331,,13,63,094,21,2*7C
$GAGSV,3,2,10,15,23,042,33,18,53,058,38,19,07,232,25,21,74,049,33,2*7A
$GAGSV,3,3,10,26,39,182,39,27,28,106,29,2*7B
$GBGSV,2,1,05,06,02,336,,16,00,341,,27,78,096,27,28,28,046,24,1*77
$GBGSV,2,2,05,30,39,213,40,1*4E
$GBGSV,2,1,05,06,02,336,,16,00,341,,27,78,096,,28,28,046,,*45
$GBGSV,2,2,05,30,39,213,,*7B
$GNGLL,3947.65393,N,10509.20158,W,172954.00,A,A*69
$GNRMC,172955.00,A,3947.65393,N,10509.20157,W,0.020,,060619,,,A,V*0E
$GNVTG,,T,,M,0.020,N,0.037,K,A*3B
$GNGGA,172955.00,3947.65393,N,10509.20157,W,1,12,0.54,1708.2,M,-21.5,M,,*47
$GNGSA,A,3,07,13,17,19,01,28,18,11,15,30,,,1.00,0.54,0.84,1*03
$GNGSA,A,3,74,84,85,73,83,75,,,,,,,1.00,0.54,0.84,2*01
$GNGSA,A,3,04,26,13,01,15,21,27,,,,,,1.00,0.54,0.84,3*0E
$GNGSA,A,3,27,28,30,,,,,,,,,,1.00,0.54,0.84,4*04
$GPGSV,3,1,12,01,36,067,38,06,06,183,34,07,15,145,42,11,31,053,29,1*6C
$GPGSV,3,2,12,13,33,260,32,15,17,293,15,17,69,234,22,18,19,045,19,1*6B
$GPGSV,3,3,12,19,44,227,44,24,01,319,,28,67,027,32,30,46,151,42,1*69
$GPGSV,3,1,12,01,36,067,26,06,06,183,32,07,15,145,30,11,31,053,,6*6C
$GPGSV,3,2,12,13,33,260,,15,17,293,19,17,69,234,29,18,19,045,,6*62
$GPGSV,3,3,12,19,44,227,,24,01,319,,28,67,027,,30,46,151,39,6*63
$GLGSV,3,1,09,65,04,282,,66,04,338,22,73,40,111,41,74,70,031,33,1*72
$GLGSV,3,2,09,75,27,320,31,83,20,030,12,84,76,071,22,85,38,198,42,1*76
$GLGSV,3,3,09,1*71
$GLGSV,3,1,09,65,04,282,,66,04,338,18,73,40,111,39,74,70,031,25,3*71
$GLGSV,3,2,09,75,27,320,30,83,20,030,26,84,76,071,27,85,38,198,38,3*7A
$GLGSV,3,3,09,3*73
$GAGSV,3,1,10,01,39,309,34,04,11,285,09,09,00,331,,13,63,094,32,7*77
$GAGSV,3,2,10,15,23,042,16,18,53,058,31,19,07,232,17,21,74,049,34,7*77
$GAGSV,3,3,10,26,39,182,42,27,28,106,27,7*7C
$GAGSV,3,1,10,01,39,309,31,04,11,285,,09,00,331,,13,63,094,22,2*7F
$GAGSV,3,2,10,15,23,042,32,18,53,058,38,19,07,232,25,21,74,049,33,2*7B
$GAGSV,3,3,10,26,39,182,39,27,28,106,29,2*7B
$GBGSV,2,1,05,06,02,336,,16,00,341,,27,78,092,27,28,28,046,24,1*73
$GBGSV,2,2,05,30,39,213,40,1*4E
$GBGSV,2,1,05,06,02,336,,16,00,341,,27,78,092,,28,28,046,,*41
$GBGSV,2,2,05,30,39,213,,*7B
$GNGLL,3947.65393,N,10509.20157,W,172955.00,A,A*67
V*07
$GNVTG,,T,,M,0.018,N,0.033,K,A*34
$GNGGA,172956.00,3947.65392,N,10509.20157,W,1,12,0.54,1708.2,M,-21.5,M,,*45
$GNGSA,A,3,07,13,17,19,01,28,18,11,15,30,,,1.00,0.54,0.84,1*03
$GNGSA,A,3,74,84,85,73,83,75,,,,,,,1.00,0.54,0.84,2*01
$GNGSA,A,3,04,26,13,01,15,21,27,,,,,,1.00,0.54,0.84,3*0E
$GNGSA,A,3,27,28,30,,,,,,,,,,1.00,0.54,0.84,4*04
$GPGSV,3,1,12,01,36,067,38,06,06,183,34,07,15,145,42,11,31,053,30,1*64
$GPGSV,3,2,12,13,33,260,31,15,17,293,13,17,69,234,22,18,19,045,19,1*6E
$GPGSV,3,3,12,19,44,227,44,24,01,319,,28,67,027,32,30,46,151,42,1*69
$GPGSV,3,1,12,01,36,067,26,06,06,183,33,07,15,145,31,11,31,053,,6*6C
$GPGSV,3,2,12,13,33,260,,15,17,293,19,17,69,234,28,18,19,045,,6*63
$GPGSV,3,3,12,19,44,227,,24,01,319,,28,67,027,,30,46,151,39,6*63
$GLGSV,3,1,09,65,04,282,,66,04,338,22,73,40,111,41,74,70,031,33,1*72
$GLGSV,3,2,09,75,27,320,31,83,20,030,10,84,76,071,22,85,38,198,42,1*74
$GLGSV,3,3,09,1*71
$GLGSV,3,1,09,65,04,282,,66,04,338,18,73,40,111,39,74,70,031,25,3*71
$GLGSV,3,2,09,75,27,320,30,83,20,030,26,84,76,071,27,85,38,198,39,3*7B
$GLGSV,3,3,09,3*73
$GAGSV,3,1,10,01,39,309,35,04,11,285,11,09,00,331,,13,63,094,32,7*7F
$GAGSV,3,2,10,15,23,042,14,18,53,058,31,19,07,232,17,21,74,049,34,7*75
$GAGSV,3,3,10,26,39,182,42,27,28,106,27,7*7C
$GAGSV,3,1,10,01,39,309,31,04,11,285,,09,00,331,,13,63,094,22,2*7F
$GAGSV,3,2,10,15,23,042,33,18,53,058,38,19,07,232,24,21,74,049,33,2*7B
$GAGSV,3,3,10,26,39,182,39,27,28,106,29,2*7B
$GBGSV,2,1,05,06,02,336,,16,00,341,,27,78,092,27,28,27,046,24,1*7C
$GBGSV,2,2,05,30,39,213,40,1*4E
$GBGSV,2,1,05,06,02,336,,16,00,341,,27,78,092,,28,27,046,,*4E
$GBGSV,2,2,05,30,39,213,,*7B
$GNGLL,3947.65392,N,10509.20157,W,172956.00,A,A*65
$GNRMC,172957.00,A,3947.65391,N,10509.20157,W,0.013,,060619,,,A,V*0E
$GNVTG,,T,,M,0.013,N,0.024,K,A*39
$GNGGA,172957.00,3947.65391,N,10509.20157,W,1,12,0.54,1708.2,M,-21.5,M,,*47
$GNGSA,A,3,07,13,17,19,01,28,18,11,15,30,,,1.00,0.54,0.84,1*03
$GNGSA,A,3,74,84,85,73,83,75,,,,,,,1.00,0.54,0.84,2*01
$GNGSA,A,3,04,26,13,01,15,21,27,,,,,,1.00,0.54,0.84,3*0E
$GNGSA,A,3,27,28,30,,,,,,,,,,1.00,0.54,0.84,4*04
$GPGSV,3,1,12,01,36,067,38,06,06,183,35,07,15,145,42,11,31,053,30,1*65
$GPGSV,3,2,12,13,33,260,32,15,17,293,09,17,69,234,22,18,19,045,20,1*6C
$GPGSV,3,3,12,19,44,227,44,24,01,319,,28,67,027,32,30,46,151,42,1*69
$GPGSV,3,1,12,01,36,067,26,06,06,183,33,07,15,145,31,11,31,053,,6*6C
$GPGSV,3,2,12,13,33,260,,15,17,293,19,17,69,234,28,18,19,045,,6*63
$GPGSV,3,3,12,19,44,227,,24,01,319,,28,67,027,,30,46,151,39,6*63
$GLGSV,3,1,09,65,04,282,,66,04,338,23,73,40,111,41,74,70,031,32,1*72
$GLGSV,3,2,09,75,27,320,31,83,20,030,09,84,76,071,23,85,38,198,41,1*7E
$GLGSV,3,3,09,1*71
$GLGSV,3,1,09,65,04,282,,66,04,338,18,73,40,111,39,74,70,031,25,3*71
$GLGSV,3,2,09,75,27,320,30,83,20,030,26,84,76,071,27,85,38,198,39,3*7B
$GLGSV,3,3,09,3*73
$GAGSV,3,1,10,01,39,309,35,04,11,285,09,09,00,331,,13,63,094,33,7*77
$GAGSV,3,2,10,15,23,042,12,18,53,058,31,19,07,232,17,21,74,049,34,7*73
$GAGSV,3,3,10,26,39,182,42,27,28,106,27,7*7C
$GAGSV,3,1,10,01,39,309,31,04,11,285,,09,00,331,,13,63,094,22,2*7F
$GAGSV,3,2,10,15,23,042,33,18,53,058,38,19,07,232,24,21,74,049,33,2*7B
$GAGSV,3,3,10,26,39,182,39,27,28,106,29,2*7B
$GBGSV,2,1,05,06,02,336,,16,00,341,,27,78,092,27,28,27,046,24,1*7C
$GBGSV,2,2,05,30,39,213,40,1*4E
$GBGSV,2,1,05,06,02,336,,16,00,341,,27,78,092,,28,27,046,,*4E
$GBGSV,2,2,05,30,39,213,,*7B
$GNGLL,3947.65391,N,10509.20157,W,172957.00,A,A*67
$GNRMC,172958.00,A,3947.65391,N,10509.20156,W,0.009,,060619,,,A,V*0B
$GNVTG,,T,,M,0.009,N,0.016,K,A*33
$GNGGA,172958.00,3947.65391,N,10509.20156,W,1,12,0.54,1708.2,M,-21.5,M,,*49
$GNGSA,A,3,07,13,17,19,01,28,18,11,15,30,,,1.00,0.54,0.84,1*03
$GNGSA,A,3,74,84,85,73,83,75,,,,,,,1.00,0.54,0.84,2*01
$GNGSA,A,3,04,26,13,01,15,21,27,,,,,,1.00,0.54,0.84,3*0E
$GNGSA,A,3,27,28,30,,,,,,,,,,1.00,0.54,0.84,4*04
$GPGSV,3,1,12,01,36,067,38,06,06,183,35,07,15,145,42,11,31,053,30,1*65
$GPGSV,3,2,12,13,33,260,32,15,17,293,11,17,69,234,21,18,19,045,20,1*66
$GPGSV,3,3,12,19,44,227,44,24,01,319,,28,67,027,31,30,46,151,42,1*6A
$GPGSV,3,1,12,01,36,067,26,06,06,183,33,07,15,145,31,11,31,053,,6*6C
$GPGSV,3,2,12,13,33,260,,15,17,293,19,17,69,234,28,18,19,045,,6*63
$GPGSV,3,3,12,19,44,227,,24,01,319,,28,67,027,,30,46,151,39,6*63
$GLGSV,3,1,09,65,04,282,,66,04,338,23,73,40,111,41,74,70,031,32,1*72
$GLGSV,3,2,09,75,27,320,30,83,20,030,07,84,76,071,23,85,38,198,41,1*71
$GLGSV,3,3,09,1*71
$GLGSV,3,1,09,65,04,282,,66,04,338,17,73,40,111,39,74,70,031,25,3*7E
$GLGSV,3,2,09,75,27,320,30,83,20,030,26,84,76,071,27,85,38,198,39,3*7B
$GLGSV,3,3,09,3*73
$GAGSV,3,1,10,01,39,309,35,04,11,285,12,09,00,331,,13,63,094,33,7*7D
$GAGSV,3,2,10,15,23,042,11,18,53,058,31,19,07,232,17,21,74,049,34,7*70
$GAGSV,3,3,10,26,39,182,42,27,28,106,27,7*7C
$GAGSV,3,1,10,01,39,309,31,04,11,285,,09,00,331,,13,63,094,22,2*7F
$GAGSV,3,2,10,15,23,042,32,18,53,058,38,19,07,232,25,21,74,049,33,2*7B
$GAGSV,3,3,10,26,39,182,39,27,28,106,29,2*7B
$GBGSV,2,1,05,06,02,336,,16,00,341,,27,78,092,27,28,27,046,24,1*7C
$GBGSV,2,2,05,30,40,213,40,1*40
$GBGSV,2,1,05,06,02,336,,16,00,341,,27,78,092,,28,27,046,,*4E
$GBGSV,2,2,05,30,40,213,,*75
$GNGLL,3947.65391,N,10509.20156,W,172958.00,A,A*69
$GNRMC,172959.00,A,3947.65391,N,10509.20157,W,0.031,,060619,,,A,V*00
$GNVTG,,T,,M,0.031,N,0.057,K,A*3D
$GNGGA,172959.00,3947.65391,N,10509.20157,W,1,12,0.54,1708.2,M,-21.5,M,,*49
$GNGSA,A,3,07,13,17,19,01,28,18,11,15,30,,,1.00,0.54,0.84,1*03
$GNGSA,A,3,74,84,85,73,83,75,,,,,,,1.00,0.54,0.84,2*01
$GNGSA,A,3,04,26,13,01,15,21,27,,,,,,1.00,0.54,0.84,3*0E
