\xd3\0\x98C \08\a\xb0b\0\0A\x14p\n\0\0\0\0 \0\x80\0}ui)\x89)H\xc9\x89H\xa8\xb0\x85\xfc\xfa\x1a\x85\x93w\xbf\xb5\x1e/\xcd\xaf\xd1C\x0e\xc6p\xf5y\x13\xd6q \xe2y\x98\x1d\xe7\x1a[\xc3\x87\b\x01\xfd\x8f\xc4\0\xd3\xf0]\x05\x81\xc2\xe5\xfa`\xc0\x15K \xdf\xe1\x03y\xcc\x0ea\x13\xddv/C\xfd@\xe8z\x04\x1bZ\xb7v7w7w@\x01\x133@\xdc\x14H\xec\xb3_0\0\0\0\0\0\0\0\0\0\0\0\0\0\0\0\0\0\0\0\0\0\0\0\0\0\0\0\0\0\0\xa4\xad\x1a
000000007edae9b0:                   d3009843 20003807 |        ...C .8.|
000000007edae9c0: b0620000 4114700a 00000000 20008000 |.b..A.p..... ...|
000000007edae9d0: 7d756929 892948c9 8948a8b0 85fcfa1a |}ui).)H..H......|
000000007edae9e0: 859377bf b51e2fcd afd1430e c670f579 |..w.../...C..p.y|
000000007edae9f0: 13d67120 e279981d e71a5bc3 870801fd |..q .y....[.....|
000000007edaea00: 8fc400d3 f05d0581 c2e5fa60 c0154b20 |.....].....`..K |
000000007edaea10: dfe10379 cc0e6113 dd762f43 fd40e87a |...y..a..v/C.@.z|
000000007edaea20: 041b5ab7 76377737 77400113 3340dc14 |..Z.v7w7w@..3@..|
000000007edaea30: 48ecb35f 30000000 00000000 00000000 |H.._0...........|
000000007edaea40: 00000000 00000000 00000000 00000000 |................|
000000007edaea50: 000000a4 ad1a                       |......          |
RTK gpstool: RTCM <1074> [158] [158] [158]
\xd3\0{C\xc0\0Qf\xe5"\0\0\x01A\xf0\0\0\0\0\0 \x80\0\0V\xfa\x9c\x9a\x8a\x82\x8e\x80\x8f\xe0*\xda\x02\b>\xa0\x8b\x897?\x1b\xfa\x92\xb6\x14n\xb4\xe2\xdd\xc8\xe0\xf7Y\xf6\xb2\x87\x816z\xfe\xc5\xab\xeb\x8c\xdf\xb2\xfe\xbe\xef\xa9\xfc'5\xf1\x80xt^B\x10\x80\x85\x03#5\xbb\xbb\xb9\xba\06\xfc\x8fE\x14P\xb90\0\0\0\0\0\0\0\0\0\0\0\0\0\0\0\0\0\0\0\0\0\0\0\0\xefzm
000000007edae9b0:                   d3007b43 c0005166 |        ..{C..Qf|
000000007edae9c0: e5220000 0141f000 00000000 20800000 |."...A...... ...|
000000007edae9d0: 56fa9c9a 8a828e80 8fe02ada 02083ea0 |V.........*...>.|
000000007edae9e0: 8b89373f 1bfa92b6 146eb4e2 ddc8e0f7 |..7?.....n......|
000000007edae9f0: 59f6b287 81367afe c5abeb8c dfb2febe |Y....6z.........|
000000007edaea00: efa9fc27 35f18078 745e4210 80850323 |...'5..xt^B....#|
000000007edaea10: 35bbbbb9 ba0036fc 8f451450 b9300000 |5.....6..E.P.0..|
000000007edaea20: 00000000 00000000 00000000 00000000 |................|
000000007edaea30: 00000000 0000ef7a 6d                |.......zm       |
RTK gpstool: RTCM <1084> [129] [129] [158]
\xd3\0^D`\08\a\xb0`\0\0 \x90\0@\b\0\0\0 \x01\0\0oi\xca\x89\xca)\xf0\xb5\xc9\xac\xa3\xe7\xf8\xdf\xa2\n\xda!\x01z\x83\x97\x1a\xe7\x95\x13?P8d!\t\x19z\x1d\xf2\05\xb8\x0f\x82\xc0\xd4\x1e\xf9\x0f\xdb\xe7\x95n\xec\xde^`\x04\xd1\xba\xe3\xd1U@\0\0\0\0\0\0\0\0\0\0\0\0IDS
000000007edae9b0:                   d3005e44 60003807 |        ..^D`.8.|
000000007edae9c0: b0600000 20900040 08000000 20010000 |.`.. ..@.... ...|
000000007edae9d0: 6f69ca89 ca29f0b5 c9aca3e7 f8dfa20a |oi...)..........|
000000007edae9e0: da21017a 83971ae7 95133f50 38642109 |.!.z......?P8d!.|
000000007edae9f0: 197a1df2 0035b80f 82c0d41e f90fdbe7 |.z...5..........|
000000007edaea00: 956eecde 5e6004d1 bae3d155 40000000 |.n..^`.....U@...|
000000007edaea10: 00000000 00000000 00494453          |.........IDS    |
RTK gpstool: RTCM <1094> [100] [100] [158]
\xd3\0\bL\xe0\0\x8a\0\0\0\0\xa8\xf7*
000000007edae9b0:                   d300084c e0008a00 |        ...L....|
000000007edae9c0: 000000a8 f72a                       |.....*          |
RTK gpstool: RTCM <1230> [14] [14] [158]
\xb5b\x01\x14$\0\0\0\0\0\x18\xec\x01\x0eB\xdfR\xc1c\x1e\xb8\x17\xbf\xca\x19\0\xbb\x1e\x1a\0\x1f\x1c\xff\xffw4\0\0\xfbV\0\0\x9a\x9c
000000007edaedc0:                            b5620114 |            .b..|
000000007edaedd0: 24000000 000018ec 010e42df 52c1631e |$.........B.R.c.|
000000007edaede0: b817bfca 1900bb1e 1a001f1c ffff7734 |..............w4|
000000007edaedf0: 0000fb56 00009a9c                   |...V....        |
\xb5b\x01;(\0\0\0\0\0\x18\xec\x01\x0e\x95\0\0\0\x10\x15Z\xf8\xffh\xc2\xe3\xdaj5\x18\x1e\xe4\xfa\0^\xe8\0\0\x96\0\0\0\0\x01\0\0\xf9\xea
000000007edaedc0:                            b562013b |            .b.;|
000000007edaedd0: 28000000 000018ec 010e9500 00001015 |(...............|
000000007edaede0: 5af8ff68 c2e3da6a 35181ee4 fa005ee8 |Z..h...j5.....^.|
000000007edaedf0: 00009600 00000001 0000f9ea          |............    |
$GNRMC,171629.00,A,3947.65423,N,10509.20101,W,0.023,,040619,,,A,V*07\r\n
$GNVTG,,T,,M,0.023,N,0.043,K,A*3B\r\n
$GNGGA,171629.00,3947.65423,N,10509.20101,W,1,12,0.66,1711.8,M,-21.5,M,,*4C\r\n
$GNGSA,A,3,07,11,30,19,28,01,17,13,15,18,,,1.26,0.66,1.08,1*03\r\n
$GNGSA,A,3,79,82,80,83,81,,,,,,,,1.26,0.66,1.08,2*00\r\n
$GNGSA,A,3,02,11,25,08,36,,,,,,,,1.26,0.66,1.08,3*07\r\n
$GNGSA,A,3,,,,,,,,,,,,,1.26,0.66,1.08,4*08\r\n
$GPGSV,3,1,11,01,37,079,34,07,24,142,38,08,03,048,24,11,38,060,27,1*6E\r\n
$GPGSV,3,2,11,13,37,271,32,15,17,302,23,17,59,222,40,18,24,053,29,1*6A\r\n
$GPGSV,3,3,11,19,34,221,37,28,69,002,38,30,56,146,47,1*52\r\n
$GPGSV,3,1,11,01,37,079,25,07,24,142,32,08,03,048,,11,38,060,,6*60\r\n
$GPGSV,3,2,11,13,37,271,,15,17,302,19,17,59,222,36,18,24,053,,6*6F\r\n
$GPGSV,3,3,11,19,34,221,,28,69,002,,30,56,146,38,6*52\r\n
$GLGSV,3,1,09,70,02,254,,71,10,300,27,72,03,345,,73,14,313,31,1*72\r\n
$GLGSV,3,2,09,79,40,103,36,80,66,003,27,81,34,035,34,82,76,114,33,1*73\r\n
$GLGSV,3,3,09,83,34,190,21,1*46\r\n
$GLGSV,3,1,09,70,02,254,,71,10,300,,72,03,345,,73,14,313,20,3*75\r\n
$GLGSV,3,2,09,79,40,103,30,80,66,003,34,81,34,035,34,82,76,114,28,3*7F\r\n
$GLGSV,3,3,09,83,34,190,38,3*4C\r\n
$GAGSV,2,1,07,02,69,345,38,07,12,302,,08,15,252,23,11,37,053,28,7*76\r\n
$GAGSV,2,2,07,25,43,093,34,30,23,300,,36,58,134,42,7*40\r\n
$GAGSV,2,1,07,02,69,345,35,07,12,302,,08,15,252,29,11,37,053,30,2*7D\r\n
$GAGSV,2,2,07,25,43,093,,30,23,300,,36,58,134,40,2*40\r\n
$GBGSV,1,1,00,*47\r\n
$GBGSV,1,1,00,*47\r\n
$GNGLL,3947.65423,N,10509.20101,W,171629.00,A,A*6F\r\n
\xd3\0\x98C \08\a\xc0\x02\0\0A\x14p\n\0\0\0\0 \0\x80\0}ui)\x89)H\xc9\x89H\xa8\xb0\x86\0\xfa\x9a\xa5\x8by\xbe\xb5\x1e7\x91\xefW\xc5\x8f\vw}\xac\xd4\x82k\xfc\xd81\xb3\x1dB[>\x8eR\x1d\x9b\xfb\xaa\v\xf9=\xb0\xad\x05\x03\x02\xe7\xfex\xfb\xd5\xee \xd5\x92\x03P\x96\x0f5\xf3\xd3)\x9f`e\x03\x9bX\x0e\xe6\xe6\xb7v7w7w@\x01\x13S@\xe4\x14J\xec\xb3_0\0\0\0\0\0\0\0\0\0\0\0\0\0\0\0\0\0\0\0\0\0\0\0\0\0\0\0\0\0\0\xbc\0\xa7
000000007edae9b0:                   d3009843 20003807 |        ...C .8.|
000000007edae9c0: c0020000 4114700a 00000000 20008000 |....A.p..... ...|
000000007edae9d0: 7d756929 892948c9 8948a8b0 8600fa9a |}ui).)H..H......|
000000007edae9e0: a58b79be b51e3791 ef57c58f 0b777dac |..y...7..W...w}.|
000000007edae9f0: d4826bfc d831b31d 425b3e8e 521d9bfb |..k..1..B[>.R...|
000000007edaea00: aa0bf93d b0ad0503 02e7fe78 fbd5ee20 |...=.......x... |
000000007edaea10: d5920350 960f35f3 d3299f60 65039b58 |...P..5..).`e..X|
000000007edaea20: 0ee6e6b7 76377737 77400113 5340e414 |....v7w7w@..S@..|
000000007edaea30: 4aecb35f 30000000 00000000 00000000 |J.._0...........|
000000007edaea40: 00000000 00000000 00000000 00000000 |................|
000000007edaea50: 000000bc 00a7                       |......          |
RTK gpstool: RTCM <1074> [14] [158] [158]
\xd3\0{C\xc0\0Qf\xf4\xc2\0\0\x01A\xf0\0\0\0\0\0 \x80\0\0V\xfa\x9c\x9a\x8a\x82\x8e\x80\x8f\xe0\xaa\x9a\n\x06?\xa0\x8by5\xad. \xb0\x02H\x82]\xf0\x99\xe4lr\0\xeb\xbe\x81\xc18\x17z\xe76\x04\0\xc0\x14\xcc@*X}\xe15\xf8h81\x95a\x05c\xfc\xf7[5\xbb\xbb\xb9\xba\06\xfc\x8fE\x14p\xbb0\0\0\0\0\0\0\0\0\0\0\0\0\0\0\0\0\0\0\0\0\0\0\0\0\x97\x96\xb4
000000007edae9b0:                   d3007b43 c0005166 |        ..{C..Qf|
000000007edae9c0: f4c20000 0141f000 00000000 20800000 |.....A...... ...|
000000007edae9d0: 56fa9c9a 8a828e80 8fe0aa9a 0a063fa0 |V.............?.|
000000007edae9e0: 8b7935ad 2e20b002 48825df0 99e46c72 |.y5.. ..H.]...lr|
000000007edae9f0: 00ebbe81 c138177a e7360400 c014cc40 |.....8.z.6.....@|
000000007edaea00: 2a587de1 35f86838 31956105 63fcf75b |*X}.5.h81.a.c..[|
000000007edaea10: 35bbbbb9 ba0036fc 8f451470 bb300000 |5.....6..E.p.0..|
000000007edaea20: 00000000 00000000 00000000 00000000 |................|
000000007edaea30: 00000000 00009796 b4                |.........       |
RTK gpstool: RTCM <1084> [14] [129] [158]
\xd3\0^D`\08\a\xc0\0\0\0 \x90\0@\b\0\0\0 \x01\0\0oi\xca\x89\xca)\xf0\xb5\xcb\xad$\a\xf7">\x90!\x83\x80v\x01:\x12\xb5\xb63\x81\x7f\xc9\x13?K\xcc\x01~3\xfd\xde(\x06\x1f\xc0\x94V{!\xa1\xef\xdcv\xec\xe6^`\x04\xd1\xba\xdb\xd1U@\0\0\0\0\0\0\0\0\0\0\0\0\x8c\xa8T
000000007edae9b0:                   d3005e44 60003807 |        ..^D`.8.|
000000007edae9c0: c0000000 20900040 08000000 20010000 |.... ..@.... ...|
000000007edae9d0: 6f69ca89 ca29f0b5 cbad2407 f7223e90 |oi...)....$..">.|
000000007edae9e0: 21838076 013a12b5 b633817f c9133f4b |!..v.:...3....?K|
000000007edae9f0: cc017e33 fdde2806 1fc09456 7b21a1ef |..~3..(....V{!..|
000000007edaea00: dc76ece6 5e6004d1 badbd155 40000000 |.v..^`.....U@...|
000000007edaea10: 00000000 00000000 008ca854          |...........T    |
RTK gpstool: RTCM <1094> [14] [100] [158]
\xd3\0\bL\xe0\0\x8a\0\0\0\0\xa8\xf7*
000000007edae9b0:                   d300084c e0008a00 |        ...L....|
000000007edae9c0: 000000a8 f72a                       |.....*          |
RTK gpstool: RTCM <1230> [14] [14] [158]
\xb5b\x01\x14$\0\0\0\0\0\0\xf0\x01\x0eD\xdfR\xc1b\x1e\xb8\x17\xd3\xca\x19\0\xcf\x1e\x1a\0\x16.\xfc\xfc\x894\0\0@W\0\0\n\xd0
000000007edaedc0:                            b5620114 |            .b..|
000000007edaedd0: 24000000 000000f0 010e44df 52c1621e |$.........D.R.b.|
000000007edaede0: b817d3ca 1900cf1e 1a00162e fcfc8934 |...............4|
000000007edaedf0: 00004057 00000ad0                   |..@W....        |
\xb5b\x01;(\0\0\0\0\0\0\xf0\x01\x0e\x96\0\0\0\x11\x15Z\xf8\xfeh\xc2\xe3\xdaj5\x18\xe4(\x0e\0\xe5\xe8\0\0\x97\0\0\0\0\x01\0\0\x8c\n
000000007edaedc0:                            b562013b |            .b.;|
000000007edaedd0: 28000000 000000f0 010e9600 00001115 |(...............|
000000007edaede0: 5af8fe68 c2e3da6a 3518e428 0e00e5e8 |Z..h...j5..(....|
000000007edaedf0: 00009700 00000001 00008c0a          |............    |
$GNRMC,171630.00,A,3947.65422,N,10509.20100,W,0.019,,040619,,,A,V*06\r\n
$GNVTG,,T,,M,0.019,N,0.034,K,A*32\r\n
$GNGGA,171630.00,3947.65422,N,10509.20100,W,1,12,0.66,1711.8,M,-21.5,M,,*44\r\n
$GNGSA,A,3,07,11,30,19,28,01,17,13,15,18,,,1.26,0.66,1.08,1*03\r\n
$GNGSA,A,3,79,82,80,83,81,,,,,,,,1.26,0.66,1.08,2*00\r\n
$GNGSA,A,3,02,11,25,08,36,,,,,,,,1.26,0.66,1.08,3*07\r\n
$GNGSA,A,3,,,,,,,,,,,,,1.26,0.66,1.08,4*08\r\n
$GPGSV,3,1,11,01,37,079,34,07,24,142,38,08,03,048,25,11,37,060,28,1*6F\r\n
$GPGSV,3,2,11,13,37,271,32,15,17,302,23,17,59,222,40,18,24,053,29,1*6A\r\n
$GPGSV,3,3,11,19,34,221,37,28,69,002,38,30,56,146,47,1*52\r\n
$GPGSV,3,1,11,01,37,079,26,07,24,142,32,08,03,048,,11,37,060,,6*6C\r\n
$GPGSV,3,2,11,13,37,271,,15,17,302,18,17,59,222,37,18,24,053,,6*6F\r\n
$GPGSV,3,3,11,19,34,221,,28,69,002,,30,56,146,38,6*52\r\n
$GLGSV,3,1,09,70,02,254,,71,10,300,27,72,03,345,,73,14,313,31,1*72\r\n
$GLGSV,3,2,09,79,40,103,36,80,66,003,27,81,34,035,34,82,76,114,33,1*73\r\n
$GLGSV,3,3,09,83,34,190,21,1*46\r\n
$GLGSV,3,1,09,70,02,254,,71,10,300,,72,03,345,,73,14,313,18,3*7E\r\n
$GLGSV,3,2,09,79,40,103,30,80,66,003,34,81,34,035,35,82,76,114,29,3*7F\r\n
$GLGSV,3,3,09,83,34,190,38,3*4C\r\n
$GAGSV,2,1,07,02,69,345,38,07,12,302,,08,15,252,23,11,37,053,27,7*79\r\n
$GAGSV,2,2,07,25,43,093,34,30,23,300,,36,58,134,42,7*40\r\n
$GAGSV,2,1,07,02,69,345,35,07,12,302,,08,15,252,29,11,37,053,30,2*7D\r\n
$GAGSV,2,2,07,25,43,093,,30,23,300,,36,58,134,40,2*40\r\n
$GBGSV,1,1,00,*47\r\n
$GBGSV,1,1,00,*47\r\n
$GNGLL,3947.65422,N,10509.20100,W,171630.00,A,A*67\r\n
\xd3\0\x98C \08\a\xcf\xa2\0\0A\x14p\n\0\0\0\0 \0\x80\0}ui)\x89)H\xc9\x89H\xa8\xb0\x86\x06\xfb\x1a\xa5\x83{\xbd\xb5\x1eGV\xbe\xdf\x18\x0e\xb0~\x85\x97\x15,f\xe4\xce\x19\xce\xbc\x9e\\!\xb9 s3\xf9\xc8\xc7\xf1\xb7\xfe\xfd$|Cc\x02\x95D\x16\x9f@\xcbs\xc3(\x1d\x10\x0e\xcb\xc8\xe5\xcf|\xe0>N\xfb\xf9\xb5n\xb7v7w7w@\x01\x13S@\xe44J\xec\xb3_8\0\0\0\0\0\0\0\0\0\0\0\0\0\0\0\0\0\0\0\0\0\0\0\0\0\0\0\0\0\0\xcc\xf21
000000007edae9b0:                   d3009843 20003807 |        ...C .8.|
000000007edae9c0: cfa20000 4114700a 00000000 20008000 |....A.p..... ...|
000000007edae9d0: 7d756929 892948c9 8948a8b0 8606fb1a |}ui).)H..H......|
000000007edae9e0: a5837bbd b51e4756 bedf180e b07e8597 |..{...GV.....~..|
000000007edae9f0: 152c66e4 ce19cebc 9e5c21b9 207333f9 |.,f......\!. s3.|
000000007edaea00: c8c7f1b7 fefd247c 43630295 44169f40 |......$|Cc..D..@|
000000007edaea10: cb73c328 1d100ecb c8e5cf7c e03e4efb |.s.(.......|.>N.|
000000007edaea20: f9b56eb7 76377737 77400113 5340e434 |..n.v7w7w@..S@.4|
000000007edaea30: 4aecb35f 38000000 00000000 00000000 |J.._8...........|
000000007edaea40: 00000000 00000000 00000000 00000000 |................|
000000007edaea50: 000000cc f231                       |.....1          |
RTK gpstool: RTCM <1074> [14] [158] [158]
\xd3\0{C\xc0\0Qg\x04b\0\0\x01A\xf0\0\0\0\0\0 \x80\0\0W\xfa\x9c\x9a\x8a\x82\x8e\x80\x8f\xe1*:\x12\x04@\xa0\x8ba;S?\xe6\xceN\x85\x15u,!\xfc\xd4\0W\xd9O\xc2$\xf9\x02tZ\x0e\x11\xe48\xf4 \xedd\x02\xad\xed\v*\xe7\xfc\xe6\x9f\xfa\xb2?w\xae\xff\xd7('gI\xad\xd7\xdd\xdc\xdd\0\x0e?#\xcd\xc5\x14P\xbb0\0\0\0\0\0\0\0\0\0\0\0\0\0\0\0\0\0\0C\xa0\xf9
000000007edae9b0:                   d3007b43 c0005167 |        ..{C..Qg|
000000007edae9c0: 04620000 0141f000 00000000 20800000 |.b...A...... ...|
000000007edae9d0: 57fa9c9a 8a828e80 8fe12a3a 120440a0 |W.........*:..@.|
000000007edae9e0: 8b613b53 3fe6ce4e 8515752c 21fcd400 |.a;S?..N..u,!...|
000000007edae9f0: 57d94fc2 24f90274 5a0e11e4 38f420ed |W.O.$..tZ...8. .|
000000007edaea00: 6402aded 0b2ae7fc e69ffab2 3f77aeff |d....*......?w..|
000000007edaea10: d7282767 49add7dd dcdd000e 3f23cdc5 |.('gI.......?#..|
000000007edaea20: 1450bb30 00000000 00000000 00000000 |.P.0............|
000000007edaea30: 00000000 000043a0 f9                |......C..       |
RTK gpstool: RTCM <1084> [14] [129] [158]
\xd3\0^D`\08\a\xcf\xa0\0\0 \x90\0@\b\0\0\0 \x01\0\0oi\xca\x89\xca)\xf0\xad\xcf\xad\xa4'\xe9d\xb3\x16\xf8\xe5?P~\xef\n\xd5\xd7{\xc3\xc0Y\xcd\x01\x8e\xb6x\xde\xf5\xfb\x8c?\xfc\xd8@T\xb3}4\xd7\xf8)f\xec\xe6^`\x04\xd1\xba\xe3\xd1U@\0\0\0\0\0\0\0\0\0\0\0\0p\x9a\x8a
000000007edae9b0:                   d3005e44 60003807 |        ..^D`.8.|
000000007edae9c0: cfa00000 20900040 08000000 20010000 |.... ..@.... ...|
000000007edae9d0: 6f69ca89 ca29f0ad cfada427 e964b316 |oi...).....'.d..|
000000007edae9e0: f8e53f50 7eef0ad5 d77bc3c0 59cd018e |..?P~....{..Y...|
000000007edae9f0: b678def5 fb8c3ffc d84054b3 7d34d7f8 |.x....?..@T.}4..|
000000007edaea00: 2966ece6 5e6004d1 bae3d155 40000000 |)f..^`.....U@...|
000000007edaea10: 00000000 00000000 00709a8a          |.........p..    |
RTK gpstool: RTCM <1094> [14] [100] [158]
\xd3\0\bL\xe0\0\x8a\0\0\0\0\xa8\xf7*
000000007edae9b0:                   d300084c e0008a00 |        ...L....|
000000007edae9c0: 000000a8 f72a                       |.....*          |
RTK gpstool: RTCM <1230> [14] [14] [158]
\xb5b\x01\x14$\0\0\0\0\0\xe8\xf3\x01\x0eG\xdfR\xc1a\x1e\xb8\x17\xfd\xca\x19\0\xf9\x1e\x1a\0\xd0*\xff\xff\x984\0\0\x91W\0\0g\xd2
000000007edaedc0:                            b5620114 |            .b..|
000000007edaedd0: 24000000 0000e8f3 010e47df 52c1611e |$.........G.R.a.|
000000007edaede0: b817fdca 1900f91e 1a00d02a ffff9834 |...........*...4|
000000007edaedf0: 00009157 000067d2                   |...W..g.        |
\xb5b\x01;(\0\0\0\0\0\xe8\xf3\x01\x0e\x97\0\0\0\x11\x15Z\xf8\xfeh\xc2\xe3\xdaj5\x18\x0e\x06$\0l\xe9\0\0\x98\0\0\0\0\x01\0\0\x1fp
000000007edaedc0:                            b562013b |            .b.;|
000000007edaedd0: 28000000 0000e8f3 010e9700 00001115 |(...............|
000000007edaede0: 5af8fe68 c2e3da6a 35180e06 24006ce9 |Z..h...j5...$.l.|
000000007edaedf0: 00009800 00000001 00001f70          |...........p    |
$GNRMC,171631.00,A,3947.65422,N,10509.20098,W,0.010,,040619,,,A,V*0E\r\n
$GNVTG,,T,,M,0.010,N,0.018,K,A*35\r\n
$GNGGA,171631.00,3947.65422,N,10509.20098,W,1,12,0.66,1711.9,M,-21.5,M,,*44\r\n
$GNGSA,A,3,07,11,30,19,28,01,17,13,15,18,,,1.26,0.66,1.08,1*03\r\n
$GNGSA,A,3,79,82,80,83,81,,,,,,,,1.26,0.66,1.08,2*00\r\n
$GNGSA,A,3,02,11,25,08,36,,,,,,,,1.26,0.66,1.08,3*07\r\n
$GNGSA,A,3,,,,,,,,,,,,,1.26,0.66,1.08,4*08\r\n
$GPGSV,3,1,11,01,37,079,34,07,24,142,38,08,03,048,25,11,37,060,28,1*6F\r\n
$GPGSV,3,2,11,13,37,271,33,15,17,302,23,17,59,222,40,18,24,053,29,1*6B\r\n
$GPGSV,3,3,11,19,34,221,37,28,69,002,38,30,56,146,47,1*52\r\n
$GPGSV,3,1,11,01,37,079,26,07,24,142,32,08,03,048,,11,37,060,,6*6C\r\n
$GPGSV,3,2,11,13,37,271,,15,17,302,19,17,59,222,37,18,24,053,,6*6E\r\n
$GPGSV,3,3,11,19,34,221,,28,69,002,,30,56,146,39,6*53\r\n
$GLGSV,3,1,09,70,02,254,,71,10,300,28,72,03,345,,73,14,313,31,1*7D\r\n
$GLGSV,3,2,09,79,40,103,36,80,66,003,27,81,34,035,34,82,76,114,33,1*73\r\n
$GLGSV,3,3,09,83,34,190,21,1*46\r\n
$GLGSV,3,1,09,70,02,254,,71,10,300,,72,03,345,,73,14,313,18,3*7E\r\n
$GLGSV,3,2,09,79,40,103,30,80,66,003,34,81,34,035,34,82,76,114,29,3*7E\r\n
$GLGSV,3,3,09,83,34,190,38,3*4C\r\n
$GAGSV,2,1,07,02,69,345,38,07,12,302,,08,15,252,23,11,37,053,28,7*76\r\n
$GAGSV,2,2,07,25,43,093,34,30,23,300,,36,58,134,42,7*40\r\n
$GAGSV,2,1,07,02,69,345,35,07,12,302,,08,15,252,29,11,37,053,30,2*7D\r\n
$GAGSV,2,2,07,25,43,093,,30,23,300,,36,58,134,40,2*40\r\n
$GBGSV,1,1,00,*47\r\n
$GBGSV,1,1,00,*47\r\n
$GNGLL,3947.65422,N,10509.20098,W,171631.00,A,A*66\r\n
\xd3\0\x98C \08\a\xdfB\0\0A\x14p\n\0\0\0\0 \0\x80\0}ui)\x89)H\xc9\x89H\xa8\xb0\x86\n\xfb\x9a\xc5{}\xbc5\x1eO\x1b\xfeg:\x8f5\x88\x8e!\xd5\xe0a\xf0\xc4\x19\xea\x13\xfa\x9d\x05\xc3\xef\x88\xd2\xf7\xe9c\xea9\xbfMD\xbd\x83\xe6\x06\xb3W\xd7Z`\xc1h\xc2\xff\xf0\x10\xe9\xac>\xa4\x1f\x99X\x01\x02\xf2\x04\x856\xb7vww7w@\x01\x13S@\xe4\x14J\xec\xb3_8\0\0\0\0\0\0\0\0\0\0\0\0\0\0\0\0\0\0\0\0\0\0\0\0\0\0\0\0\0\0\xfa\xe3\xc0
000000007edae9b0:                   d3009843 20003807 |        ...C .8.|
000000007edae9c0: df420000 4114700a 00000000 20008000 |.B..A.p..... ...|
000000007edae9d0: 7d756929 892948c9 8948a8b0 860afb9a |}ui).)H..H......|
000000007edae9e0: c57b7dbc 351e4f1b fe673a8f 35888e21 |.{}.5.O..g:.5..!|
000000007edae9f0: d5e061f0 c419ea13 fa9d05c3 ef88d2f7 |..a.............|
000000007edaea00: e963ea39 bf4d44bd 83e606b3 57d75a60 |.c.9.MD.....W.Z`|
000000007edaea10: c168c2ff f010e9ac 3ea41f99 580102f2 |.h......>...X...|
000000007edaea20: 048536b7 76777737 77400113 5340e414 |..6.vww7w@..S@..|
000000007edaea30: 4aecb35f 38000000 00000000 00000000 |J.._8...........|
000000007edaea40: 00000000 00000000 00000000 00000000 |................|
000000007edaea50: 000000fa e3c0                       |......          |
RTK gpstool: RTCM <1074> [14] [158] [158]
\xd3\0{C\xc0\0Qg\x14\x02\0\0\x01A\xf0\0\0\0\0\0 \x80\0\0W\xfa\x9c\x9a\x8a\x82\x8e\x80\x8f\xe1\xa9\xfa"\x04A\xa0\x8bQ@\xa1P\xdc\xed\xfa\xbe\xe9"\xd3\x8e\x18\x907\xfe\xd0-\xac\x9c\xf0\x02y\x1e\x06T\x1b\xe9\xe9o\xb18\xfd$3\xf5\x048\n\xc9\xc02A\xfdc\x95\xf7\x86\xbb\xe7\x18Y\xad\xd7\xdd\xdc\xdd\0\x0e?\x1b\xcd\xc5\x14p\xbb0\0\0\0\0\0\0\0\0\0\0\0\0\0\0\0\0\0\0\x1c\xee)
000000007edae9b0:                   d3007b43 c0005167 |        ..{C..Qg|
000000007edae9c0: 14020000 0141f000 00000000 20800000 |.....A...... ...|
000000007edae9d0: 57fa9c9a 8a828e80 8fe1a9fa 220441a0 |W...........".A.|
000000007edae9e0: 8b5140a1 50dcedfa bee922d3 8e189037 |.Q@.P....."....7|
000000007edae9f0: fed02dac 9cf00279 1e06541b e9e96fb1 |..-....y..T...o.|
000000007edaea00: 38fd2433 f504380a c9c03241 fd6395f7 |8.$3..8...2A.c..|
000000007edaea10: 86bbe718 59add7dd dcdd000e 3f1bcdc5 |....Y.......?...|
000000007edaea20: 1470bb30 00000000 00000000 00000000 |.p.0............|
000000007edaea30: 00000000 00001cee 29                |........)       |
RTK gpstool: RTCM <1084> [14] [129] [158]
\xd3\0^D`\08\a\xdf@\0\0 \x90\0@\b\0\0\0 \x01\0\0oi\xca\x89\xca)\xf0\xad\xd1\xae$G\xe7\xa7o\x9c\xa0F>,\xfc\x9f\x02\xd9\xf8\x9c\x06W\xea\x84?\xd1\x8d\x80@\t\xf9;\x8f\xf3\x96\xc0\x15\v\xffH\x92\0x\x1e\xec\xe6^`\x04\xd1\xba\xe3\xd1U@\0\0\0\0\0\0\0\0\0\0\0\0\x01\x03\x97
000000007edae9b0:                   d3005e44 60003807 |        ..^D`.8.|
000000007edae9c0: df400000 20900040 08000000 20010000 |.@.. ..@.... ...|
000000007edae9d0: 6f69ca89 ca29f0ad d1ae2447 e7a76f9c |oi...)....$G..o.|
000000007edae9e0: a0463e2c fc9f02d9 f89c0657 ea843fd1 |.F>,.......W..?.|
000000007edae9f0: 8d804009 f93b8ff3 96c0150b ff489200 |..@..;.......H..|
000000007edaea00: 781eece6 5e6004d1 bae3d155 40000000 |x...^`.....U@...|
000000007edaea10: 00000000 00000000 00010397          |............    |
RTK gpstool: RTCM <1094> [14] [100] [158]
\xd3\0\bL\xe0\0\x8a\0\0\0\0\xa8\xf7*
000000007edae9b0:                   d300084c e0008a00 |        ...L....|
000000007edae9c0: 000000a8 f72a                       |.....*          |
RTK gpstool: RTCM <1230> [14] [14] [158]
\xb5b\x01\x14$\0\0\0\0\0\xd0\xf7\x01\x0eK\xdfR\xc1`\x1e\xb8\x171\xcb\x19\0-\x1f\x1a\0\xef\x01\xfd\xfc\xad4\0\0\xdeW\0\0\x13v
000000007edaedc0:                            b5620114 |            .b..|
000000007edaedd0: 24000000 0000d0f7 010e4bdf 52c1601e |$.........K.R.`.|
000000007edaede0: b81731cb 19002d1f 1a00ef01 fdfcad34 |..1...-........4|
000000007edaedf0: 0000de57 00001376                   |...W...v        |
\xb5b\x01;(\0\0\0\0\0\xd0\xf7\x01\x0e\x98\0\0\0\x12\x15Z\xf8\xfeh\xc2\xe3\xdbj5\x18\xd5\xe1\xd6\0\xf0\xe9\0\0\x99\0\0\0\0\x01\0\0\xe7%
000000007edaedc0:                            b562013b |            .b.;|
000000007edaedd0: 28000000 0000d0f7 010e9800 00001215 |(...............|
000000007edaede0: 5af8fe68 c2e3db6a 3518d5e1 d600f0e9 |Z..h...j5.......|
000000007edaedf0: 00009900 00000001 0000e725          |...........%    |
$GNRMC,171632.00,A,3947.65421,N,10509.20096,W,0.034,,040619,,,A,V*06\r\n
$GNVTG,,T,,M,0.034,N,0.063,K,A*3F\r\n
$GNGGA,171632.00,3947.65421,N,10509.20096,W,1,12,0.66,1711.9,M,-21.5,M,,*4A\r\n
$GNGSA,A,3,07,11,30,19,28,01,17,13,15,18,,,1.26,0.66,1.08,1*03\r\n
$GNGSA,A,3,79,82,80,83,81,,,,,,,,1.26,0.66,1.08,2*00\r\n
$GNGSA,A,3,02,11,25,08,36,,,,,,,,1.26,0.66,1.08,3*07\r\n
$GNGSA,A,3,,,,,,,,,,,,,1.26,0.66,1.08,4*08\r\n
$GPGSV,3,1,11,01,37,079,34,07,24,142,38,08,03,048,25,11,37,060,28,1*6F\r\n
$GPGSV,3,2,11,13,37,271,32,15,17,302,23,17,59,222,40,18,24,053,29,1*6A\r\n
$GPGSV,3,3,11,19,34,221,37,28,69,002,38,30,56,146,47,1*52\r\n
$GPGSV,3,1,11,01,37,079,26,07,24,142,32,08,03,048,,11,37,060,,6*6C\r\n
$GPGSV,3,2,11,13,37,271,,15,17,302,19,17,59,222,37,18,24,053,,6*6E\r\n
$GPGSV,3,3,11,19,34,221,,28,69,002,,30,56,146,39,6*53\r\n
$GLGSV,3,1,09,70,02,254,,71,10,300,28,72,03,345,,73,14,313,31,1*7D\r\n
$GLGSV,3,2,09,79,40,103,35,80,66,003,27,81,34,035,34,82,76,114,33,1*70\r\n
$GLGSV,3,3,09,83,34,190,21,1*46\r\n
$GLGSV,3,1,09,70,02,254,,71,10,300,,72,03,345,,73,14,313,18,3*7E\r\n
$GLGSV,3,2,09,79,40,103,30,80,66,003,34,81,34,035,35,82,76,114,29,3*7F\r\n
$GLGSV,3,3,09,83,34,190,38,3*4C\r\n
$GAGSV,2,1,07,02,69,345,38,07,12,302,,08,15,252,23,11,37,053,28,7*76\r\n
$GAGSV,2,2,07,25,43,093,34,30,23,300,,36,58,134,42,7*40\r\n
$GAGSV,2,1,07,02,69,345,35,07,12,302,,08,15,252,29,11,37,053,30,2*7D\r\n
$GAGSV,2,2,07,25,43,093,,30,23,300,,36,58,134,40,2*40\r\n
$GBGSV,1,1,00,*47\r\n
$GBGSV,1,1,00,*47\r\n
$GNGLL,3947.65421,N,10509.20096,W,171632.00,A,A*68\r\n
\xd3\0\x98C \08\a\xee\xe2\0\0A\x14p\n\0\0\0\0 \0\x80\0}ui)\x89)H\xc9\x89H\xa8\xb0\x86\x0e\xfc\x1a\xc5s\x81\xbb5\x1eV\xe1=\xf0\x1d\x10\xfa\x8a\x16i\x16\x98\\\xf0\xba\x0e\x06cW]\xe9\xce\xc5\x9e\x80\xf6\r\x97\xe2\xcb\x9f\x9dx>\xc4\xb3\n\xd3\x9c\x18\x1f\xc0\xb7z\x82\xd88\xf1\xc7\x804f\xef\xb5\xd4C\xb7m\x0fW:\xb7vww7w@\x01\x13R\xc0\xec\x14J\xec\xb3_8\0\0\0\0\0\0\0\0\0\0\0\0\0\0\0\0\0\0\0\0\0\0\0\0\0\0\0\0\0\0S\xdd\xbc
000000007edae9b0:                   d3009843 20003807 |        ...C .8.|
000000007edae9c0: eee20000 4114700a 00000000 20008000 |....A.p..... ...|
000000007edae9d0: 7d756929 892948c9 8948a8b0 860efc1a |}ui).)H..H......|
000000007edae9e0: c57381bb 351e56e1 3df01d10 fa8a1669 |.s..5.V.=......i|
000000007edae9f0: 16985cf0 ba0e0663 575de9ce c59e80f6 |..\....cW]......|
000000007edaea00: 0d97e2cb 9f9d783e c4b30ad3 9c181fc0 |......x>........|
000000007edaea10: b77a82d8 38f1c780 3466efb5 d443b76d |.z..8...4f...C.m|
000000007edaea20: 0f573ab7 76777737 77400113 52c0ec14 |.W:.vww7w@..R...|
000000007edaea30: 4aecb35f 38000000 00000000 00000000 |J.._8...........|
000000007edaea40: 00000000 00000000 00000000 00000000 |................|
000000007edaea50: 00000053 ddbc                       |...S..          |
RTK gpstool: RTCM <1074> [14] [158] [158]
\xd3\0{C\xc0\0Qg#\xa2\0\0\x01A\xf0\0\0\0\0\0 \x80\0\0W\xfa\x9c\x9a\x8a\x82\x8e\x80\x8f\xe2)\xba*\x02B\xa0k9?/a\xe3\fF\xfb\xfc\xd3\xfa\xfc4ho\xa9\xc63\x99\xe4\xe5B~a\xfe\x95(\x1a\xe5\x10u,?\x9a\xf5\xfe\xdf8\x18\xb4\x80i\xe9\xc3P\x82\x0f:\x90&\xd0J\xad\xd8\xdd\xdc\xdd\0\x0e?\x1b\xcd\xc5\x14p\xbb0\0\0\0\0\0\0\0\0\0\0\0\0\0\0\0\0\0\0n7\x8c
000000007edae9b0:                   d3007b43 c0005167 |        ..{C..Qg|
000000007edae9c0: 23a20000 0141f000 00000000 20800000 |#....A...... ...|
000000007edae9d0: 57fa9c9a 8a828e80 8fe229ba 2a0242a0 |W.........).*.B.|
000000007edae9e0: 6b393f2f 61e30c46 fbfcd3fa fc34686f |k9?/a..F.....4ho|
000000007edae9f0: a9c63399 e4e5427e 61fe9528 1ae51075 |..3...B~a..(...u|
000000007edaea00: 2c3f9af5 fedf3818 b48069e9 c350820f |,?....8...i..P..|
000000007edaea10: 3a9026d0 4aadd8dd dcdd000e 3f1bcdc5 |:.&.J.......?...|
000000007edaea20: 1470bb30 00000000 00000000 00000000 |.p.0............|
000000007edaea30: 00000000 00006e37 8c                |......n7.       |
RTK gpstool: RTCM <1084> [14] [129] [158]
\xd3\0^D`\08\a\xee\xe0\0\0 \x90\0@\b\0\0\0 \x01\0\0oi\xca\x89\xca)\xf0\xa5\xd3\xae\xa4g\xd9\xe9\x94"'\xa5\xbc\xeezW\xfa\xba\x1a$H\xf0{<B\x14w\a\xa0\xcb\xf6\xed\xff\xea`_\xd5o\x81],\b\xca~\xec\xe6f`\x04\xd1\xba\xe3\xd1U@\0\0\0\0\0\0\0\0\0\0\0\0e#\xd4
000000007edae9b0:                   d3005e44 60003807 |        ..^D`.8.|
000000007edae9c0: eee00000 20900040 08000000 20010000 |.... ..@.... ...|
000000007edae9d0: 6f69ca89 ca29f0a5 d3aea467 d9e99422 |oi...).....g..."|
000000007edae9e0: 27a5bcee 7a57faba 1a2448f0 7b3c4214 |'...zW...$H.{<B.|
000000007edae9f0: 7707a0cb f6edffea 605fd56f 815d2c08 |w.......`_.o.],.|
000000007edaea00: ca7eece6 666004d1 bae3d155 40000000 |.~..f`.....U@...|
000000007edaea10: 00000000 00000000 006523d4          |.........e#.    |
RTK gpstool: RTCM <1094> [14] [100] [158]
\xd3\0\bL\xe0\0\x8a\0\0\0\0\xa8\xf7*
000000007edae9b0:                   d300084c e0008a00 |        ...L....|
000000007edae9c0: 000000a8 f72a                       |.....*          |
RTK gpstool: RTCM <1230> [14] [14] [158]
\xb5b\x01\x14$\0\0\0\0\0\xb8\xfb\x01\x0eM\xdfR\xc1_\x1e\xb8\x17N\xcb\x19\0J\x1f\x1a\0\x1a)\x01\x01\xc24\0\0LX\0\0\x1a\x9a
000000007edaedc0:                            b5620114 |            .b..|
000000007edaedd0: 24000000 0000b8fb 010e4ddf 52c15f1e |$.........M.R._.|
000000007edaede0: b8174ecb 19004a1f 1a001a29 0101c234 |..N...J....)...4|
000000007edaedf0: 00004c58 00001a9a                   |..LX....        |
\xb5b\x01;(\0\0\0\0\0\xb8\xfb\x01\x0e\x99\0\0\0\x12\x15Z\xf8\xfdh\xc2\xe3\xdbj5\x18\xff\x1e\xed\0t\xea\0\0\x9a\0\0\0\0\x01\0\0\xd7\x11
000000007edaedc0:                            b562013b |            .b.;|
000000007edaedd0: 28000000 0000b8fb 010e9900 00001215 |(...............|
000000007edaede0: 5af8fd68 c2e3db6a 3518ff1e ed0074ea |Z..h...j5.....t.|
000000007edaedf0: 00009a00 00000001 0000d711          |............    |
$GNRMC,171633.00,A,3947.65420,N,10509.20094,W,0.006,,040619,,,A,V*05\r\n
$GNVTG,,T,,M,0.006,N,0.011,K,A*3B\r\n
$GNGGA,171633.00,3947.65420,N,10509.20094,W,1,12,0.66,1711.9,M,-21.5,M,,*48\r\n
$GNGSA,A,3,07,11,30,19,28,01,17,13,15,18,,,1.26,0.66,1.08,1*03\r\n
$GNGSA,A,3,79,82,80,83,81,,,,,,,,1.26,0.66,1.08,2*00\r\n
$GNGSA,A,3,02,11,25,08,36,,,,,,,,1.26,0.66,1.08,3*07\r\n
$GNGSA,A,3,,,,,,,,,,,,,1.26,0.66,1.08,4*08\r\n
$GPGSV,3,1,11,01,37,079,34,07,24,142,37,08,03,048,25,11,37,060,29,1*61\r\n
$GPGSV,3,2,11,13,37,271,32,15,17,302,22,17,59,223,40,18,24,053,29,1*6A\r\n
$GPGSV,3,3,11,19,34,221,37,28,69,002,38,30,56,146,47,1*52\r\n
$GPGSV,3,1,11,01,37,079,26,07,24,142,32,08,03,048,,11,37,060,,6*6C\r\n
$GPGSV,3,2,11,13,37,271,,15,17,302,20,17,59,223,37,18,24,053,,6*65\r\n
$GPGSV,3,3,11,19,34,221,,28,69,002,,30,56,146,39,6*53\r\n
$GLGSV,3,1,09,70,02,254,,71,10,300,28,72,03,345,,73,14,313,31,1*7D\r\n
$GLGSV,3,2,09,79,40,103,35,80,66,003,27,81,34,035,34,82,76,114,33,1*70\r\n
$GLGSV,3,3,09,83,34,190,21,1*46\r\n
$GLGSV,3,1,09,70,02,254,,71,10,300,,72,03,345,,73,14,313,18,3*7E\r\n
$GLGSV,3,2,09,79,40,103,30,80,66,003,34,81,34,035,35,82,76,114,29,3*7F\r\n
$GLGSV,3,3,09,83,34,190,38,3*4C\r\n
$GAGSV,2,1,07,02,69,345,38,07,12,302,,08,15,252,23,11,37,053,28,7*76\r\n
$GAGSV,2,2,07,25,43,093,34,30,23,300,,36,58,134,42,7*40\r\n
$GAGSV,2,1,07,02,69,345,35,07,12,302,,08,15,252,29,11,37,053,30,2*7D\r\n
$GAGSV,2,2,07,25,43,093,24,30,23,300,,36,58,134,40,2*46\r\n
$GBGSV,1,1,00,*47\r\n
$GBGSV,1,1,00,*47\r\n
$GNGLL,3947.65420,N,10509.20094,W,171633.00,A,A*6A\r\n
\xd3\0\x98C \08\a\xfe\x82\0\0A\x14p\n\0\0\0\0 \0\x80\0}ui)\x89)H\xc9\x89H\xa8\xb0\x86\x12\xfc\x9a\xe5k\x83\xba5\x1ef\xa7]y\x7f\x94\xbf\x90\x9fD\xd7tX$\xb0f#r\xb4\xbe\xcf9\x9b\xf4,\xf47?\xdbr\xef\xed\xdb\0\x06A\x0e\xf8\xe3\xd8\xf9\xa0\xad\xd1\x02\xb1\x9a\xf2\xaa\xa4*7\x7f\xd2y~l\xf6\xfa-^\xb7vww7w@\x01\x13R\xc0\xec\x14J\xec\xb3_8\0\0\0\0\0\0\0\0\0\0\0\0\0\0\0\0\0\0\0\0\0\0\0\0\0\0\0\0\0\0\x1a\b\xfa
000000007edae9b0:                   d3009843 20003807 |        ...C .8.|
000000007edae9c0: fe820000 4114700a 00000000 20008000 |....A.p..... ...|
000000007edae9d0: 7d756929 892948c9 8948a8b0 8612fc9a |}ui).)H..H......|
000000007edae9e0: e56b83ba 351e66a7 5d797f94 bf909f44 |.k..5.f.]y.....D|
000000007edae9f0: d7745824 b0662372 b4becf39 9bf42cf4 |.tX$.f#r...9..,.|
000000007edaea00: 373fdb72 efeddb00 06410ef8 e3d8f9a0 |7?.r.....A......|
000000007edaea10: add102b1 9af2aaa4 2a377fd2 797e6cf6 |........*7..y~l.|
000000007edaea20: fa2d5eb7 76777737 77400113 52c0ec14 |.-^.vww7w@..R...|
000000007edaea30: 4aecb35f 38000000 00000000 00000000 |J.._8...........|
000000007edaea40: 00000000 00000000 00000000 00000000 |................|
000000007edaea50: 0000001a 08fa                       |......          |
RTK gpstool: RTCM <1074> [14] [158] [158]
\xd3\0{C\xc0\0Qg3B\0\0\x01A\xf0\0\0\0\0\0 \x80\0\0W\xfa\x9c\x9a\x8a\x82\x8e\x80\x8f\xe2\xa9z:\0C\xa0k)?mt\x19-\xf3;\x90\x8a"\x82PT\xa7\xf0\xbdA\x87|\xde\x02\x85\x1a\xf6\xd7\xdb\xcb\xf1?9W\x02\x12\xa8\b\xbe@&\xaf\xd0\xa1\xda\xc1?\b\x06\xf4\xb7\xe6\x98\x1a\xad\xd8\xdd\xdc\xdd\0\r\xbf\x1b\xcd\xc5\x14p\xbb0\0\0\0\0\0\0\0\0\0\0\0\0\0\0\0\0\0\0\x83v\x8d
000000007edae9b0:                   d3007b43 c0005167 |        ..{C..Qg|
000000007edae9c0: 33420000 0141f000 00000000 20800000 |3B...A...... ...|
000000007edae9d0: 57fa9c9a 8a828e80 8fe2a97a 3a0043a0 |W..........z:.C.|
000000007edae9e0: 6b293f6d 74192df3 3b908a22 825054a7 |k)?mt.-.;..".PT.|
000000007edae9f0: f0bd4187 7cde0285 1af6d7db cbf13f39 |..A.|.........?9|
000000007edaea00: 570212a8 08be4026 afd0a1da c13f0806 |W.....@&.....?..|
000000007edaea10: f4b7e698 1aadd8dd dcdd000d bf1bcdc5 |................|
000000007edaea20: 1470bb30 00000000 00000000 00000000 |.p.0............|
000000007edaea30: 00000000 00008376 8d                |.......v.       |
RTK gpstool: RTCM <1084> [14] [129] [158]
\xd3\0^D`\08\a\xfe\x80\0\0 \x90\0@\b\0\0\0 \x01\0\0oi\xca\x89\xca)\xf0\xa5\xd7\xaf$\x87\xd0,\x80\xa7?\n\xbb\xb3\xf8\x14\xf2\x9a;d\x8b\xc8\f\b\xa0W\xa2\xff\x02\xf7\xf4\xa8/\xe1G\xdf\x96%\x03s\xc8\x11%\x1e\xec\xe6f`\x04\xd1\xba\xe3\xd0\xd5@\0\0\0\0\0\0\0\0\0\0\0\0]\\\xce
000000007edae9b0:                   d3005e44 60003807 |        ..^D`.8.|
000000007edae9c0: fe800000 20900040 08000000 20010000 |.... ..@.... ...|
000000007edae9d0: 6f69ca89 ca29f0a5 d7af2487 d02c80a7 |oi...)....$..,..|
000000007edae9e0: 3f0abbb3 f814f29a 3b648bc8 0c08a057 |?.......;d.....W|
000000007edae9f0: a2ff02f7 f4a82fe1 47df9625 0373c811 |....../.G..%.s..|
000000007edaea00: 251eece6 666004d1 bae3d0d5 40000000 |%...f`......@...|
000000007edaea10: 00000000 00000000 005d5cce          |.........]\.    |
RTK gpstool: RTCM <1094> [14] [100] [158]
\xd3\0\bL\xe0\0\x8a\0\0\0\0\xa8\xf7*
000000007edae9b0:                   d300084c e0008a00 |        ...L....|
000000007edae9c0: 000000a8 f72a                       |.....*          |
RTK gpstool: RTCM <1230> [14] [14] [158]
\xb5b\x01\x14$\0\0\0\0\0\xa0\xff\x01\x0eN\xdfR\xc1_\x1e\xb8\x17n\xcb\x19\0j\x1f\x1a\0*\xf3\x01\x01\xd64\0\0\xb6X\0\0\x9fh
000000007edaedc0:                            b5620114 |            .b..|
000000007edaedd0: 24000000 0000a0ff 010e4edf 52c15f1e |$.........N.R._.|
000000007edaede0: b8176ecb 19006a1f 1a002af3 0101d634 |..n...j...*....4|
000000007edaedf0: 0000b658 00009f68                   |...X...h        |
\xb5b\x01;(\0\0\0\0\0\xa0\xff\x01\x0e\x9a\0\0\0\x12\x15Z\xf8\xfdh\xc2\xe3\xdbj5\x18)\xf6\x05\0\xf6\xea\0\0\x9b\0\0\0\0\x01\0\0a\x15
000000007edaedc0:                            b562013b |            .b.;|
000000007edaedd0: 28000000 0000a0ff 010e9a00 00001215 |(...............|
000000007edaede0: 5af8fd68 c2e3db6a 351829f6 0500f6ea |Z..h...j5.).....|
000000007edaedf0: 00009b00 00000001 00006115          |..........a.    |
$GNRMC,171634.00,A,3947.65420,N,10509.20094,W,0.032,,040619,,,A,V*05\r\n
$GNVTG,,T,,M,0.032,N,0.059,K,A*30\r\n
$GNGGA,171634.00,3947.65420,N,10509.20094,W,1,12,0.66,1712.0,M,-21.5,M,,*45\r\n
$GNGSA,A,3,07,11,30,19,28,01,17,13,15,18,,,1.26,0.66,1.08,1*03\r\n
$GNGSA,A,3,79,82,80,83,81,,,,,,,,1.26,0.66,1.08,2*00\r\n
$GNGSA,A,3,02,11,25,08,36,,,,,,,,1.26,0.66,1.08,3*07\r\n
$GNGSA,A,3,,,,,,,,,,,,,1.26,0.66,1.08,4*08\r\n
$GPGSV,3,1,11,01,37,079,34,07,24,142,37,08,03,048,25,11,37,060,29,1*61\r\n
$GPGSV,3,2,11,13,37,271,32,15,17,302,23,17,59,223,40,18,24,053,29,1*6B\r\n
$GPGSV,3,3,11,19,34,221,37,28,69,002,38,30,56,146,47,1*52\r\n
$GPGSV,3,1,11,01,37,079,26,07,24,142,32,08,03,048,,11,37,060,,6*6C\r\n
$GPGSV,3,2,11,13,37,271,,15,17,302,20,17,59,223,37,18,24,053,,6*65\r\n
$GPGSV,3,3,11,19,34,221,,28,69,002,,30,56,146,39,6*53\r\n
$GLGSV,3,1,09,70,02,254,,71,10,300,27,72,03,345,,73,14,313,31,1*72\r\n
$GLGSV,3,2,09,79,40,103,35,80,66,003,27,81,34,035,34,82,76,114,33,1*70\r\n
$GLGSV,3,3,09,83,34,190,22,1*45\r\n
$GLGSV,3,1,09,70,02,254,,71,10,300,,72,03,345,,73,14,313,19,3*7F\r\n
$GLGSV,3,2,09,79,40,103,30,80,66,003,34,81,34,035,35,82,76,114,29,3*7F\r\n
$GLGSV,3,3,09,83,34,190,38,3*4C\r\n
$GAGSV,2,1,07,02,69,345,38,07,12,302,,08,15,252,24,11,37,053,28,7*71\r\n
$GAGSV,2,2,07,25,43,093,33,30,23,300,,36,58,134,42,7*47\r\n
$GAGSV,2,1,07,02,69,345,35,07,12,302,,08,15,252,29,11,37,053,30,2*7D\r\n
$GAGSV,2,2,07,25,43,093,23,30,23,300,,36,58,134,40,2*41\r\n
$GBGSV,1,1,00,*47\r\n
$GBGSV,1,1,00,*47\r\n
$GNGLL,3947.65420,N,10509.20094,W,171634.00,A,A*6D\r\n
\xd3\0\x98C \08\b\x0e"\0\0A\x14p\n\0\0\0\0 \0\x80\0}ui)\x89)H\xc9\x89H\xa8\xb0\x86\x16\xfd\x9a\xe5c\x85\xb95\x1enn\r\x04\xc2\x17\x84\x99\xe8C\x18\\Sd\xa6\xe6@R\x12_\xb5\x84t\x89\xdf\xf2d?\xd4&\0>S\x01H\x15\xf3!<\x19\xde \xa4H\xc2\x8br\xf3\x90\xe8 \r\xef\xef'\x01#\x12\x05\x05\xba\xb7vww7w@\x01\x13S@\xf4\x14J\xec\xb3_8\0\0\0\0\0\0\0\0\0\0\0\0\0\0\0\0\0\0\0\0\0\0\0\0\0\0\0\0\0\0\xa1\xd2p
000000007edae9b0:                   d3009843 20003808 |        ...C .8.|
000000007edae9c0: 0e220000 4114700a 00000000 20008000 |."..A.p..... ...|
000000007edae9d0: 7d756929 892948c9 8948a8b0 8616fd9a |}ui).)H..H......|
000000007edae9e0: e56385b9 351e6e6e 0d04c217 8499e843 |.c..5.nn.......C|
000000007edae9f0: 185c5364 a6e64052 125fb584 7489dff2 |.\Sd..@R._..t...|
000000007edaea00: 643fd426 003e5301 4815f321 3c19de20 |d?.&.>S.H..!<.. |
000000007edaea10: a448c28b 72f390e8 200defef 27012312 |.H..r... ...'.#.|
000000007edaea20: 0505bab7 76777737 77400113 5340f414 |....vww7w@..S@..|
000000007edaea30: 4aecb35f 38000000 00000000 00000000 |J.._8...........|
000000007edaea40: 00000000 00000000 00000000 00000000 |................|
000000007edaea50: 000000a1 d270                       |.....p          |
RTK gpstool: RTCM <1074> [14] [158] [158]
\xd3\0{C\xc0\0QgB\xe2\0\0\x01A\xf0\0\0\0\0\0 \x80\0\0W\xfa\x9c\x9a\x8a\x82\x8e\x80\x8f\xe3)\x1aB\0D\xa0k\x11D\x13\x85\x7fN\xbf\x83\xe4R\xca\x06lT\xe0?\xb4\xdfv\xa4\xd7B\x8c\x7f\x0f\x19\xbb\xfd\x04O\xfd\xa3\xbc\x8a\xe8\xf2\x9f 4\xb4\x80\xd9\xec\xbf.\xa8\xfe\xb3\x10&hz\xad\xd8\xdd\xdc\xdd\0\r\xc1\x1b\xad\xc5\x1cq;0\0\0\0\0\0\0\0\0\0\0\0\0\0\0\0\0\0\0\x1eq\xc0
000000007edae9b0:                   d3007b43 c0005167 |        ..{C..Qg|
000000007edae9c0: 42e20000 0141f000 00000000 20800000 |B....A...... ...|
000000007edae9d0: 57fa9c9a 8a828e80 8fe3291a 420044a0 |W.........).B.D.|
000000007edae9e0: 6b114413 857f4ebf 83e452ca 066c54e0 |k.D...N...R..lT.|
000000007edae9f0: 3fb4df76 a4d7428c 7f0f19bb fd044ffd |?..v..B.......O.|
000000007edaea00: a3bc8ae8 f29f2034 b480d9ec bf2ea8fe |...... 4........|
000000007edaea10: b3102668 7aadd8dd dcdd000d c11badc5 |..&hz...........|
000000007edaea20: 1c713b30 00000000 00000000 00000000 |.q;0............|
000000007edaea30: 00000000 00001e71 c0                |.......q.       |
RTK gpstool: RTCM <1084> [14] [129] [158]
\xd3\0^D`\08\b\x0e \0\0 \x90\0@\b\0\0\0 \x01\0\0oi\xca\x89\xca)\xf0\xa5\xd9\xaf\xa4\xa7\xcep\xcd.&n:\xd3\xf5\xce\xea\xa2\\\xdc\xce\xdf\x9c\xd9\xfe\x9a\xe5\x86e{\xf2f\x0f\xd8>\x1fV\xe7\x85\x8b^\x19\x83v\xedff`\x04\xd1\xba\xe3\xd0\xd5@\0\0\0\0\0\0\0\0\0\0\0\0\xc2\x8a\xdb
000000007edae9b0:                   d3005e44 60003808 |        ..^D`.8.|
000000007edae9c0: 0e200000 20900040 08000000 20010000 |. .. ..@.... ...|
000000007edae9d0: 6f69ca89 ca29f0a5 d9afa4a7 ce70cd2e |oi...).......p..|
000000007edae9e0: 266e3ad3 f5ceeaa2 5cdccedf 9cd9fe9a |&n:.....\.......|
000000007edae9f0: e586657b f2660fd8 3e1f56e7 858b5e19 |..e{.f..>.V...^.|
000000007edaea00: 8376ed66 666004d1 bae3d0d5 40000000 |.v.ff`......@...|
000000007edaea10: 00000000 00000000 00c28adb          |............    |
RTK gpstool: RTCM <1094> [14] [100] [158]
\xd3\0\bL\xe0\0\x8a\0\0\0\0\xa8\xf7*
000000007edae9b0:                   d300084c e0008a00 |        ...L....|
000000007edae9c0: 000000a8 f72a                       |.....*          |
RTK gpstool: RTCM <1230> [14] [14] [158]
\xb5b\x01\x14$\0\0\0\0\0\x88\x03\x02\x0eO\xdfR\xc1_\x1e\xb8\x17h\xcb\x19\0d\x1f\x1a\0'\xf7\x04\x04\xc44\0\0\x95X\0\0Us
000000007edaedc0:                            b5620114 |            .b..|
000000007edaedd0: 24000000 00008803 020e4fdf 52c15f1e |$.........O.R._.|
000000007edaede0: b81768cb 1900641f 1a0027f7 0404c434 |..h...d...'....4|
000000007edaedf0: 00009558 00005573                   |...X..Us        |
\xb5b\x01;(\0\0\0\0\0\x88\x03\x02\x0e\x9b\0\0\0\x13\x15Z\xf8\xfdh\xc2\xe3\xdbj5\x18\xef\xce\x1c\0v\xeb\0\0\x9c\0\0\0\0\x01\0\0\x87\xfc
000000007edaedc0:                            b562013b |            .b.;|
000000007edaedd0: 28000000 00008803 020e9b00 00001315 |(...............|
000000007edaede0: 5af8fd68 c2e3db6a 3518efce 1c0076eb |Z..h...j5.....v.|
000000007edaedf0: 00009c00 00000001 000087fc          |............    |
$GNRMC,171635.00,A,3947.65420,N,10509.20093,W,0.023,,040619,,,A,V*03\r\n
$GNVTG,,T,,M,0.023,N,0.042,K,A*3A\r\n
$GNGGA,171635.00,3947.65420,N,10509.20093,W,1,12,0.62,1712.0,M,-21.5,M,,*47\r\n
$GNGSA,A,3,07,11,30,19,28,01,17,13,15,18,,,1.20,0.62,1.03,1*0A\r\n
$GNGSA,A,3,79,73,82,80,83,81,,,,,,,1.20,0.62,1.03,2*0D\r\n
$GNGSA,A,3,02,11,25,08,36,,,,,,,,1.20,0.62,1.03,3*0E\r\n
$GNGSA,A,3,,,,,,,,,,,,,1.20,0.62,1.03,4*01\r\n
$GPGSV,3,1,11,01,37,079,34,07,24,142,38,08,03,048,25,11,37,060,30,1*66\r\n
$GPGSV,3,2,11,13,37,271,32,15,17,302,22,17,59,223,40,18,24,053,29,1*6A\r\n
$GPGSV,3,3,11,19,35,221,37,28,69,002,38,30,56,146,47,1*53\r\n
$GPGSV,3,1,11,01,37,079,26,07,24,142,32,08,03,048,,11,37,060,,6*6C\r\n
$GPGSV,3,2,11,13,37,271,,15,17,302,20,17,59,223,37,18,24,053,,6*65\r\n
$GPGSV,3,3,11,19,35,221,,28,69,002,,30,56,146,39,6*52\r\n
$GLGSV,3,1,09,70,02,254,,71,10,300,27,72,03,345,,73,14,313,32,1*71\r\n
$GLGSV,3,2,09,79,40,103,35,80,66,003,27,81,34,035,35,82,76,114,34,1*76\r\n
$GLGSV,3,3,09,83,34,190,22,1*45\r\n
$GLGSV,3,1,09,70,02,254,,71,10,300,,72,03,345,,73,14,313,19,3*7F\r\n
$GLGSV,3,2,09,79,40,103,29,80,66,003,34,81,34,035,35,82,76,114,29,3*77\r\n
$GLGSV,3,3,09,83,34,190,38,3*4C\r\n
$GAGSV,2,1,07,02,69,345,38,07,12,302,,08,15,252,23,11,37,053,28,7*76\r\n
$GAGSV,2,2,07,25,43,093,33,30,23,300,,36,58,134,42,7*47\r\n
$GAGSV,2,1,07,02,69,345,35,07,12,302,,08,15,252,29,11,37,053,30,2*7D\r\n
$GAGSV,2,2,07,25,43,093,20,30,23,300,,36,58,134,40,2*42\r\n
$GBGSV,1,1,01,26,,,40,1*77\r\n
$GBGSV,1,1,00,*47\r\n
$GNGLL,3947.65420,N,10509.20093,W,171635.00,A,A*6B\r\n
\xd3\0\x98C \08\b\x1d\xc2\0\0A\x14p\n\0\0\0\0 \0\x80\0}ui)\x89)H\xc9\x89H\xa8\xb0\x86\x1a\xfe\x1b\x05[\x87\xb85\x1ev6\f\x91\xa4\x9b\x89\xa4q%\xd9PN\xb8\x9d\xae^qp\xc0\x9bOT\x1f\x99\xf0\x95\xd3\xcc\xedp\x8e\xf2\xc2\x8a\xa0\xf7M\x8b\xda\xd4\x90\x9a\xf5\x82f(\xf4{t\x15\xee\xd0\v\xf2\x03\xda\v\x0f\xe1\xae\xb7vww7w@\x01\x1bR\xbe\xf4\x14J\xe4\xb3_8\0\0\0\0\0\0\0\0\0\0\0\0\0\0\0\0\0\0\0\0\0\0\0\0\0\0\0\0\0\0\x9b\x8e\xf6
000000007edae9b0:                   d3009843 20003808 |        ...C .8.|
000000007edae9c0: 1dc20000 4114700a 00000000 20008000 |....A.p..... ...|
000000007edae9d0: 7d756929 892948c9 8948a8b0 861afe1b |}ui).)H..H......|
000000007edae9e0: 055b87b8 351e7636 0c91a49b 89a47125 |.[..5.v6......q%|
000000007edae9f0: d9504eb8 9dae5e71 70c09b4f 541f99f0 |.PN...^qp..OT...|
000000007edaea00: 95d3cced 708ef2c2 8aa0f74d 8bdad490 |....p......M....|
000000007edaea10: 9af58266 28f47b74 15eed00b f203da0b |...f(.{t........|
000000007edaea20: 0fe1aeb7 76777737 7740011b 52bef414 |....vww7w@..R...|
000000007edaea30: 4ae4b35f 38000000 00000000 00000000 |J.._8...........|
000000007edaea40: 00000000 00000000 00000000 00000000 |................|
000000007edaea50: 0000009b 8ef6                       |......          |
RTK gpstool: RTCM <1074> [14] [158] [158]
\xd3\0{C\xc0\0QgR\x82\0\0\x01A\xf0\0\0\0\0\0 \x80\0\0W\xfa\x9c\x9a\x8a\x82\x8e\x80\x8f\xe3\xa8\xdaI\xfeF k\x01H\xd1\x96\x85r\v\xd0x\x1e\xf1\x93\x88\x93\x18\xae\xad\x8di<\xd6B\x95\v\a\\l.$@\xc2$\xff\x03\xdd\xfc\x837\xc2\xc8\x8f\x12;\xbd\x1f\xa8\xf6w\v\xe6Ej\xad\xd8\xdd\xdc\xdd\0\r\xbf\x1b\xad\xc5\x14q;0\0\0\0\0\0\0\0\0\0\0\0\0\0\0\0\0\0\0\xb3\xba/
000000007edae9b0:                   d3007b43 c0005167 |        ..{C..Qg|
000000007edae9c0: 52820000 0141f000 00000000 20800000 |R....A...... ...|
000000007edae9d0: 57fa9c9a 8a828e80 8fe3a8da 49fe4620 |W...........I.F |
000000007edae9e0: 6b0148d1 9685720b d0781ef1 93889318 |k.H...r..x......|
000000007edae9f0: aead8d69 3cd64295 0b075c6c 2e2440c2 |...i<.B...\l.$@.|
000000007edaea00: 24ff03dd fc8337c2 c88f123b bd1fa8f6 |$.....7....;....|
000000007edaea10: 770be645 6aadd8dd dcdd000d bf1badc5 |w..Ej...........|
000000007edaea20: 14713b30 00000000 00000000 00000000 |.q;0............|
000000007edaea30: 00000000 0000b3ba 2f                |......../       |
RTK gpstool: RTCM <1084> [14] [129] [158]
\xd3\0^D`\08\b\x1d\xc0\0\0 \x90\0@\b\0\0\0 \x01\0\0oi\xca\x89\xca)\xf0\x9d\xdd\xb0$\xc7\xc0\xb4\x01\xb5\x1d\xd1\xb9\xdfs\x99\xe2\xc6~\x8d\x12h-\xb7 \xdec\xfd\xc8\xbd\xf0)_\xcfP\x7f\x17\xe3\x87\xa4\x92!\xe8\x16\xedff`\x04\xd1\xbc\xe3\xd0\xd5@\0\0\0\0\0\0\0\0\0\0\0\0p\x90?
000000007edae9b0:                   d3005e44 60003808 |        ..^D`.8.|
000000007edae9c0: 1dc00000 20900040 08000000 20010000 |.... ..@.... ...|
000000007edae9d0: 6f69ca89 ca29f09d ddb024c7 c0b401b5 |oi...)....$.....|
000000007edae9e0: 1dd1b9df 7399e2c6 7e8d1268 2db720de |....s...~..h-. .|
000000007edae9f0: 63fdc8bd f0295fcf 507f17e3 87a49221 |c....)_.P......!|
000000007edaea00: e816ed66 666004d1 bce3d0d5 40000000 |...ff`......@...|
000000007edaea10: 00000000 00000000 0070903f          |.........p.?    |
RTK gpstool: RTCM <1094> [14] [100] [158]
\xd3\0\bL\xe0\0\x8a\0\0\0\0\xa8\xf7*
000000007edae9b0:                   d300084c e0008a00 |        ...L....|
000000007edae9c0: 000000a8 f72a                       |.....*          |
RTK gpstool: RTCM <1230> [14] [14] [158]
\xb5b\x01\x14$\0\0\0\0\0p\a\x02\x0eO\xdfR\xc1_\x1e\xb8\x17|\xcb\x19\0x\x1f\x1a\0\x04&\x03\x02\xb04\0\0\xa6X\0\0o\xa8
000000007edaedc0:                            b5620114 |            .b..|
000000007edaedd0: 24000000 00007007 020e4fdf 52c15f1e |$.....p...O.R._.|
000000007edaede0: b8177ccb 1900781f 1a000426 0302b034 |..|...x....&...4|
000000007edaedf0: 0000a658 00006fa8                   |...X..o.        |
\xb5b\x01;(\0\0\0\0\0p\a\x02\x0e\x9c\0\0\0\x13\x15Z\xf8\xfch\xc2\xe3\xdcj5\x18\x18\v\xd0\0\xf4\xeb\0\0\x9d\0\0\0\0\x01\0\0\r/
000000007edaedc0:                            b562013b |            .b.;|
000000007edaedd0: 28000000 00007007 020e9c00 00001315 |(.....p.........|
000000007edaede0: 5af8fc68 c2e3dc6a 3518180b d000f4eb |Z..h...j5.......|
000000007edaedf0: 00009d00 00000001 00000d2f          |.........../    |
$GNRMC,171636.00,A,3947.65420,N,10509.20093,W,0.044,,040619,,,A,V*01\r\n
$GNVTG,,T,,M,0.044,N,0.081,K,A*34\r\n
$GNGGA,171636.00,3947.65420,N,10509.20093,W,1,12,0.62,1712.0,M,-21.5,M,,*44\r\n
$GNGSA,A,3,07,11,30,19,28,01,17,13,15,18,,,1.20,0.62,1.03,1*0A\r\n
$GNGSA,A,3,79,73,82,80,83,81,,,,,,,1.20,0.62,1.03,2*0D\r\n
$GNGSA,A,3,02,11,25,08,36,,,,,,,,1.20,0.62,1.03,3*0E\r\n
$GNGSA,A,3,,,,,,,,,,,,,1.20,0.62,1.03,4*01\r\n
$GPGSV,3,1,11,01,37,079,35,07,24,142,37,08,03,048,25,11,37,060,30,1*68\r\n
$GPGSV,3,2,11,13,37,271,32,15,17,302,22,17,59,223,40,18,24,053,28,1*6B\r\n
$GPGSV,3,3,11,19,35,221,37,28,69,002,38,30,56,146,47,1*53\r\n
$GPGSV,3,1,11,01,37,079,26,07,24,142,31,08,03,048,,11,37,060,,6*6F\r\n
$GPGSV,3,2,11,13,37,271,,15,17,302,21,17,59,223,37,18,24,053,,6*64\r\n
$GPGSV,3,3,11,19,35,221,,28,69,002,,30,56,146,39,6*52\r\n
$GLGSV,3,1,09,70,02,254,,71,10,300,27,72,03,345,,73,14,313,31,1*72\r\n
$GLGSV,3,2,09,79,40,103,35,80,66,003,27,81,34,035,34,82,76,114,34,1*77\r\n
$GLGSV,3,3,09,83,34,190,22,1*45\r\n
$GLGSV,3,1,09,70,02,254,,71,10,300,,72,03,345,,73,14,313,19,3*7F\r\n
$GLGSV,3,2,09,79,40,103,29,80,66,003,34,81,34,035,35,82,76,114,29,3*77\r\n
$GLGSV,3,3,09,83,34,190,38,3*4C\r\n
$GAGSV,2,1,07,02,69,345,38,07,12,302,,08,15,252,23,11,37,053,28,7*76\r\n
$GAGSV,2,2,07,25,43,093,33,30,23,300,,36,58,134,42,7*47\r\n
$GAGSV,2,1,07,02,69,345,35,07,12,302,,08,15,252,30,11,37,053,30,2*75\r\n
$GAGSV,2,2,07,25,43,093,20,30,23,300,,36,58,134,40,2*42\r\n
$GBGSV,1,1,01,26,,,39,1*79\r\n
$GBGSV,1,1,00,*47\r\n
$GNGLL,3947.65420,N,10509.20093,W,171636.00,A,A*68\r\n
\xd3\0\x98C \08\b-b\0\0A\x14p\n\0\0\0\0 \0\x80\0}ui)\x89)H\xc9\x89H\xa8\xb0~\x1e\xfe\x9b\x05S\x89\xb75\x1e\x81\xfc\xf4\x1fG\x1fN\xacx\x97\x1a@J\x14\x94\x8e|\xc0\xcfa\x80\xfa4uX\x0e\xca\bE\xbd\xf0\xdf\x96\x03\xcd\x17\xfb{d\x1b\xd3\xf0\x91\xb9\x82A3\xf5hd\v\xd2`(\xb8~\x91d\xfa\xbf*\xb7vww7w@\x01\x1bS>\xf4\x14J\xe4\xb3_8\0\0\0\0\0\0\0\0\0\0\0\0\0\0\0\0\0\0\0\0\0\0\0\0\0\0\0\0\0\0\x1a\xb7/
000000007edae9b0:                   d3009843 20003808 |        ...C .8.|
000000007edae9c0: 2d620000 4114700a 00000000 20008000 |-b..A.p..... ...|
000000007edae9d0: 7d756929 892948c9 8948a8b0 7e1efe9b |}ui).)H..H..~...|
000000007edae9e0: 055389b7 351e81fc f41f471f 4eac7897 |.S..5.....G.N.x.|
000000007edae9f0: 1a404a14 948e7cc0 cf6180fa 3475580e |.@J...|..a..4uX.|
000000007edaea00: ca0845bd f0df9603 cd17fb7b 641bd3f0 |..E........{d...|
000000007edaea10: 91b98241 33f56864 0bd26028 b87e9164 |...A3.hd..`(.~.d|
000000007edaea20: fabf2ab7 76777737 7740011b 533ef414 |..*.vww7w@..S>..|
000000007edaea30: 4ae4b35f 38000000 00000000 00000000 |J.._8...........|
000000007edaea40: 00000000 00000000 00000000 00000000 |................|
000000007edaea50: 0000001a b72f                       |...../          |
RTK gpstool: RTCM <1074> [14] [158] [158]
\xd3\0{C\xc0\0Qgb"\0\0\x01A\xf0\0\0\0\0\0 \x80\0\0W\xfa\x9c\x9a\x8a\x82\x8e\x80\x8f\xe4(\x9aY\xfcG J\xe9R\xef\xa8{\x97x\x10\x8b\xee\x19!\xa4\xc3QI\xa6s[\x84\xd1\x82\x9e \xff\x9d\xe3\xdfG\xef\x86\xb2\x01}<\x06h\xb7\xd0\xe1\xbfJ\xa0\xc3\x11\x87\x0e>\x94&'j\xad\xd9\xdd\xdc\xdd\0\r\xbf\x1b\xad\xc5\x14q;0\0\0\0\0\0\0\0\0\0\0\0\0\0\0\0\0\0\0:T\n
000000007edae9b0:                   d3007b43 c0005167 |        ..{C..Qg|
000000007edae9c0: 62220000 0141f000 00000000 20800000 |b"...A...... ...|
000000007edae9d0: 57fa9c9a 8a828e80 8fe4289a 59fc4720 |W.........(.Y.G |
000000007edae9e0: 4ae952ef a87b9778 108bee19 21a4c351 |J.R..{.x....!..Q|
000000007edae9f0: 49a6735b 84d1829e 20ff9de3 df47ef86 |I.s[.... ....G..|
000000007edaea00: b2017d3c 0668b7d0 e1bf4aa0 c311870e |..}<.h....J.....|
000000007edaea10: 3e942627 6aadd9dd dcdd000d bf1badc5 |>.&'j...........|
000000007edaea20: 14713b30 00000000 00000000 00000000 |.q;0............|
000000007edaea30: 00000000 00003a54 0a                |......:T.       |
RTK gpstool: RTCM <1084> [14] [129] [158]
\xd3\0^D`\08\b-`\0\0 \x90\0@\b\0\0\0 \x01\0\0oi\xca\x89\xca)\xf0\x9d\xdf\xb0\xa4\xe7\xc6\xf7\xbe:e68q\xf1c\xdb\v\xa0\x17U\x9f\xbe\x93\x1f!\xcf\x05,\x15\xed\xef\xb7\xc6d\xbe\xd8\xe0y\xbei\xeaOn\xedff`\x04\xd1<\xe3\xd0\xd5@\0\0\0\0\0\0\0\0\0\0\0\0\xa0w\xe1
000000007edae9b0:                   d3005e44 60003808 |        ..^D`.8.|
000000007edae9c0: 2d600000 20900040 08000000 20010000 |-`.. ..@.... ...|
000000007edae9d0: 6f69ca89 ca29f09d dfb0a4e7 c6f7be3a |oi...).........:|
000000007edae9e0: 65363871 f163db0b a017559f be931f21 |e68q.c....U....!|
000000007edae9f0: cf052c15 edefb7c6 64bed8e0 79be69ea |..,.....d...y.i.|
000000007edaea00: 4f6eed66 666004d1 3ce3d0d5 40000000 |On.ff`..<...@...|
000000007edaea10: 00000000 00000000 00a077e1          |..........w.    |
RTK gpstool: RTCM <1094> [14] [100] [158]
\xd3\0\bL\xe0\0\x8a\0\0\0\0\xa8\xf7*
000000007edae9b0:                   d300084c e0008a00 |        ...L....|
000000007edae9c0: 000000a8 f72a                       |.....*          |
RTK gpstool: RTCM <1230> [14] [14] [158]
\xb5b\x01\x14$\0\0\0\0\0X\v\x02\x0eQ\xdfR\xc1_\x1e\xb8\x17\x94\xcb\x19\0\x90\x1f\x1a\0\x1f\xd7\x02\x01\x9e4\0\0\x8fX\0\0.\x9c
000000007edaedc0:                            b5620114 |            .b..|
000000007edaedd0: 24000000 0000580b 020e51df 52c15f1e |$.....X...Q.R._.|
000000007edaede0: b81794cb 1900901f 1a001fd7 02019e34 |...............4|
000000007edaedf0: 00008f58 00002e9c                   |...X....        |
\xb5b\x01;(\0\0\0\0\0X\v\x02\x0e\x9d\0\0\0\x14\x15Z\xf8\xfch\xc2\xe3\xdcj5\x18\xde\xe1\xe8\0q\xec\0\0\x9e\0\0\0\0\x01\0\0.\xc0
000000007edaedc0:                            b562013b |            .b.;|
000000007edaedd0: 28000000 0000580b 020e9d00 00001415 |(.....X.........|
000000007edaede0: 5af8fc68 c2e3dc6a 3518dee1 e80071ec |Z..h...j5.....q.|
000000007edaedf0: 00009e00 00000001 00002ec0          |............    |
$GNRMC,171637.00,A,3947.65420,N,10509.20092,W,0.036,,040619,,,A,V*04\r\n
$GNVTG,,T,,M,0.036,N,0.068,K,A*36\r\n
$GNGGA,171637.00,3947.65420,N,10509.20092,W,1,12,0.62,1712.0,M,-21.5,M,,*44\r\n
$GNGSA,A,3,07,11,30,19,28,01,17,13,15,18,,,1.20,0.62,1.03,1*0A\r\n
$GNGSA,A,3,79,73,82,80,83,81,,,,,,,1.20,0.62,1.03,2*0D\r\n
$GNGSA,A,3,02,11,25,08,36,,,,,,,,1.20,0.62,1.03,3*0E\r\n
$GNGSA,A,3,,,,,,,,,,,,,1.20,0.62,1.03,4*01\r\n
$GPGSV,3,1,11,01,37,079,35,07,24,142,38,08,03,048,25,11,37,060,30,1*67\r\n
$GPGSV,3,2,11,13,37,271,32,15,17,302,24,17,59,223,40,18,24,053,28,1*6D\r\n
$GPGSV,3,3,11,19,35,221,37,28,69,002,38,30,56,146,47,1*53\r\n
$GPGSV,3,1,11,01,37,079,26,07,24,142,31,08,03,048,,11,37,060,,6*6F\r\n
$GPGSV,3,2,11,13,37,271,,15,17,302,21,17,59,223,37,18,24,053,,6*64\r\n
$GPGSV,3,3,11,19,35,221,,28,69,002,,30,56,146,39,6*52\r\n
$GLGSV,3,1,09,70,02,254,,71,10,300,27,72,03,345,,73,14,313,31,1*72\r\n
$GLGSV,3,2,09,79,40,103,35,80,66,003,27,81,34,035,34,82,76,114,34,1*77\r\n
$GLGSV,3,3,09,83,34,190,22,1*45\r\n
$GLGSV,3,1,09,70,02,254,,71,10,300,,72,03,345,,73,14,313,18,3*7E\r\n
$GLGSV,3,2,09,79,40,103,29,80,66,003,34,81,34,035,35,82,76,114,29,3*77\r\n
$GLGSV,3,3,09,83,34,190,38,3*4C\r\n
$GAGSV,2,1,07,02,69,345,38,07,12,302,,08,15,252,23,11,37,053,28,7*76\r\n
$GAGSV,2,2,07,25,43,093,33,30,23,300,,36,58,134,42,7*47\r\n
$GAGSV,2,1,07,02,69,345,34,07,12,302,,08,15,252,30,11,37,053,30,2*74\r\n
$GAGSV,2,2,07,25,43,093,20,30,23,300,,36,58,134,40,2*42\r\n
$GBGSV,1,1,01,26,,,39,1*79\r\n
$GBGSV,1,1,00,*47\r\n
$GNGLL,3947.65420,N,10509.20092,W,171637.00,A,A*68\r\n
\xd3\0\x98C \08\b=\x02\0\0A\x14p\n\0\0\0\0 \0\x80\0}ui)\x89)H\xc9\x89H\xa8\xb0~$\xff\x1b%K\x8b\xb65\x1e\x89\xc3\xd3\xaa\xd9\xa53\xb8\x01\x1e\xdbFEx\x8bn\x9aP-\xc2f\x85\x14\v\x16\r\0\xb0>\x98o0>=\x0f\xc9\xff\xab\x87\xdc\xda\xb0\x88\x8cB\x1c\x7f\xf6W \x01\xb6\xd0EvAI\a\x05\x9d\xa6\xf7vww7w@\x01\x1bS>\xf4\x14J\xdc\xb3_8\0\0\0\0\0\0\0\0\0\0\0\0\0\0\0\0\0\0\0\0\0\0\0\0\0\0\0\0\0\0\x0e8\x16
000000007edae9b0:                   d3009843 20003808 |        ...C .8.|
000000007edae9c0: 3d020000 4114700a 00000000 20008000 |=...A.p..... ...|
000000007edae9d0: 7d756929 892948c9 8948a8b0 7e24ff1b |}ui).)H..H..~$..|
000000007edae9e0: 254b8bb6 351e89c3 d3aad9a5 33b8011e |%K..5.......3...|
000000007edae9f0: db464578 8b6e9a50 2dc26685 140b160d |.FEx.n.P-.f.....|
000000007edaea00: 00b03e98 6f303e3d 0fc9ffab 87dcdab0 |..>.o0>=........|
000000007edaea10: 888c421c 7ff65720 01b6d045 76414907 |..B...W ...EvAI.|
000000007edaea20: 059da6f7 76777737 7740011b 533ef414 |....vww7w@..S>..|
000000007edaea30: 4adcb35f 38000000 00000000 00000000 |J.._8...........|
000000007edaea40: 00000000 00000000 00000000 00000000 |................|
000000007edaea50: 0000000e 3816                       |....8.          |
RTK gpstool: RTCM <1074> [14] [158] [158]
\xd3\0{C\xc0\0Qgq\xc2\0\0\x01A\xf0\0\0\0\0\0 \x80\0\0W\xfa\x9c\x9a\x8a\x82\x8e\x80\x8f\xe4\xa8Za\xfaH J\xd9X\r\xb8\xc1\xbb\xc4V\x9f\xc1@\xb5\xc0\xeb\x89\xb8\x9faM\xdc\xcf\x82\xa7\xaa\xf7\xdd\x8c\x10o\0KS\x83\xf6\xda\x10N\xcf\xdf\0/\x83\x19\x81\x048\x06\t?\xe6\fZ\xad\xd9\xdd\xdc\xdd\0\r?\x1b\xceE\x14q;0\0\0\0\0\0\0\0\0\0\0\0\0\0\0\0\0\0\0\xba\\\x85
000000007edae9b0:                   d3007b43 c0005167 |        ..{C..Qg|
000000007edae9c0: 71c20000 0141f000 00000000 20800000 |q....A...... ...|
000000007edae9d0: 57fa9c9a 8a828e80 8fe4a85a 61fa4820 |W..........Za.H |
000000007edae9e0: 4ad9580d b8c1bbc4 569fc140 b5c0eb89 |J.X.....V..@....|
000000007edae9f0: b89f614d dccf82a7 aaf7dd8c 106f004b |..aM.........o.K|
000000007edaea00: 5383f6da 104ecfdf 002f8319 81043806 |S....N.../....8.|
000000007edaea10: 093fe60c 5aadd9dd dcdd000d 3f1bce45 |.?..Z.......?..E|
000000007edaea20: 14713b30 00000000 00000000 00000000 |.q;0............|
000000007edaea30: 00000000 0000ba5c 85                |.......\.       |
RTK gpstool: RTCM <1084> [14] [129] [158]
\xd3\0^D`\08\b=\0\0\0 \x90\0@\b\0\0\0 \x01\0\0oi\xca\x89\xca)\xf0\x95\xe3\xb1%\a\xb9;\x82\xc0\xbc\x9c7{\xef,\xd3#\xc1\xbf\x99\x10Oj\xc1e,\xfc\x8e\xb3\xeb\xb6\xbf\xbd\x84\x1e\x99\xc4{\xd8\xa7\xf2\xb8\x9e\xedff`\x04\xd1\xbc\xe3\xd0\xd5@\0\0\0\0\0\0\0\0\0\0\0\0\xa4'@
000000007edae9b0:                   d3005e44 60003808 |        ..^D`.8.|
000000007edae9c0: 3d000000 20900040 08000000 20010000 |=... ..@.... ...|
000000007edae9d0: 6f69ca89 ca29f095 e3b12507 b93b82c0 |oi...)....%..;..|
000000007edae9e0: bc9c377b ef2cd323 c1bf9910 4f6ac165 |..7{.,.#....Oj.e|
000000007edae9f0: 2cfc8eb3 ebb6bfbd 841e99c4 7bd8a7f2 |,...........{...|
000000007edaea00: b89eed66 666004d1 bce3d0d5 40000000 |...ff`......@...|
000000007edaea10: 00000000 00000000 00a42740          |..........'@    |
RTK gpstool: RTCM <1094> [14] [100] [158]
\xd3\0\bL\xe0\0\x8a\0\0\0\0\xa8\xf7*
000000007edae9b0:                   d300084c e0008a00 |        ...L....|
000000007edae9c0: 000000a8 f72a                       |.....*          |
RTK gpstool: RTCM <1230> [14] [14] [158]
\xb5b\x01\x14$\0\0\0\0\0@\x0f\x02\x0eT\xdfR\xc1]\x1e\xb8\x17\xc0\xcb\x19\0\xbc\x1f\x1a\0\xe9/\xfc\xfb\x8a4\0\0rX\0\0X&
000000007edaedc0:                            b5620114 |            .b..|
000000007edaedd0: 24000000 0000400f 020e54df 52c15d1e |$.....@...T.R.].|
000000007edaede0: b817c0cb 1900bc1f 1a00e92f fcfb8a34 |.........../...4|
000000007edaedf0: 00007258 00005826                   |..rX..X&        |
\xb5b\x01;(\0\0\0\0\0@\x0f\x02\x0e\x9e\0\0\0\x14\x15Z\xf8\xfbh\xc2\xe3\xdcj5\x18\a\x1a\x01\0\xeb\xec\0\0\x9f\0\0\0\0\x01\0\0\x10\xf9
000000007edaedc0:                            b562013b |            .b.;|
000000007edaedd0: 28000000 0000400f 020e9e00 00001415 |(.....@.........|
000000007edaede0: 5af8fb68 c2e3dc6a 3518071a 0100ebec |Z..h...j5.......|
000000007edaedf0: 00009f00 00000001 000010f9          |............    |
$GNRMC,171638.00,A,3947.65419,N,10509.20091,W,0.017,,040619,,,A,V*01\r\n
$GNVTG,,T,,M,0.017,N,0.031,K,A*39\r\n
$GNGGA,171638.00,3947.65419,N,10509.20091,W,1,12,0.62,1712.1,M,-21.5,M,,*43\r\n
$GNGSA,A,3,07,11,30,19,28,01,17,13,15,18,,,1.20,0.62,1.03,1*0A\r\n
$GNGSA,A,3,79,73,82,80,83,81,,,,,,,1.20,0.62,1.03,2*0D\r\n
$GNGSA,A,3,02,11,25,08,36,,,,,,,,1.20,0.62,1.03,3*0E\r\n
$GNGSA,A,3,,,,,,,,,,,,,1.20,0.62,1.03,4*01\r\n
$GPGSV,3,1,11,01,37,079,35,07,24,142,38,08,03,048,25,11,37,060,30,1*67\r\n
$GPGSV,3,2,11,13,37,271,32,15,17,302,25,17,59,223,40,18,24,053,27,1*63\r\n
$GPGSV,3,3,11,19,35,221,37,28,69,002,38,30,56,146,47,1*53\r\n
$GPGSV,3,1,11,01,37,079,26,07,24,142,31,08,03,048,,11,37,060,,6*6F\r\n
$GPGSV,3,2,11,13,37,271,,15,17,302,21,17,59,223,37,18,24,053,,6*64\r\n
$GPGSV,3,3,11,19,35,221,,28,69,002,,30,56,146,39,6*52\r\n
$GLGSV,3,1,09,70,02,254,,71,10,300,26,72,03,345,,73,14,313,31,1*73\r\n
$GLGSV,3,2,09,79,40,103,35,80,66,003,28,81,34,035,34,82,76,114,34,1*78\r\n
$GLGSV,3,3,09,83,34,190,22,1*45\r\n
$GLGSV,3,1,09,70,02,254,,71,10,300,,72,03,345,,73,14,313,16,3*70\r\n
$GLGSV,3,2,09,79,40,103,30,80,66,003,34,81,34,035,35,82,76,114,29,3*7F\r\n
$GLGSV,3,3,09,83,34,190,38,3*4C\r\n
$GAGSV,2,1,07,02,69,345,38,07,12,302,,08,15,252,23,11,37,053,28,7*76\r\n
$GAGSV,2,2,07,25,43,093,33,30,23,300,,36,58,134,42,7*47\r\n
$GAGSV,2,1,07,02,69,345,35,07,12,302,,08,15,252,30,11,37,053,30,2*75\r\n
$GAGSV,2,2,07,25,43,093,19,30,23,300,,36,58,134,40,2*48\r\n
$GBGSV,1,1,01,26,,,39,1*79\r\n
$GBGSV,1,1,00,*47\r\n
$GNGLL,3947.65419,N,10509.20091,W,171638.00,A,A*6E\r\n
\xd3\0\x98C \08\bL\xa2\0\0A\x14p\n\0\0\0\0 \0\x80\0}ui)\x89)H\xc9\x89H\xa8\xb0~(\xff\x9b%C\x8d\xb55\x1e\x91\x8b\xb39\xdc+8\xbf\n \x1cRA\x10\x82>\xb8\xbf\x8c\xc3MO\xfb \xdf\v;\xc47\x82\xaf\x81\x05\xbeR\xeb\x03\xdf@\x1d\xf1 \x7f\x94\x01\xf8\x9c\xf7Jw\xf7\xa5\xc0bPD\x01~\x10\x7f~\xf7vww7w@\x01\x1bS>\xf4\x14J\xdc\xb3_8\0\0\0\0\0\0\0\0\0\0\0\0\0\0\0\0\0\0\0\0\0\0\0\0\0\0\0\0\0\0\xde;\xdd
000000007edae9b0:                   d3009843 20003808 |        ...C .8.|
000000007edae9c0: 4ca20000 4114700a 00000000 20008000 |L...A.p..... ...|
000000007edae9d0: 7d756929 892948c9 8948a8b0 7e28ff9b |}ui).)H..H..~(..|
000000007edae9e0: 25438db5 351e918b b339dc2b 38bf0a20 |%C..5....9.+8.. |
000000007edae9f0: 1c524110 823eb8bf 8cc34d4f fb20df0b |.RA..>....MO. ..|
000000007edaea00: 3bc43782 af8105be 52eb03df 401df120 |;.7.....R...@.. |
000000007edaea10: 7f9401f8 9cf74a77 f7a5c062 5044017e |......Jw...bPD.~|
000000007edaea20: 107f7ef7 76777737 7740011b 533ef414 |..~.vww7w@..S>..|
000000007edaea30: 4adcb35f 38000000 00000000 00000000 |J.._8...........|
000000007edaea40: 00000000 00000000 00000000 00000000 |................|
000000007edaea50: 000000de 3bdd                       |....;.          |
RTK gpstool: RTCM <1074> [14] [158] [158]
\xd3\0{C\xc0\0Qg\x81b\0\0\x01A\xf0\0\0\0\0\0 \x80\0\0W\xfa\x9c\x9a\x8a\x82\x8e\x80\x8f\xe5'\xfai\xfaI J\xc1]\x83\xc9G\xe4P\xa1s\x9a\xe8a\xdd?\xc2\x87\x9a\x0fA\xc4\xcf\x02\xb2K\x10\x1d\x84A\xa1\xb1\x10\x1e>q7\xfa8{\xed+o\xbb\xc7~\xf8S\xfd\xd9\x98%\xfd\xaa\xad\xd9\xdd\xdc\xdd\0\r\xbf\x1b\xeeE\x14q;0\0\0\0\0\0\0\0\0\0\0\0\0\0\0\0\0\0\0\x1e|6
000000007edae9b0:                   d3007b43 c0005167 |        ..{C..Qg|
000000007edae9c0: 81620000 0141f000 00000000 20800000 |.b...A...... ...|
000000007edae9d0: 57fa9c9a 8a828e80 8fe527fa 69fa4920 |W.........'.i.I |
000000007edae9e0: 4ac15d83 c947e450 a1739ae8 61dd3fc2 |J.]..G.P.s..a.?.|
000000007edae9f0: 879a0f41 c4cf02b2 4b101d84 41a1b110 |...A....K...A...|
000000007edaea00: 1e3e7137 fa387bed 2b6fbbc7 7ef853fd |.>q7.8{.+o..~.S.|
000000007edaea10: d99825fd aaadd9dd dcdd000d bf1bee45 |..%............E|
000000007edaea20: 14713b30 00000000 00000000 00000000 |.q;0............|
000000007edaea30: 00000000 00001e7c 36                |.......|6       |
RTK gpstool: RTCM <1084> [14] [129] [158]
\xd3\0^D`\08\bL\xa0\0\0 \x90\0@\b\0\0\0 \x01\0\0oi\xca\x89\xca)\xf0\x95\xe5\xb1\xa5'\xb7~?H\xc4\06X\xec\xfb\xcb?\xe3[\xdc\x9f\xe0N\x7f\xa8\xc0\x03\xf2c\xe9\x83\x9f\xb4\xb7~Z\xde\xfd\xf4k\xfb'\x8e\xedff`\x04\xd1\xbc\xe3\xd0\xd5@\0\0\0\0\0\0\0\0\0\0\0\0j\x8d\x0e
000000007edae9b0:                   d3005e44 60003808 |        ..^D`.8.|
