2021-05-18T19:32:47.945193Z "localhost" <INFO> [22098] {b6f37530} Begin
2021-05-18T19:32:47.946174Z "localhost" <INFO> [22098] {b6f37530} Locale "en_US.UTF-8"
2021-05-18T19:32:47.946240Z "localhost" <INFO> [22098] {b6f37530} Processing
2021-05-18T19:32:47.946901Z "localhost" <INFO> [22098] {b6f37530} Device (3) "/dev/ttyS0" ro "ttyS0" 9600 8N1 local
2021-05-18T19:32:47.947122Z "localhost" <INFO> [22098] {b6f37530} Buffer (3) [8192] [8192]
2021-05-18T19:32:47.947386Z "localhost" <INFO> [22098] {b6f37530} Start
2021-05-18T19:32:47.973842Z "localhost" <NOTE> [22098] {b6f37530} Ready
2021-05-18T19:32:48.043528Z "localhost" <NOTE> [22098] {b6f37530} Sync NMEA 0x0000000000000044
$GNRMC,193248.00,A,3947.65267,N,10509.20207,W,0.055,,180521,,,D*70
$GNVTG,,T,,M,0.055,N,0.102,K,D*3B
$GNGGA,193248.00,3947.65267,N,10509.20207,W,2,12,0.75,1720.0,M,-21.5,M,,0000*4B
$GNGSA,A,3,06,12,19,28,14,17,46,24,02,51,,,1.47,0.75,1.27*1E
$GNGSA,A,3,87,76,86,88,78,,,,,,,,1.47,0.75,1.27*17
$GPGSV,3,1,12,02,55,211,27,03,09,039,16,06,80,117,18,12,34,312,28*74
$GPGSV,3,2,12,14,17,126,23,17,33,063,10,19,55,045,24,24,39,257,25*7A
$GPGSV,3,3,12,25,00,310,,28,35,121,29,46,38,215,30,51,44,183,31*7A
$GLGSV,3,1,11,70,01,009,,71,07,054,12,72,01,098,,76,17,159,31*66
$GLGSV,3,2,11,77,67,184,,78,48,320,27,79,00,331,,81,07,237,17*6E
$GLGSV,3,3,11,86,08,044,10,87,65,358,26,88,54,260,25*56
$GNGLL,3947.65267,N,10509.20207,W,193248.00,A,D*66
$GNRMC,193249.00,A,3947.65267,N,10509.20202,W,0.067,,180521,,,D*75
$GNVTG,,T,,M,0.067,N,0.124,K,D*3E
$GNGGA,193249.00,3947.65267,N,10509.20202,W,2,12,0.91,1720.2,M,-21.5,M,,0000*47
$GNGSA,A,3,06,12,19,28,14,17,46,24,02,51,,,1.86,0.91,1.62*18
$GNGSA,A,3,87,76,86,88,78,,,,,,,,1.86,0.91,1.62*11
$GPGSV,3,1,12,02,55,211,27,03,09,039,16,06,80,117,18,12,34,312,28*74
$GPGSV,3,2,12,14,17,126,24,17,33,063,11,19,55,045,24,24,39,257,24*7D
$GPGSV,3,3,12,25,00,310,,28,35,121,29,46,38,215,30,51,44,183,32*79
$GLGSV,3,1,11,70,01,009,,71,07,054,12,72,01,098,,76,17,159,31*66
$GLGSV,3,2,11,77,67,184,,78,48,320,27,79,00,331,,81,07,237,18*61
$GLGSV,3,3,11,86,08,044,09,87,65,358,25,88,54,260,25*5D
$GNGLL,3947.65267,N,10509.20202,W,193249.00,A,D*62
$GNRMC,193250.00,A,3947.65264,N,10509.20200,W,0.065,,180521,,,D*7E
$GNVTG,,T,,M,0.065,N,0.121,K,D*39
$GNGGA,193250.00,3947.65264,N,10509.20200,W,2,12,0.75,1720.4,M,-21.5,M,,0000*42
$GNGSA,A,3,06,12,19,28,14,17,46,24,02,51,,,1.47,0.75,1.27*1E
$GNGSA,A,3,87,76,86,88,78,,,,,,,,1.47,0.75,1.27*17
$GPGSV,3,1,12,02,55,211,27,03,09,039,16,06,80,117,18,12,34,312,28*74
$GPGSV,3,2,12,14,17,126,24,17,33,063,14,19,55,045,23,24,39,257,24*7F
$GPGSV,3,3,12,25,00,310,,28,35,121,29,46,38,215,30,51,44,183,32*79
$GLGSV,3,1,11,70,01,009,,71,07,054,12,72,01,098,,76,17,159,31*66
$GLGSV,3,2,11,77,67,184,,78,48,320,27,79,00,331,,81,07,237,17*6E
$GLGSV,3,3,11,86,08,044,10,87,65,358,25,88,54,260,25*55
$GNGLL,3947.65264,N,10509.20200,W,193250.00,A,D*6B
$GNRMC,193251.00,A,3947.65264,N,10509.20196,W,0.014,,180521,,,D*75
$GNVTG,,T,,M,0.014,N,0.026,K,D*39
$GNGGA,193251.00,3947.65264,N,10509.20196,W,2,12,0.75,1720.6,M,-21.5,M,,0000*4D
$GNGSA,A,3,06,12,19,28,14,17,46,24,02,51,,,1.47,0.75,1.27*1E
$GNGSA,A,3,87,76,86,88,78,,,,,,,,1.47,0.75,1.27*17
$GPGSV,3,1,12,02,55,211,28,03,09,039,14,06,80,113,19,12,34,312,27*73
$GPGSV,3,2,12,14,17,126,24,17,33,063,12,19,55,045,23,24,39,257,23*7E
$GPGSV,3,3,12,25,00,310,,28,35,121,29,46,38,215,31,51,44,183,32*78
$GLGSV,3,1,11,70,01,009,,71,07,054,11,72,01,098,,76,17,159,31*65
$GLGSV,3,2,11,77,67,184,,78,48,320,28,79,00,331,,81,07,237,17*61
$GLGSV,3,3,11,86,08,044,09,87,65,358,25,88,54,260,24*5C
$GNGLL,3947.65264,N,10509.20196,W,193251.00,A,D*66
$GNRMC,193252.00,A,3947.65263,N,10509.20195,W,0.056,,180521,,,D*74
$GNVTG,,T,,M,0.056,N,0.104,K,D*3E
^C2021-05-18T19:32:52.105786Z "localhost" <NOTE> [22098] {b6f37530} SIGINT
2021-05-18T19:32:52.105842Z "localhost" <INFO> [22098] {b6f37530} Stop
2021-05-18T19:32:52.106054Z "localhost" <INFO> [22098] {b6f37530} Counters Remote=0 Surveyor=0 Keepalive=0 OutOfOrder=0 Missing=0
2021-05-18T19:32:52.106610Z "localhost" <INFO> [22098] {b6f37530} Buffer size=8192B maximum=0B total=3114B speed=748BPS peak=0B
2021-05-18T19:32:52.107211Z "localhost" <EROR> [22098] {b6f37530} app/gpstool/main.c@2736: fclose(out_fp): "Interrupted system call" (4)
2021-05-18T19:32:52.107263Z "localhost" <INFO> [22098] {b6f37530} End
