Script started on 2019-11-19 10:24:49-0700
]0;jsloan@nickel: ~/src/com-diag-hazer/Hazer[01;32mjsloan@nickel[00m:[01;34m~/src/com-diag-hazer/Hazer[00m$ ps
  PID TTY          TIME CMD
27586 pts/3    00:00:00 bash
27594 pts/3    00:00:00 ps
]0;jsloan@nickel: ~/src/com-diag-hazer/Hazer[01;32mjsloan@nickel[00m:[01;34m~/src/com-diag-hazer/Hazer[00m$ psexitgpstool -D /dev/ttyACM0 -b 38400 -8 -n -1 -v -P[C[C[C[C[C[C[C[C[C[C[C[C[C[C[C[C[C[C[C[C[C[C[C[C[C[C[C[C[C[C[C[C[C[C[C[C[C[C[C[C[C[Cexit[Kgpstool -D /dev/ttyACM0 -b 38400 -8 -n -1 -v -P
2019-11-19T17:24:53.997376Z <INFO> [27595] {7fb3ea347600} Begin
2019-11-19T17:24:53.997580Z <INFO> [27595] {7fb3ea347600} Processing
2019-11-19T17:24:53.997967Z <INFO> [27595] {7fb3ea347600} Device (3) "/dev/ttyACM0" ro 38400 8N1 local
2019-11-19T17:24:53.998117Z <INFO> [27595] {7fb3ea347600} Buffer (3) [8192] [8192]
2019-11-19T17:24:53.998222Z <INFO> [27595] {7fb3ea347600} Start
2019-11-19T17:24:54.034219Z <NOTE> [27595] {7fb3ea347600} Sync UBX 0x000000000000002c
2019-11-19T17:24:54.034242Z <DBUG> [27595] {7fb3ea347600} Input UBX [45] [44]
2019-11-19T17:24:54.034258Z <NOTE> [27595] {7fb3ea347600} Ready
INP [44] \xb5b\x01\x14$\0\0\0\0\0\xc0\xa0\t\x0e\xc4\xdcR\xc1\xd8\x1c\xb8\x17\xd8\xcd\x19\0\xd4!\x1a\0\x18\xe8\x02\x01\xe9\xd1\0\0e\x98\x01\0\xae\xde
0000000018d23590:          b5620114 24000000 0000c0a0 |    .b..$.......|
0000000018d235a0: 090ec4dc 52c1d81c b817d8cd 1900d421 |....R..........!|
0000000018d235b0: 1a0018e8 0201e9d1 00006598 0100aede |..........e.....|
2019-11-19T17:24:54.035707Z <DBUG> [27595] {7fb3ea347600} Ready device [794] [794]
2019-11-19T17:24:54.035790Z <DBUG> [27595] {7fb3ea347600} Input NMEA [71] [70]
INP [70] $GNRMC,172454.00,A,3947.65185,N,10509.20484,W,0.015,,191119,,,A,V*02\r\n
2019-11-19T17:24:54.036476Z <DBUG> [27595] {7fb3ea347600} Ready file [724] [794]
2019-11-19T17:24:54.036532Z <DBUG> [27595] {7fb3ea347600} Input NMEA [36] [35]
INP [35] $GNVTG,,T,,M,0.015,N,0.028,K,A*33\r\n
2019-11-19T17:24:54.036811Z <DBUG> [27595] {7fb3ea347600} Ready file [689] [794]
2019-11-19T17:24:54.036872Z <DBUG> [27595] {7fb3ea347600} Input NMEA [78] [77]
INP [77] $GNGGA,172454.00,3947.65185,N,10509.20484,W,1,11,0.88,1712.6,M,-21.5,M,,*48\r\n
2019-11-19T17:24:54.037545Z <DBUG> [27595] {7fb3ea347600} Ready file [612] [794]
2019-11-19T17:24:54.037605Z <DBUG> [27595] {7fb3ea347600} Input NMEA [63] [62]
INP [62] $GNGSA,A,3,08,10,14,15,20,21,24,27,32,,,,1.63,0.88,1.37,1*0B\r\n
2019-11-19T17:24:54.038149Z <DBUG> [27595] {7fb3ea347600} Ready file [550] [794]
2019-11-19T17:24:54.038201Z <DBUG> [27595] {7fb3ea347600} Input NMEA [47] [46]
INP [46] $GNGSA,A,3,87,,,,,,,,,,,,1.63,0.88,1.37,2*0C\r\n
2019-11-19T17:24:54.038647Z <DBUG> [27595] {7fb3ea347600} Ready file [504] [794]
2019-11-19T17:24:54.038701Z <DBUG> [27595] {7fb3ea347600} Input NMEA [53] [52]
INP [52] $GNGSA,A,3,03,05,09,36,,,,,,,,,1.63,0.88,1.37,3*08\r\n
2019-11-19T17:24:54.039123Z <DBUG> [27595] {7fb3ea347600} Ready file [452] [794]
2019-11-19T17:24:54.039177Z <DBUG> [27595] {7fb3ea347600} Input NMEA [45] [44]
INP [44] $GNGSA,A,3,,,,,,,,,,,,,1.63,0.88,1.37,4*05\r\n
2019-11-19T17:24:54.039567Z <DBUG> [27595] {7fb3ea347600} Ready file [408] [794]
2019-11-19T17:24:54.039625Z <DBUG> [27595] {7fb3ea347600} Input NMEA [69] [68]
INP [68] $GPGSV,3,1,09,08,21,308,,10,65,323,08,14,19,218,21,15,14,050,,1*66\r\n
2019-11-19T17:24:54.040196Z <DBUG> [27595] {7fb3ea347600} Ready file [340] [794]
2019-11-19T17:24:54.040254Z <DBUG> [27595] {7fb3ea347600} Input NMEA [73] [72]
INP [72] $GPGSV,3,2,09,20,66,049,16,21,54,145,25,24,34,083,10,27,36,271,09,1*67\r\n
2019-11-19T17:24:54.040890Z <DBUG> [27595] {7fb3ea347600} Ready file [268] [794]
2019-11-19T17:24:54.040940Z <DBUG> [27595] {7fb3ea347600} Input NMEA [34] [33]
INP [33] $GPGSV,3,3,09,32,46,220,25,1*59\r\n
2019-11-19T17:24:54.041267Z <DBUG> [27595] {7fb3ea347600} Ready file [235] [794]
2019-11-19T17:24:54.041323Z <DBUG> [27595] {7fb3ea347600} Input NMEA [71] [70]
INP [70] $GPGSV,3,1,09,08,21,308,20,10,65,323,21,14,19,218,,15,14,050,20,6*69\r\n
2019-11-19T17:24:54.041946Z <DBUG> [27595] {7fb3ea347600} Ready file [165] [794]
2019-11-19T17:24:54.042002Z <DBUG> [27595] {7fb3ea347600} Input NMEA [69] [68]
INP [68] $GPGSV,3,2,09,20,66,049,,21,54,145,,24,34,083,18,27,36,271,25,6*66\r\n
2019-11-19T17:24:54.042559Z <DBUG> [27595] {7fb3ea347600} Ready file [97] [794]
2019-11-19T17:24:54.042609Z <DBUG> [27595] {7fb3ea347600} Input NMEA [34] [33]
INP [33] $GPGSV,3,3,09,32,46,220,37,6*5D\r\n
2019-11-19T17:24:54.042943Z <DBUG> [27595] {7fb3ea347600} Ready file [64] [794]
2019-11-19T17:24:54.042999Z <DBUG> [27595] {7fb3ea347600} Input NMEA [65] [64]
INP [64] $GLGSV,3,1,09,65,65,328,,66,20,255,,72,38,038,,73,11,039,,1*71\r\n
2019-11-19T17:24:54.043580Z <DBUG> [27595] {7fb3ea347600} Ready device [756] [794]
2019-11-19T17:24:54.043655Z <DBUG> [27595] {7fb3ea347600} Input NMEA [67] [66]
INP [66] $GLGSV,3,2,09,74,01,132,,75,09,044,,81,21,330,,87,51,188,23,1*78\r\n
2019-11-19T17:24:54.044262Z <DBUG> [27595] {7fb3ea347600} Ready file [690] [794]
2019-11-19T17:24:54.044312Z <DBUG> [27595] {7fb3ea347600} Input NMEA [32] [31]
INP [31] $GLGSV,3,3,09,88,64,294,,1*4C\r\n
2019-11-19T17:24:54.044597Z <DBUG> [27595] {7fb3ea347600} Ready file [659] [794]
2019-11-19T17:24:54.044655Z <DBUG> [27595] {7fb3ea347600} Input NMEA [71] [70]
INP [70] $GLGSV,3,1,09,65,65,328,,66,20,255,25,72,38,038,30,73,11,039,19,3*7F\r\n
2019-11-19T17:24:54.044963Z <DBUG> [27595] {7fb3ea347600} Ready file [589] [794]
2019-11-19T17:24:54.044980Z <DBUG> [27595] {7fb3ea347600} Input NMEA [69] [68]
INP [68] $GLGSV,3,2,09,74,01,132,,75,09,044,,81,21,330,28,87,51,188,36,3*74\r\n
2019-11-19T17:24:54.045169Z <DBUG> [27595] {7fb3ea347600} Ready file [521] [794]
2019-11-19T17:24:54.045184Z <DBUG> [27595] {7fb3ea347600} Input NMEA [32] [31]
INP [31] $GLGSV,3,3,09,88,64,294,,3*4E\r\n
2019-11-19T17:24:54.045274Z <DBUG> [27595] {7fb3ea347600} Ready file [490] [794]
2019-11-19T17:24:54.045291Z <DBUG> [27595] {7fb3ea347600} Input NMEA [71] [70]
INP [70] $GAGSV,2,1,06,03,29,240,19,05,81,281,09,09,41,050,11,15,22,318,,7*79\r\n
2019-11-19T17:24:54.045464Z <DBUG> [27595] {7fb3ea347600} Ready file [420] [794]
2019-11-19T17:24:54.045479Z <DBUG> [27595] {7fb3ea347600} Input NMEA [45] [44]
INP [44] $GAGSV,2,2,06,31,02,077,,36,45,164,23,7*73\r\n
2019-11-19T17:24:54.045596Z <DBUG> [27595] {7fb3ea347600} Ready file [376] [794]
2019-11-19T17:24:54.045614Z <DBUG> [27595] {7fb3ea347600} Input NMEA [73] [72]
INP [72] $GAGSV,2,1,06,03,29,240,38,05,81,281,35,09,41,050,35,15,22,318,27,2*73\r\n
2019-11-19T17:24:54.045788Z <DBUG> [27595] {7fb3ea347600} Ready file [304] [794]
2019-11-19T17:24:54.045810Z <DBUG> [27595] {7fb3ea347600} Input NMEA [45] [44]
INP [44] $GAGSV,2,2,06,31,02,077,,36,45,164,38,2*7C\r\n
2019-11-19T17:24:54.045929Z <DBUG> [27595] {7fb3ea347600} Ready file [260] [794]
2019-11-19T17:24:54.045946Z <DBUG> [27595] {7fb3ea347600} Input NMEA [64] [63]
INP [63] $GBGSV,2,1,06,11,09,170,,14,59,042,,24,17,120,,26,18,071,,*4A\r\n
2019-11-19T17:24:54.046111Z <DBUG> [27595] {7fb3ea347600} Ready file [197] [794]
2019-11-19T17:24:54.046126Z <DBUG> [27595] {7fb3ea347600} Input NMEA [42] [41]
INP [41] $GBGSV,2,2,06,27,26,313,,28,54,250,,*4D\r\n
2019-11-19T17:24:54.046249Z <DBUG> [27595] {7fb3ea347600} Ready file [156] [794]
2019-11-19T17:24:54.046265Z <DBUG> [27595] {7fb3ea347600} Input NMEA [64] [63]
INP [63] $GBGSV,2,1,06,11,09,170,,14,59,042,,24,17,120,,26,18,071,,*4A\r\n
2019-11-19T17:24:54.046413Z <DBUG> [27595] {7fb3ea347600} Ready file [93] [794]
2019-11-19T17:24:54.046427Z <DBUG> [27595] {7fb3ea347600} Input NMEA [42] [41]
INP [41] $GBGSV,2,2,06,27,26,313,,28,54,250,,*4D\r\n
2019-11-19T17:24:54.046539Z <DBUG> [27595] {7fb3ea347600} Ready file [52] [794]
2019-11-19T17:24:54.046553Z <DBUG> [27595] {7fb3ea347600} Input NMEA [53] [52]
INP [52] $GNGLL,3947.65185,N,10509.20484,W,172454.00,A,A*65\r\n
2019-11-19T17:24:54.046675Z <DBUG> [27595] {7fb3ea347600} Ready empty [0] [794]
2019-11-19T17:24:55.039601Z <DBUG> [27595] {7fb3ea347600} Input UBX [45] [44]
INP [44] \xb5b\x01\x14$\0\0\0\0\0\xa8\xa4\t\x0e\xc1\xdcR\xc1\xd3\x1c\xb8\x17s\xcf\x19\0o#\x1a\0\x16\xd7\xfe\xfd%\xd2\0\0\xb9\x97\x01\0A\xb3
0000000018d23590:          b5620114 24000000 0000a8a4 |    .b..$.......|
0000000018d235a0: 090ec1dc 52c1d31c b81773cf 19006f23 |....R.....s...o#|
0000000018d235b0: 1a0016d7 fefd25d2 0000b997 010041b3 |......%.......A.|
2019-11-19T17:24:55.040161Z <DBUG> [27595] {7fb3ea347600} Ready device [384] [794]
2019-11-19T17:24:55.040207Z <DBUG> [27595] {7fb3ea347600} Input NMEA [71] [70]
INP [70] $GNRMC,172455.00,A,3947.65182,N,10509.20486,W,0.079,,191119,,,A,V*0C\r\n
2019-11-19T17:24:55.040542Z <DBUG> [27595] {7fb3ea347600} Ready file [314] [794]
2019-11-19T17:24:55.040569Z <DBUG> [27595] {7fb3ea347600} Input NMEA [36] [35]
INP [35] $GNVTG,,T,,M,0.079,N,0.146,K,A*30\r\n
2019-11-19T17:24:55.040724Z <DBUG> [27595] {7fb3ea347600} Ready file [279] [794]
2019-11-19T17:24:55.040755Z <DBUG> [27595] {7fb3ea347600} Input NMEA [78] [77]
INP [77] $GNGGA,172455.00,3947.65182,N,10509.20486,W,1,11,0.84,1713.0,M,-21.5,M,,*47\r\n
2019-11-19T17:24:55.041039Z <DBUG> [27595] {7fb3ea347600} Ready file [202] [794]
2019-11-19T17:24:55.041066Z <DBUG> [27595] {7fb3ea347600} Input NMEA [61] [60]
INP [60] $GNGSA,A,3,08,10,14,15,20,21,27,32,,,,,1.50,0.84,1.25,1*02\r\n
2019-11-19T17:24:55.041277Z <DBUG> [27595] {7fb3ea347600} Ready file [142] [794]
2019-11-19T17:24:55.041302Z <DBUG> [27595] {7fb3ea347600} Input NMEA [47] [46]
INP [46] $GNGSA,A,3,87,,,,,,,,,,,,1.50,0.84,1.25,2*03\r\n
2019-11-19T17:24:55.041444Z <DBUG> [27595] {7fb3ea347600} Ready file [96] [794]
2019-11-19T17:24:55.041468Z <DBUG> [27595] {7fb3ea347600} Input NMEA [53] [52]
INP [52] $GNGSA,A,3,03,05,09,36,,,,,,,,,1.50,0.84,1.25,3*07\r\n
2019-11-19T17:24:55.041667Z <DBUG> [27595] {7fb3ea347600} Ready file [44] [794]
2019-11-19T17:24:55.041693Z <DBUG> [27595] {7fb3ea347600} Input NMEA [45] [44]
INP [44] $GNGSA,A,3,,,,,,,,,,,,,1.50,0.84,1.25,4*0A\r\n
2019-11-19T17:24:55.041898Z <DBUG> [27595] {7fb3ea347600} Ready device [575] [794]
2019-11-19T17:24:55.041934Z <DBUG> [27595] {7fb3ea347600} Input NMEA [69] [68]
INP [68] $GPGSV,3,1,09,08,21,308,,10,65,323,10,14,19,218,21,15,14,050,,1*6F\r\n
2019-11-19T17:24:55.042202Z <DBUG> [27595] {7fb3ea347600} Ready file [507] [794]
2019-11-19T17:24:55.042229Z <DBUG> [27595] {7fb3ea347600} Input NMEA [73] [72]
INP [72] $GPGSV,3,2,09,20,66,049,16,21,54,145,26,24,34,083,07,27,36,271,09,1*62\r\n
2019-11-19T17:24:55.042520Z <DBUG> [27595] {7fb3ea347600} Ready file [435] [794]
2019-11-19T17:24:55.042544Z <DBUG> [27595] {7fb3ea347600} Input NMEA [34] [33]
INP [33] $GPGSV,3,3,09,32,46,220,25,1*59\r\n
2019-11-19T17:24:55.042668Z <DBUG> [27595] {7fb3ea347600} Ready file [402] [794]
2019-11-19T17:24:55.042693Z <DBUG> [27595] {7fb3ea347600} Input NMEA [71] [70]
INP [70] $GPGSV,3,1,09,08,21,308,20,10,65,323,21,14,19,218,,15,14,050,20,6*69\r\n
2019-11-19T17:24:55.042902Z <DBUG> [27595] {7fb3ea347600} Ready file [332] [794]
2019-11-19T17:24:55.042924Z <DBUG> [27595] {7fb3ea347600} Input NMEA [69] [68]
INP [68] $GPGSV,3,2,09,20,66,049,,21,54,145,,24,34,083,17,27,36,271,25,6*69\r\n
2019-11-19T17:24:55.043115Z <DBUG> [27595] {7fb3ea347600} Ready file [264] [794]
2019-11-19T17:24:55.043139Z <DBUG> [27595] {7fb3ea347600} Input NMEA [34] [33]
INP [33] $GPGSV,3,3,09,32,46,220,37,6*5D\r\n
2019-11-19T17:24:55.043300Z <DBUG> [27595] {7fb3ea347600} Ready file [231] [794]
2019-11-19T17:24:55.043325Z <DBUG> [27595] {7fb3ea347600} Input NMEA [65] [64]
INP [64] $GLGSV,3,1,09,65,65,328,,66,20,255,,72,38,038,,73,11,039,,1*71\r\n
2019-11-19T17:24:55.043542Z <DBUG> [27595] {7fb3ea347600} Ready file [167] [794]
2019-11-19T17:24:55.043567Z <DBUG> [27595] {7fb3ea347600} Input NMEA [67] [66]
INP [66] $GLGSV,3,2,09,74,01,132,,75,09,044,,81,21,330,,87,51,188,23,1*78\r\n
2019-11-19T17:24:55.043858Z <DBUG> [27595] {7fb3ea347600} Ready file [101] [794]
2019-11-19T17:24:55.043880Z <DBUG> [27595] {7fb3ea347600} Input NMEA [32] [31]
INP [31] $GLGSV,3,3,09,88,64,294,,1*4C\r\n
2019-11-19T17:24:55.044011Z <DBUG> [27595] {7fb3ea347600} Ready file [70] [794]
2019-11-19T17:24:55.044037Z <DBUG> [27595] {7fb3ea347600} Input NMEA [71] [70]
INP [70] $GLGSV,3,1,09,65,65,328,,66,20,255,25,72,38,038,30,73,11,039,19,3*7F\r\n
2019-11-19T17:24:55.044306Z <DBUG> [27595] {7fb3ea347600} Ready device [589] [794]
2019-11-19T17:24:55.044339Z <DBUG> [27595] {7fb3ea347600} Input NMEA [69] [68]
INP [68] $GLGSV,3,2,09,74,01,132,,75,09,044,,81,21,330,28,87,51,188,36,3*74\r\n
2019-11-19T17:24:55.044540Z <DBUG> [27595] {7fb3ea347600} Ready file [521] [794]
2019-11-19T17:24:55.044564Z <DBUG> [27595] {7fb3ea347600} Input NMEA [32] [31]
INP [31] $GLGSV,3,3,09,88,64,294,,3*4E\r\n
2019-11-19T17:24:55.044699Z <DBUG> [27595] {7fb3ea347600} Ready file [490] [794]
2019-11-19T17:24:55.044725Z <DBUG> [27595] {7fb3ea347600} Input NMEA [71] [70]
INP [70] $GAGSV,2,1,06,03,29,240,18,05,81,281,09,09,41,050,12,15,22,318,,7*7B\r\n
2019-11-19T17:24:55.045048Z <DBUG> [27595] {7fb3ea347600} Ready file [420] [794]
2019-11-19T17:24:55.045071Z <DBUG> [27595] {7fb3ea347600} Input NMEA [45] [44]
INP [44] $GAGSV,2,2,06,31,02,077,,36,45,164,23,7*73\r\n
2019-11-19T17:24:55.045261Z <DBUG> [27595] {7fb3ea347600} Ready file [376] [794]
2019-11-19T17:24:55.045287Z <DBUG> [27595] {7fb3ea347600} Input NMEA [73] [72]
INP [72] $GAGSV,2,1,06,03,29,240,38,05,81,281,34,09,41,050,35,15,22,318,27,2*72\r\n
2019-11-19T17:24:55.045596Z <DBUG> [27595] {7fb3ea347600} Ready file [304] [794]
2019-11-19T17:24:55.045619Z <DBUG> [27595] {7fb3ea347600} Input NMEA [45] [44]
INP [44] $GAGSV,2,2,06,31,02,077,,36,45,164,38,2*7C\r\n
2019-11-19T17:24:55.045827Z <DBUG> [27595] {7fb3ea347600} Ready file [260] [794]
2019-11-19T17:24:55.045852Z <DBUG> [27595] {7fb3ea347600} Input NMEA [64] [63]
INP [63] $GBGSV,2,1,06,11,09,170,,14,59,042,,24,17,120,,26,18,071,,*4A\r\n
2019-11-19T17:24:55.046115Z <DBUG> [27595] {7fb3ea347600} Ready file [197] [794]
2019-11-19T17:24:55.046140Z <DBUG> [27595] {7fb3ea347600} Input NMEA [42] [41]
INP [41] $GBGSV,2,2,06,27,26,313,,28,54,250,,*4D\r\n
2019-11-19T17:24:55.046352Z <DBUG> [27595] {7fb3ea347600} Ready file [156] [794]
2019-11-19T17:24:55.046378Z <DBUG> [27595] {7fb3ea347600} Input NMEA [64] [63]
INP [63] $GBGSV,2,1,06,11,09,170,,14,59,042,,24,17,120,,26,18,071,,*4A\r\n
2019-11-19T17:24:55.046710Z <DBUG> [27595] {7fb3ea347600} Ready file [93] [794]
2019-11-19T17:24:55.046735Z <DBUG> [27595] {7fb3ea347600} Input NMEA [42] [41]
INP [41] $GBGSV,2,2,06,27,26,313,,28,54,250,,*4D\r\n
2019-11-19T17:24:55.046903Z <DBUG> [27595] {7fb3ea347600} Ready file [52] [794]
2019-11-19T17:24:55.046927Z <DBUG> [27595] {7fb3ea347600} Input NMEA [53] [52]
INP [52] $GNGLL,3947.65182,N,10509.20486,W,172455.00,A,A*61\r\n
2019-11-19T17:24:55.047202Z <DBUG> [27595] {7fb3ea347600} Ready empty [0] [794]
2019-11-19T17:24:56.035145Z <DBUG> [27595] {7fb3ea347600} Input UBX [45] [44]
INP [44] \xb5b\x01\x14$\0\0\0\0\0\x90\xa8\t\x0e\xc3\xdcR\xc1\xc9\x1c\xb8\x17D\xcf\x19\0@#\x1a\0\xfa!\xfe\xfe\x10\xd2\0\0\x80\x96\x01\0\xa73
0000000018d23590:          b5620114 24000000 000090a8 |    .b..$.......|
0000000018d235a0: 090ec3dc 52c1c91c b81744cf 19004023 |....R.....D...@#|
0000000018d235b0: 1a00fa21 fefe10d2 00008096 0100a733 |...!...........3|
2019-11-19T17:24:56.035900Z <DBUG> [27595] {7fb3ea347600} Ready device [526] [794]
2019-11-19T17:24:56.035945Z <DBUG> [27595] {7fb3ea347600} Input NMEA [71] [70]
INP [70] $GNRMC,172456.00,A,3947.65177,N,10509.20485,W,0.028,,191119,,,A,V*02\r\n
2019-11-19T17:24:56.036266Z <DBUG> [27595] {7fb3ea347600} Ready file [456] [794]
2019-11-19T17:24:56.036285Z <DBUG> [27595] {7fb3ea347600} Input NMEA [36] [35]
INP [35] $GNVTG,,T,,M,0.028,N,0.052,K,A*30\r\n
2019-11-19T17:24:56.036412Z <DBUG> [27595] {7fb3ea347600} Ready file [421] [794]
2019-11-19T17:24:56.036436Z <DBUG> [27595] {7fb3ea347600} Input NMEA [78] [77]
INP [77] $GNGGA,172456.00,3947.65177,N,10509.20485,W,1,12,0.84,1713.0,M,-21.5,M,,*4E\r\n
2019-11-19T17:24:56.036690Z <DBUG> [27595] {7fb3ea347600} Ready file [344] [794]
2019-11-19T17:24:56.036711Z <DBUG> [27595] {7fb3ea347600} Input NMEA [63] [62]
INP [62] $GNGSA,A,3,08,10,14,15,20,21,24,27,32,,,,1.50,0.84,1.25,1*04\r\n
2019-11-19T17:24:56.036930Z <DBUG> [27595] {7fb3ea347600} Ready file [282] [794]
2019-11-19T17:24:56.036955Z <DBUG> [27595] {7fb3ea347600} Input NMEA [47] [46]
INP [46] $GNGSA,A,3,87,,,,,,,,,,,,1.50,0.84,1.25,2*03\r\n
2019-11-19T17:24:56.037128Z <DBUG> [27595] {7fb3ea347600} Ready file [236] [794]
2019-11-19T17:24:56.037151Z <DBUG> [27595] {7fb3ea347600} Input NMEA [53] [52]
INP [52] $GNGSA,A,3,03,05,09,36,,,,,,,,,1.50,0.84,1.25,3*07\r\n
2019-11-19T17:24:56.037376Z <DBUG> [27595] {7fb3ea347600} Ready file [184] [794]
2019-11-19T17:24:56.037404Z <DBUG> [27595] {7fb3ea347600} Input NMEA [45] [44]
INP [44] $GNGSA,A,3,,,,,,,,,,,,,1.50,0.84,1.25,4*0A\r\n
2019-11-19T17:24:56.037668Z <DBUG> [27595] {7fb3ea347600} Ready file [140] [794]
2019-11-19T17:24:56.037702Z <DBUG> [27595] {7fb3ea347600} Input NMEA [69] [68]
INP [68] $GPGSV,3,1,09,08,21,308,,10,65,323,09,14,19,218,21,15,14,050,,1*67\r\n
2019-11-19T17:24:56.038040Z <DBUG> [27595] {7fb3ea347600} Ready file [72] [794]
2019-11-19T17:24:56.038071Z <DBUG> [27595] {7fb3ea347600} Input NMEA [73] [72]
INP [72] $GPGSV,3,2,09,20,66,049,12,21,54,145,26,24,34,083,11,27,36,271,11,1*68\r\n
2019-11-19T17:24:56.038354Z <DBUG> [27595] {7fb3ea347600} Ready device [804] [804]
2019-11-19T17:24:56.038391Z <DBUG> [27595] {7fb3ea347600} Input NMEA [34] [33]
INP [33] $GPGSV,3,3,09,32,46,220,25,1*59\r\n
2019-11-19T17:24:56.038519Z <DBUG> [27595] {7fb3ea347600} Ready file [771] [804]
2019-11-19T17:24:56.038538Z <WARN> [27595] {7fb3ea347600} Sync Lost 0x0000000000000ece 0x36 '6'
2019-11-19T17:24:56.038558Z <NOTE> [27595] {7fb3ea347600} Sync NMEA 0x0000000000000f17
2019-11-19T17:24:56.038569Z <DBUG> [27595] {7fb3ea347600} Input NMEA [69] [68]
INP [68] $GPGSV,3,2,09,20,66,049,,21,54,145,,24,34,083,16,27,36,271,26,6*6B\r\n
2019-11-19T17:24:56.038781Z <DBUG> [27595] {7fb3ea347600} Ready file [697] [804]
2019-11-19T17:24:56.038802Z <DBUG> [27595] {7fb3ea347600} Input NMEA [34] [33]
INP [33] $GPGSV,3,3,09,32,46,220,37,6*5D\r\n
2019-11-19T17:24:56.038922Z <DBUG> [27595] {7fb3ea347600} Ready file [664] [804]
2019-11-19T17:24:56.038944Z <DBUG> [27595] {7fb3ea347600} Input NMEA [65] [64]
INP [64] $GLGSV,3,1,09,65,65,328,,66,20,255,,72,38,038,,73,11,039,,1*71\r\n
2019-11-19T17:24:56.039155Z <DBUG> [27595] {7fb3ea347600} Ready file [600] [804]
2019-11-19T17:24:56.039180Z <DBUG> [27595] {7fb3ea347600} Input NMEA [67] [66]
INP [66] $GLGSV,3,2,09,74,01,132,,75,09,044,,81,22,329,,87,51,188,24,1*74\r\n
2019-11-19T17:24:56.039501Z <DBUG> [27595] {7fb3ea347600} Ready file [534] [804]
2019-11-19T17:24:56.039524Z <DBUG> [27595] {7fb3ea347600} Input NMEA [32] [31]
INP [31] $GLGSV,3,3,09,88,64,294,,1*4C\r\n
2019-11-19T17:24:56.039680Z <DBUG> [27595] {7fb3ea347600} Ready file [503] [804]
2019-11-19T17:24:56.039706Z <DBUG> [27595] {7fb3ea347600} Input NMEA [71] [70]
INP [70] $GLGSV,3,1,09,65,65,328,,66,20,255,25,72,38,038,30,73,11,039,19,3*7F\r\n
2019-11-19T17:24:56.040033Z <DBUG> [27595] {7fb3ea347600} Ready file [433] [804]
2019-11-19T17:24:56.040058Z <DBUG> [27595] {7fb3ea347600} Input NMEA [69] [68]
INP [68] $GLGSV,3,2,09,74,01,132,,75,09,044,,81,22,329,28,87,51,188,35,3*7C\r\n
2019-11-19T17:24:56.040314Z <DBUG> [27595] {7fb3ea347600} Ready file [365] [804]
2019-11-19T17:24:56.040334Z <DBUG> [27595] {7fb3ea347600} Input NMEA [32] [31]
INP [31] $GLGSV,3,3,09,88,64,294,,3*4E\r\n
2019-11-19T17:24:56.040450Z <DBUG> [27595] {7fb3ea347600} Ready file [334] [804]
2019-11-19T17:24:56.040473Z <DBUG> [27595] {7fb3ea347600} Input NMEA [71] [70]
INP [70] $GAGSV,2,1,06,03,29,240,19,05,81,281,11,09,41,050,12,15,22,318,,7*73\r\n
2019-11-19T17:24:56.040715Z <DBUG> [27595] {7fb3ea347600} Ready file [264] [804]
2019-11-19T17:24:56.040737Z <DBUG> [27595] {7fb3ea347600} Input NMEA [45] [44]
INP [44] $GAGSV,2,2,06,31,02,077,,36,45,164,23,7*73\r\n
2019-11-19T17:24:56.040906Z <DBUG> [27595] {7fb3ea347600} Ready file [220] [804]
2019-11-19T17:24:56.040925Z <DBUG> [27595] {7fb3ea347600} Input NMEA [73] [72]
INP [72] $GAGSV,2,1,06,03,29,240,38,05,81,281,34,09,41,050,35,15,22,318,27,2*72\r\n
2019-11-19T17:24:56.041178Z <DBUG> [27595] {7fb3ea347600} Ready file [148] [804]
2019-11-19T17:24:56.041195Z <DBUG> [27595] {7fb3ea347600} Input NMEA [45] [44]
INP [44] $GAGSV,2,2,06,31,02,077,,36,45,164,38,2*7C\r\n
2019-11-19T17:24:56.041357Z <DBUG> [27595] {7fb3ea347600} Ready file [104] [804]
2019-11-19T17:24:56.041376Z <DBUG> [27595] {7fb3ea347600} Input NMEA [42] [41]
INP [41] $GBGSV,2,2,06,27,26,313,,28,54,250,,*4D\r\n
2019-11-19T17:24:56.041539Z <DBUG> [27595] {7fb3ea347600} Ready file [63] [804]
2019-11-19T17:24:56.041561Z <DBUG> [27595] {7fb3ea347600} Input NMEA [64] [63]
INP [63] $GBGSV,2,1,06,11,09,170,,14,59,042,,24,17,120,,26,18,071,,*4A\r\n
2019-11-19T17:24:56.041787Z <DBUG> [27595] {7fb3ea347600} Ready device [93] [804]
2019-11-19T17:24:56.041814Z <DBUG> [27595] {7fb3ea347600} Input NMEA [42] [41]
INP [41] $GBGSV,2,2,06,27,26,313,,28,54,250,,*4D\r\n
2019-11-19T17:24:56.041974Z <DBUG> [27595] {7fb3ea347600} Ready file [52] [804]
2019-11-19T17:24:56.041996Z <DBUG> [27595] {7fb3ea347600} Input NMEA [53] [52]
INP [52] $GNGLL,3947.65177,N,10509.20485,W,172456.00,A,A*6B\r\n
2019-11-19T17:24:56.042183Z <DBUG> [27595] {7fb3ea347600} Ready empty [0] [804]
2019-11-19T17:24:57.045558Z <DBUG> [27595] {7fb3ea347600} Input UBX [45] [44]
INP [44] \xb5b\x01\x14$\0\0\0\0\0x\xac\t\x0e\xc7\xdcR\xc1\xc1\x1c\xb8\x17\x96\xce\x19\0\x92\"\x1a\0\x14\xec\x03\x02\xd4\xd1\0\0+\x95\x01\0\x8c\xce
0000000018d23590:          b5620114 24000000 000078ac |    .b..$.....x.|
0000000018d235a0: 090ec7dc 52c1c11c b81796ce 19009222 |....R.........."|
0000000018d235b0: 1a0014ec 0302d4d1 00002b95 01008cce |..........+.....|
2019-11-19T17:24:57.046839Z <DBUG> [27595] {7fb3ea347600} Ready device [559] [804]
2019-11-19T17:24:57.046905Z <DBUG> [27595] {7fb3ea347600} Input NMEA [71] [70]
INP [70] $GNRMC,172457.00,A,3947.65172,N,10509.20482,W,0.028,,191119,,,A,V*01\r\n
2019-11-19T17:24:57.047430Z <DBUG> [27595] {7fb3ea347600} Ready file [489] [804]
2019-11-19T17:24:57.047484Z <DBUG> [27595] {7fb3ea347600} Input NMEA [36] [35]
INP [35] $GNVTG,,T,,M,0.028,N,0.052,K,A*30\r\n
2019-11-19T17:24:57.047781Z <DBUG> [27595] {7fb3ea347600} Ready file [454] [804]
2019-11-19T17:24:57.047830Z <DBUG> [27595] {7fb3ea347600} Input NMEA [78] [77]
INP [77] $GNGGA,172457.00,3947.65172,N,10509.20482,W,1,12,0.79,1712.8,M,-21.5,M,,*46\r\n
2019-11-19T17:24:57.048358Z <DBUG> [27595] {7fb3ea347600} Ready file [377] [804]
2019-11-19T17:24:57.048401Z <DBUG> [27595] {7fb3ea347600} Input NMEA [63] [62]
INP [62] $GNGSA,A,3,08,10,14,15,20,21,24,27,32,,,,1.46,0.79,1.23,1*07\r\n
2019-11-19T17:24:57.048882Z <DBUG> [27595] {7fb3ea347600} Ready file [315] [804]
2019-11-19T17:24:57.048923Z <DBUG> [27595] {7fb3ea347600} Input NMEA [47] [46]
INP [46] $GNGSA,A,3,87,,,,,,,,,,,,1.46,0.79,1.23,2*00\r\n
2019-11-19T17:24:57.049242Z <DBUG> [27595] {7fb3ea347600} Ready file [269] [804]
2019-11-19T17:24:57.049291Z <DBUG> [27595] {7fb3ea347600} Input NMEA [53] [52]
INP [52] $GNGSA,A,3,03,05,09,36,,,,,,,,,1.46,0.79,1.23,3*04\r\n
2019-11-19T17:24:57.049728Z <DBUG> [27595] {7fb3ea347600} Ready file [217] [804]
2019-11-19T17:24:57.049773Z <DBUG> [27595] {7fb3ea347600} Input NMEA [45] [44]
INP [44] $GNGSA,A,3,,,,,,,,,,,,,1.46,0.79,1.23,4*09\r\n
2019-11-19T17:24:57.050049Z <DBUG> [27595] {7fb3ea347600} Ready file [173] [804]
2019-11-19T17:24:57.050093Z <DBUG> [27595] {7fb3ea347600} Input NMEA [69] [68]
INP [68] $GPGSV,3,1,09,08,21,308,,10,65,323,08,14,19,218,21,15,14,050,,1*66\r\n
2019-11-19T17:24:57.050484Z <DBUG> [27595] {7fb3ea347600} Ready file [105] [804]
2019-11-19T17:24:57.050525Z <DBUG> [27595] {7fb3ea347600} Input NMEA [73] [72]
INP [72] $GPGSV,3,2,09,20,66,049,12,21,54,145,25,24,34,083,11,27,36,271,11,1*6B\r\n
2019-11-19T17:24:57.050969Z <DBUG> [27595] {7fb3ea347600} Ready file [33] [804]
2019-11-19T17:24:57.051022Z <DBUG> [27595] {7fb3ea347600} Input NMEA [34] [33]
INP [33] $GPGSV,3,3,09,32,46,220,25,1*59\r\n
2019-11-19T17:24:57.051344Z <DBUG> [27595] {7fb3ea347600} Ready device [928] [928]
2019-11-19T17:24:57.051421Z <DBUG> [27595] {7fb3ea347600} Input NMEA [71] [70]
INP [70] $GPGSV,3,1,09,08,21,308,21,10,65,323,20,14,19,218,,15,14,050,20,6*69\r\n
2019-11-19T17:24:57.051977Z <DBUG> [27595] {7fb3ea347600} Ready file [858] [928]
2019-11-19T17:24:57.052036Z <DBUG> [27595] {7fb3ea347600} Input NMEA [69] [68]
INP [68] $GPGSV,3,2,09,20,66,049,,21,54,145,,24,34,083,16,27,36,271,26,6*6B\r\n
2019-11-19T17:24:57.052606Z <DBUG> [27595] {7fb3ea347600} Ready file [790] [928]
2019-11-19T17:24:57.052658Z <DBUG> [27595] {7fb3ea347600} Input NMEA [34] [33]
INP [33] $GPGSV,3,3,09,32,46,220,37,6*5D\r\n
2019-11-19T17:24:57.052972Z <DBUG> [27595] {7fb3ea347600} Ready file [757] [928]
2019-11-19T17:24:57.053031Z <DBUG> [27595] {7fb3ea347600} Input NMEA [65] [64]
INP [64] $GLGSV,3,1,09,65,65,328,,66,20,255,,72,38,038,,73,11,039,,1*71\r\n
2019-11-19T17:24:57.053538Z <DBUG> [27595] {7fb3ea347600} Ready file [693] [928]
2019-11-19T17:24:57.053555Z <DBUG> [27595] {7fb3ea347600} Input NMEA [67] [66]
INP [66] $GLGSV,3,2,09,74,01,132,,75,09,044,,81,22,329,,87,51,188,23,1*73\r\n
2019-11-19T17:24:57.053722Z <DBUG> [27595] {7fb3ea347600} Ready file [627] [928]
2019-11-19T17:24:57.053737Z <DBUG> [27595] {7fb3ea347600} Input NMEA [32] [31]
INP [31] $GLGSV,3,3,09,88,64,294,,1*4C\r\n
2019-11-19T17:24:57.053825Z <DBUG> [27595] {7fb3ea347600} Ready file [596] [928]
2019-11-19T17:24:57.053842Z <DBUG> [27595] {7fb3ea347600} Input NMEA [71] [70]
INP [70] $GLGSV,3,1,09,65,65,328,,66,20,255,25,72,38,038,30,73,11,039,19,3*7F\r\n
2019-11-19T17:24:57.054026Z <DBUG> [27595] {7fb3ea347600} Ready file [526] [928]
2019-11-19T17:24:57.054043Z <DBUG> [27595] {7fb3ea347600} Input NMEA [69] [68]
INP [68] $GLGSV,3,2,09,74,01,132,,75,09,044,,81,22,329,28,87,51,188,35,3*7C\r\n
2019-11-19T17:24:57.054208Z <DBUG> [27595] {7fb3ea347600} Ready file [458] [928]
2019-11-19T17:24:57.054223Z <DBUG> [27595] {7fb3ea347600} Input NMEA [32] [31]
INP [31] $GLGSV,3,3,09,88,64,294,,3*4E\r\n
2019-11-19T17:24:57.054304Z <DBUG> [27595] {7fb3ea347600} Ready file [427] [928]
2019-11-19T17:24:57.054321Z <DBUG> [27595] {7fb3ea347600} Input NMEA [71] [70]
INP [70] $GAGSV,2,1,06,03,29,240,18,05,81,281,11,09,41,050,09,15,22,318,,7*78\r\n
2019-11-19T17:24:57.054499Z <DBUG> [27595] {7fb3ea347600} Ready file [357] [928]
2019-11-19T17:24:57.054515Z <DBUG> [27595] {7fb3ea347600} Input NMEA [45] [44]
INP [44] $GAGSV,2,2,06,31,02,077,,36,45,164,22,7*72\r\n
2019-11-19T17:24:57.054636Z <DBUG> [27595] {7fb3ea347600} Ready file [313] [928]
2019-11-19T17:24:57.054651Z <DBUG> [27595] {7fb3ea347600} Input NMEA [73] [72]
INP [72] $GAGSV,2,1,06,03,29,240,38,05,81,281,34,09,41,050,35,15,22,318,27,2*72\r\n
2019-11-19T17:24:57.054842Z <DBUG> [27595] {7fb3ea347600} Ready file [241] [928]
2019-11-19T17:24:57.054858Z <DBUG> [27595] {7fb3ea347600} Input NMEA [45] [44]
INP [44] $GAGSV,2,2,06,31,02,077,,36,45,164,38,2*7C\r\n
2019-11-19T17:24:57.054968Z <DBUG> [27595] {7fb3ea347600} Ready file [197] [928]
2019-11-19T17:24:57.054985Z <DBUG> [27595] {7fb3ea347600} Input NMEA [64] [63]
INP [63] $GBGSV,2,1,06,11,09,170,,14,59,042,,24,17,120,,26,18,071,,*4A\r\n
2019-11-19T17:24:57.055152Z <DBUG> [27595] {7fb3ea347600} Ready file [134] [928]
2019-11-19T17:24:57.055167Z <DBUG> [27595] {7fb3ea347600} Input NMEA [42] [41]
INP [41] $GBGSV,2,2,06,27,26,313,,28,54,250,,*4D\r\n
2019-11-19T17:24:57.055290Z <DBUG> [27595] {7fb3ea347600} Ready file [93] [928]
2019-11-19T17:24:57.055304Z <DBUG> [27595] {7fb3ea347600} Input NMEA [42] [41]
INP [41] $GBGSV,2,2,06,27,26,313,,28,54,250,,*4D\r\n
2019-11-19T17:24:57.055406Z <DBUG> [27595] {7fb3ea347600} Ready file [52] [928]
2019-11-19T17:24:57.055421Z <DBUG> [27595] {7fb3ea347600} Input NMEA [53] [52]
INP [52] $GNGLL,3947.65172,N,10509.20482,W,172457.00,A,A*68\r\n
2019-11-19T17:24:57.055551Z <DBUG> [27595] {7fb3ea347600} Ready empty [0] [928]
2019-11-19T17:24:58.035768Z <DBUG> [27595] {7fb3ea347600} Input UBX [45] [44]
INP [44] \xb5b\x01\x14$\0\0\0\0\0`\xb0\t\x0e\xc7\xdcR\xc1\xb7\x1c\xb8\x17h\xce\x19\0d\"\x1a\00\xd4\x03\x03\x80\xd1\0\0\xea\x93\x01\0\x80\x89
0000000018d23590:          b5620114 24000000 000060b0 |    .b..$.....`.|
0000000018d235a0: 090ec7dc 52c1b71c b81768ce 19006422 |....R.....h...d"|
0000000018d235b0: 1a0030d4 030380d1 0000ea93 01008089 |..0.............|
2019-11-19T17:24:58.036410Z <DBUG> [27595] {7fb3ea347600} Ready device [342] [928]
2019-11-19T17:24:58.036452Z <DBUG> [27595] {7fb3ea347600} Input NMEA [71] [70]
INP [70] $GNRMC,172458.00,A,3947.65166,N,10509.20482,W,0.065,,191119,,,A,V*02\r\n
2019-11-19T17:24:58.036768Z <DBUG> [27595] {7fb3ea347600} Ready file [316] [928]
2019-11-19T17:24:58.036795Z <DBUG> [27595] {7fb3ea347600} Input NMEA [36] [35]
INP [35] $GNVTG,,T,,M,0.065,N,0.121,K,A*3C\r\n
2019-11-19T17:24:58.036941Z <DBUG> [27595] {7fb3ea347600} Ready file [281] [928]
2019-11-19T17:24:58.036969Z <DBUG> [27595] {7fb3ea347600} Input NMEA [78] [77]
INP [77] $GNGGA,172458.00,3947.65166,N,10509.20482,W,1,12,0.79,1712.7,M,-21.5,M,,*43\r\n
2019-11-19T17:24:58.037256Z <DBUG> [27595] {7fb3ea347600} Ready file [204] [928]
2019-11-19T17:24:58.037284Z <DBUG> [27595] {7fb3ea347600} Input NMEA [63] [62]
INP [62] $GNGSA,A,3,08,10,14,15,20,21,24,27,32,,,,1.46,0.79,1.23,1*07\r\n
2019-11-19T17:24:58.037590Z <DBUG> [27595] {7fb3ea347600} Ready file [142] [928]
2019-11-19T17:24:58.037616Z <DBUG> [27595] {7fb3ea347600} Input NMEA [47] [46]
INP [46] $GNGSA,A,3,87,,,,,,,,,,,,1.46,0.79,1.23,2*00\r\n
2019-11-19T17:24:58.037845Z <DBUG> [27595] {7fb3ea347600} Ready file [96] [928]
2019-11-19T17:24:58.037870Z <DBUG> [27595] {7fb3ea347600} Input NMEA [53] [52]
INP [52] $GNGSA,A,3,03,05,09,36,,,,,,,,,1.46,0.79,1.23,3*04\r\n
2019-11-19T17:24:58.038054Z <DBUG> [27595] {7fb3ea347600} Ready file [44] [928]
2019-11-19T17:24:58.038082Z <DBUG> [27595] {7fb3ea347600} Input NMEA [45] [44]
INP [44] $GNGSA,A,3,,,,,,,,,,,,,1.46,0.79,1.23,4*09\r\n
2019-11-19T17:24:58.038237Z <DBUG> [27595] {7fb3ea347600} Ready device [575] [928]
2019-11-19T17:24:58.038276Z <DBUG> [27595] {7fb3ea347600} Input NMEA [69] [68]
INP [68] $GPGSV,3,1,09,08,21,308,,10,65,323,09,14,19,218,21,15,14,050,,1*67\r\n
2019-11-19T17:24:58.038503Z <DBUG> [27595] {7fb3ea347600} Ready file [575] [928]
2019-11-19T17:24:58.038527Z <DBUG> [27595] {7fb3ea347600} Input NMEA [73] [72]
INP [72] $GPGSV,3,2,09,20,66,049,12,21,54,145,25,24,34,083,11,27,36,271,11,1*6B\r\n
2019-11-19T17:24:58.038755Z <DBUG> [27595] {7fb3ea347600} Ready file [503] [928]
2019-11-19T17:24:58.038777Z <DBUG> [27595] {7fb3ea347600} Input NMEA [34] [33]
INP [33] $GPGSV,3,3,09,32,46,220,25,1*59\r\n
2019-11-19T17:24:58.038893Z <DBUG> [27595] {7fb3ea347600} Ready file [470] [928]
2019-11-19T17:24:58.038924Z <DBUG> [27595] {7fb3ea347600} Input NMEA [71] [70]
INP [70] $GPGSV,3,1,09,08,21,308,22,10,65,323,20,14,19,218,,15,14,050,19,6*60\r\n
2019-11-19T17:24:58.039160Z <DBUG> [27595] {7fb3ea347600} Ready file [400] [928]
2019-11-19T17:24:58.039187Z <DBUG> [27595] {7fb3ea347600} Input NMEA [69] [68]
INP [68] $GPGSV,3,2,09,20,66,049,,21,54,145,,24,34,083,18,27,36,271,26,6*65\r\n
2019-11-19T17:24:58.039406Z <DBUG> [27595] {7fb3ea347600} Ready file [332] [928]
2019-11-19T17:24:58.039427Z <DBUG> [27595] {7fb3ea347600} Input NMEA [34] [33]
INP [33] $GPGSV,3,3,09,32,46,220,37,6*5D\r\n
2019-11-19T17:24:58.039552Z <DBUG> [27595] {7fb3ea347600} Ready file [299] [928]
2019-11-19T17:24:58.039576Z <DBUG> [27595] {7fb3ea347600} Input NMEA [65] [64]
INP [64] $GLGSV,3,1,09,65,65,328,,66,20,255,,72,38,038,,73,11,039,,1*71\r\n
2019-11-19T17:24:58.039778Z <DBUG> [27595] {7fb3ea347600} Ready file [235] [928]
2019-11-19T17:24:58.039799Z <DBUG> [27595] {7fb3ea347600} Input NMEA [67] [66]
INP [66] $GLGSV,3,2,09,74,01,132,,75,09,044,,81,22,329,,87,51,188,23,1*73\r\n
2019-11-19T17:24:58.039997Z <DBUG> [27595] {7fb3ea347600} Ready file [169] [928]
2019-11-19T17:24:58.040017Z <DBUG> [27595] {7fb3ea347600} Input NMEA [32] [31]
INP [31] $GLGSV,3,3,09,88,64,294,,1*4C\r\n
2019-11-19T17:24:58.040121Z <DBUG> [27595] {7fb3ea347600} Ready file [138] [928]
2019-11-19T17:24:58.040141Z <DBUG> [27595] {7fb3ea347600} Input NMEA [71] [70]
INP [70] $GLGSV,3,1,09,65,65,328,,66,20,255,26,72,38,038,30,73,11,039,20,3*76\r\n
2019-11-19T17:24:58.040325Z <DBUG> [27595] {7fb3ea347600} Ready file [68] [928]
2019-11-19T17:24:58.040345Z <DBUG> [27595] {7fb3ea347600} Input NMEA [69] [68]
INP [68] $GLGSV,3,2,09,74,01,132,,75,09,044,,81,22,329,28,87,51,188,35,3*7C\r\n
2019-11-19T17:24:58.040540Z <DBUG> [27595] {7fb3ea347600} Ready device [521] [928]
2019-11-19T17:24:58.040565Z <DBUG> [27595] {7fb3ea347600} Input NMEA [32] [31]
INP [31] $GLGSV,3,3,09,88,64,294,,3*4E\r\n
2019-11-19T17:24:58.040663Z <DBUG> [27595] {7fb3ea347600} Ready file [490] [928]
2019-11-19T17:24:58.040686Z <DBUG> [27595] {7fb3ea347600} Input NMEA [71] [70]
INP [70] $GAGSV,2,1,06,03,29,240,19,05,81,281,10,09,41,050,14,15,22,318,,7*74\r\n
2019-11-19T17:24:58.040879Z <DBUG> [27595] {7fb3ea347600} Ready file [420] [928]
2019-11-19T17:24:58.040898Z <DBUG> [27595] {7fb3ea347600} Input NMEA [45] [44]
INP [44] $GAGSV,2,2,06,31,02,077,,36,45,164,23,7*73\r\n
2019-11-19T17:24:58.041030Z <DBUG> [27595] {7fb3ea347600} Ready file [376] [928]
2019-11-19T17:24:58.041050Z <DBUG> [27595] {7fb3ea347600} Input NMEA [73] [72]
INP [72] $GAGSV,2,1,06,03,29,240,39,05,81,281,35,09,41,050,36,15,22,318,27,2*71\r\n
2019-11-19T17:24:58.041249Z <DBUG> [27595] {7fb3ea347600} Ready file [304] [928]
2019-11-19T17:24:58.041269Z <DBUG> [27595] {7fb3ea347600} Input NMEA [45] [44]
INP [44] $GAGSV,2,2,06,31,02,077,,36,45,164,39,2*7D\r\n
2019-11-19T17:24:58.041395Z <DBUG> [27595] {7fb3ea347600} Ready file [260] [928]
2019-11-19T17:24:58.041415Z <DBUG> [27595] {7fb3ea347600} Input NMEA [64] [63]
INP [63] $GBGSV,2,1,06,11,09,170,,14,59,042,,24,17,120,,26,18,071,,*4A\r\n
2019-11-19T17:24:58.041600Z <DBUG> [27595] {7fb3ea347600} Ready file [197] [928]
2019-11-19T17:24:58.041621Z <DBUG> [27595] {7fb3ea347600} Input NMEA [42] [41]
INP [41] $GBGSV,2,2,06,27,26,313,,28,54,250,,*4D\r\n
2019-11-19T17:24:58.041742Z <DBUG> [27595] {7fb3ea347600} Ready file [156] [928]
2019-11-19T17:24:58.041762Z <DBUG> [27595] {7fb3ea347600} Input NMEA [64] [63]
INP [63] $GBGSV,2,1,06,11,09,170,,14,59,042,,24,17,120,,26,18,071,,*4A\r\n
2019-11-19T17:24:58.041944Z <DBUG> [27595] {7fb3ea347600} Ready file [93] [928]
2019-11-19T17:24:58.041965Z <DBUG> [27595] {7fb3ea347600} Input NMEA [42] [41]
INP [41] $GBGSV,2,2,06,27,26,313,,28,54,250,,*4D\r\n
2019-11-19T17:24:58.042092Z <DBUG> [27595] {7fb3ea347600} Ready file [52] [928]
2019-11-19T17:24:58.042111Z <DBUG> [27595] {7fb3ea347600} Input NMEA [53] [52]
INP [52] $GNGLL,3947.65166,N,10509.20482,W,172458.00,A,A*62\r\n
2019-11-19T17:24:58.042275Z <DBUG> [27595] {7fb3ea347600} Ready empty [0] [928]
2019-11-19T17:24:59.043770Z <DBUG> [27595] {7fb3ea347600} Input UBX [45] [44]
INP [44] \xb5b\x01\x14$\0\0\0\0\0H\xb4\t\x0e\xc9\xdcR\xc1\xae\x1c\xb8\x17B\xce\x19\0>\"\x1a\0\xee\xf0\xfc\xfb#\xd1\0\0\xb5\x92\x01\0Q\xdc
0000000018d23590:          b5620114 24000000 000048b4 |    .b..$.....H.|
0000000018d235a0: 090ec9dc 52c1ae1c b81742ce 19003e22 |....R.....B...>"|
0000000018d235b0: 1a00eef0 fcfb23d1 0000b592 010051dc |......#.......Q.|
2019-11-19T17:24:59.044988Z <DBUG> [27595] {7fb3ea347600} Ready device [559] [928]
2019-11-19T17:24:59.045085Z <DBUG> [27595] {7fb3ea347600} Input NMEA [71] [70]
INP [70] $GNRMC,172459.00,A,3947.65160,N,10509.20481,W,0.046,,191119,,,A,V*07\r\n
2019-11-19T17:24:59.045769Z <DBUG> [27595] {7fb3ea347600} Ready file [559] [928]
2019-11-19T17:24:59.045828Z <DBUG> [27595] {7fb3ea347600} Input NMEA [36] [35]
INP [35] $GNVTG,,T,,M,0.046,N,0.085,K,A*32\r\n
2019-11-19T17:24:59.046082Z <DBUG> [27595] {7fb3ea347600} Ready file [524] [928]
2019-11-19T17:24:59.046165Z <DBUG> [27595] {7fb3ea347600} Input NMEA [78] [77]
INP [77] $GNGGA,172459.00,3947.65160,N,10509.20481,W,1,12,0.79,1712.7,M,-21.5,M,,*47\r\n
2019-11-19T17:24:59.047027Z <DBUG> [27595] {7fb3ea347600} Ready file [447] [928]
2019-11-19T17:24:59.047102Z <DBUG> [27595] {7fb3ea347600} Input NMEA [63] [62]
INP [62] $GNGSA,A,3,08,10,14,15,20,21,24,27,32,,,,1.46,0.79,1.23,1*07\r\n
2019-11-19T17:24:59.047818Z <DBUG> [27595] {7fb3ea347600} Ready file [385] [928]
2019-11-19T17:24:59.047888Z <DBUG> [27595] {7fb3ea347600} Input NMEA [47] [46]
INP [46] $GNGSA,A,3,87,,,,,,,,,,,,1.46,0.79,1.23,2*00\r\n
2019-11-19T17:24:59.048376Z <DBUG> [27595] {7fb3ea347600} Ready file [339] [928]
2019-11-19T17:24:59.048462Z <DBUG> [27595] {7fb3ea347600} Input NMEA [53] [52]
INP [52] $GNGSA,A,3,03,05,09,36,,,,,,,,,1.46,0.79,1.23,3*04\r\n
2019-11-19T17:24:59.048820Z <DBUG> [27595] {7fb3ea347600} Ready file [287] [928]
2019-11-19T17:24:59.048857Z <DBUG> [27595] {7fb3ea347600} Input NMEA [45] [44]
INP [44] $GNGSA,A,3,,,,,,,,,,,,,1.46,0.79,1.23,4*09\r\n
2019-11-19T17:24:59.049166Z <DBUG> [27595] {7fb3ea347600} Ready file [243] [928]
2019-11-19T17:24:59.049217Z <DBUG> [27595] {7fb3ea347600} Input NMEA [69] [68]
INP [68] $GPGSV,3,1,09,08,21,308,,10,65,323,10,14,19,218,21,15,14,050,,1*6F\r\n
2019-11-19T17:24:59.050038Z <DBUG> [27595] {7fb3ea347600} Ready file [175] [928]
2019-11-19T17:24:59.050083Z <DBUG> [27595] {7fb3ea347600} Input NMEA [73] [72]
INP [72] $GPGSV,3,2,09,20,66,049,12,21,54,145,25,24,34,083,11,27,36,271,11,1*6B\r\n
2019-11-19T17:24:59.050900Z <DBUG> [27595] {7fb3ea347600} Ready file [103] [928]
2019-11-19T17:24:59.051003Z <DBUG> [27595] {7fb3ea347600} Input NMEA [34] [33]
INP [33] $GPGSV,3,3,09,32,46,220,25,1*59\r\n
2019-11-19T17:24:59.051429Z <DBUG> [27595] {7fb3ea347600} Ready file [70] [928]
2019-11-19T17:24:59.051522Z <DBUG> [27595] {7fb3ea347600} Input NMEA [71] [70]
INP [70] $GPGSV,3,1,09,08,21,308,21,10,65,323,20,14,19,218,,15,14,050,19,6*63\r\n
2019-11-19T17:24:59.052300Z <DBUG> [27595] {7fb3ea347600} Ready device [858] [928]
2019-11-19T17:24:59.052412Z <DBUG> [27595] {7fb3ea347600} Input NMEA [69] [68]
INP [68] $GPGSV,3,2,09,20,66,049,,21,54,145,,24,34,083,19,27,36,271,26,6*64\r\n
2019-11-19T17:24:59.053172Z <DBUG> [27595] {7fb3ea347600} Ready file [790] [928]
2019-11-19T17:24:59.053234Z <DBUG> [27595] {7fb3ea347600} Input NMEA [34] [33]
INP [33] $GPGSV,3,3,09,32,46,220,37,6*5D\r\n
2019-11-19T17:24:59.053442Z <DBUG> [27595] {7fb3ea347600} Ready file [757] [928]
2019-11-19T17:24:59.053459Z <DBUG> [27595] {7fb3ea347600} Input NMEA [65] [64]
INP [64] $GLGSV,3,1,09,65,65,328,,66,20,255,,72,38,038,,73,11,039,,1*71\r\n
2019-11-19T17:24:59.053674Z <DBUG> [27595] {7fb3ea347600} Ready file [693] [928]
2019-11-19T17:24:59.053698Z <DBUG> [27595] {7fb3ea347600} Input NMEA [67] [66]
INP [66] $GLGSV,3,2,09,74,01,132,,75,09,044,,81,22,329,,87,51,188,22,1*72\r\n
2019-11-19T17:24:59.053861Z <DBUG> [27595] {7fb3ea347600} Ready file [627] [928]
2019-11-19T17:24:59.053874Z <DBUG> [27595] {7fb3ea347600} Input NMEA [32] [31]
INP [31] $GLGSV,3,3,09,88,64,294,,1*4C\r\n
2019-11-19T17:24:59.053953Z <DBUG> [27595] {7fb3ea347600} Ready file [596] [928]
2019-11-19T17:24:59.053966Z <DBUG> [27595] {7fb3ea347600} Input NMEA [71] [70]
INP [70] $GLGSV,3,1,09,65,65,328,,66,20,255,26,72,38,038,30,73,11,039,20,3*76\r\n
2019-11-19T17:24:59.054120Z <DBUG> [27595] {7fb3ea347600} Ready file [526] [928]
2019-11-19T17:24:59.054133Z <DBUG> [27595] {7fb3ea347600} Input NMEA [69] [68]
INP [68] $GLGSV,3,2,09,74,01,132,,75,09,044,,81,22,329,28,87,51,188,35,3*7C\r\n
2019-11-19T17:24:59.054302Z <DBUG> [27595] {7fb3ea347600} Ready file [458] [928]
2019-11-19T17:24:59.054313Z <DBUG> [27595] {7fb3ea347600} Input NMEA [32] [31]
INP [31] $GLGSV,3,3,09,88,64,294,,3*4E\r\n
2019-11-19T17:24:59.054409Z <DBUG> [27595] {7fb3ea347600} Ready file [427] [928]
2019-11-19T17:24:59.054423Z <DBUG> [27595] {7fb3ea347600} Input NMEA [71] [70]
INP [70] $GAGSV,2,1,06,03,29,240,19,05,81,281,11,09,41,050,16,15,22,318,,7*77\r\n
2019-11-19T17:24:59.054638Z <DBUG> [27595] {7fb3ea347600} Ready file [357] [928]
2019-11-19T17:24:59.054657Z <DBUG> [27595] {7fb3ea347600} Input NMEA [45] [44]
INP [44] $GAGSV,2,2,06,31,02,077,,36,45,164,23,7*73\r\n
2019-11-19T17:24:59.054796Z <DBUG> [27595] {7fb3ea347600} Ready file [313] [928]
2019-11-19T17:24:59.054817Z <DBUG> [27595] {7fb3ea347600} Input NMEA [73] [72]
INP [72] $GAGSV,2,1,06,03,29,240,39,05,81,281,35,09,41,050,36,15,22,318,27,2*71\r\n
2019-11-19T17:24:59.055018Z <DBUG> [27595] {7fb3ea347600} Ready file [241] [928]
2019-11-19T17:24:59.055031Z <DBUG> [27595] {7fb3ea347600} Input NMEA [45] [44]
INP [44] $GAGSV,2,2,06,31,02,077,,36,45,164,39,2*7D\r\n
2019-11-19T17:24:59.055170Z <DBUG> [27595] {7fb3ea347600} Ready file [197] [928]
2019-11-19T17:24:59.055186Z <DBUG> [27595] {7fb3ea347600} Input NMEA [64] [63]
INP [63] $GBGSV,2,1,06,11,09,170,,14,59,042,,24,17,120,,26,18,071,,*4A\r\n
2019-11-19T17:24:59.055374Z <DBUG> [27595] {7fb3ea347600} Ready file [134] [928]
2019-11-19T17:24:59.055389Z <DBUG> [27595] {7fb3ea347600} Input NMEA [42] [41]
INP [41] $GBGSV,2,2,06,27,26,313,,28,54,250,,*4D\r\n
2019-11-19T17:24:59.055525Z <DBUG> [27595] {7fb3ea347600} Ready file [93] [928]
2019-11-19T17:24:59.055540Z <DBUG> [27595] {7fb3ea347600} Input NMEA [42] [41]
INP [41] $GBGSV,2,2,06,27,26,313,,28,54,250,,*4D\r\n
2019-11-19T17:24:59.055682Z <DBUG> [27595] {7fb3ea347600} Ready file [52] [928]
2019-11-19T17:24:59.055697Z <DBUG> [27595] {7fb3ea347600} Input NMEA [53] [52]
INP [52] $GNGLL,3947.65160,N,10509.20481,W,172459.00,A,A*66\r\n
2019-11-19T17:24:59.055871Z <DBUG> [27595] {7fb3ea347600} Ready empty [0] [928]
2019-11-19T17:25:00.034615Z <DBUG> [27595] {7fb3ea347600} Input UBX [45] [44]
INP [44] \xb5b\x01\x14$\0\0\0\0\00\xb8\t\x0e\xd0\xdcR\xc1\xa4\x1c\xb8\x17\xa9\xcd\x19\0\xa5!\x1a\0\xd62\xfe\xfd\x96\xd0\0\0\x17\x91\x01\0\ax
0000000018d23590:          b5620114 24000000 000030b8 |    .b..$.....0.|
0000000018d235a0: 090ed0dc 52c1a41c b817a9cd 1900a521 |....R..........!|
0000000018d235b0: 1a00d632 fefd96d0 00001791 01000778 |...2...........x|
2019-11-19T17:25:00.035483Z <DBUG> [27595] {7fb3ea347600} Ready device [386] [928]
2019-11-19T17:25:00.035533Z <DBUG> [27595] {7fb3ea347600} Input NMEA [71] [70]
INP [70] $GNRMC,172500.00,A,3947.65155,N,10509.20477,W,0.017,,191119,,,A,V*01\r\n
2019-11-19T17:25:00.035857Z <DBUG> [27595] {7fb3ea347600} Ready file [384] [928]
2019-11-19T17:25:00.035876Z <DBUG> [27595] {7fb3ea347600} Input NMEA [36] [35]
INP [35] $GNVTG,,T,,M,0.017,N,0.032,K,A*3A\r\n
2019-11-19T17:25:00.036116Z <DBUG> [27595] {7fb3ea347600} Ready file [349] [928]
2019-11-19T17:25:00.036169Z <DBUG> [27595] {7fb3ea347600} Input NMEA [78] [77]
INP [77] $GNGGA,172500.00,3947.65155,N,10509.20477,W,1,12,0.79,1712.5,M,-21.5,M,,*47\r\n
2019-11-19T17:25:00.036683Z <DBUG> [27595] {7fb3ea347600} Ready file [272] [928]
2019-11-19T17:25:00.036745Z <DBUG> [27595] {7fb3ea347600} Input NMEA [63] [62]
INP [62] $GNGSA,A,3,08,10,14,15,20,21,24,27,32,,,,1.46,0.79,1.23,1*07\r\n
2019-11-19T17:25:00.037190Z <DBUG> [27595] {7fb3ea347600} Ready file [210] [928]
2019-11-19T17:25:00.037230Z <DBUG> [27595] {7fb3ea347600} Input NMEA [47] [46]
INP [46] $GNGSA,A,3,87,,,,,,,,,,,,1.46,0.79,1.23,2*00\r\n
2019-11-19T17:25:00.037600Z <DBUG> [27595] {7fb3ea347600} Ready file [164] [928]
2019-11-19T17:25:00.037655Z <DBUG> [27595] {7fb3ea347600} Input NMEA [53] [52]
INP [52] $GNGSA,A,3,03,05,09,36,,,,,,,,,1.46,0.79,1.23,3*04\r\n
2019-11-19T17:25:00.038041Z <DBUG> [27595] {7fb3ea347600} Ready file [112] [928]
2019-11-19T17:25:00.038107Z <DBUG> [27595] {7fb3ea347600} Input NMEA [45] [44]
INP [44] $GNGSA,A,3,,,,,,,,,,,,,1.46,0.79,1.23,4*09\r\n
2019-11-19T17:25:00.038431Z <DBUG> [27595] {7fb3ea347600} Ready file [68] [928]
2019-11-19T17:25:00.038467Z <DBUG> [27595] {7fb3ea347600} Input NMEA [69] [68]
INP [68] $GPGSV,3,1,09,08,21,308,,10,65,323,10,14,19,218,21,15,14,050,,1*6F\r\n
2019-11-19T17:25:00.038940Z <DBUG> [27595] {7fb3ea347600} Ready device [1031] [1031]
2019-11-19T17:25:00.039008Z <DBUG> [27595] {7fb3ea347600} Input NMEA [71] [70]
INP [70] $GPGSV,3,2,09,20,66,049,12,21,54,145,26,24,34,083,11,27,36,271,,1*68\r\n
2019-11-19T17:25:00.039457Z <DBUG> [27595] {7fb3ea347600} Ready file [961] [1031]
2019-11-19T17:25:00.039510Z <DBUG> [27595] {7fb3ea347600} Input NMEA [34] [33]
INP [33] $GPGSV,3,3,09,32,46,220,24,1*58\r\n
2019-11-19T17:25:00.039769Z <DBUG> [27595] {7fb3ea347600} Ready file [928] [1031]
2019-11-19T17:25:00.039821Z <DBUG> [27595] {7fb3ea347600} Input NMEA [71] [70]
INP [70] $GPGSV,3,1,09,08,21,308,22,10,65,323,21,14,19,218,,15,14,050,20,6*6B\r\n
2019-11-19T17:25:00.040062Z <DBUG> [27595] {7fb3ea347600} Ready file [858] [1031]
2019-11-19T17:25:00.040075Z <DBUG> [27595] {7fb3ea347600} Input NMEA [69] [68]
INP [68] $GPGSV,3,2,09,20,66,049,,21,54,145,,24,34,083,19,27,36,271,26,6*64\r\n
2019-11-19T17:25:00.040206Z <DBUG> [27595] {7fb3ea347600} Ready file [790] [1031]
2019-11-19T17:25:00.040217Z <DBUG> [27595] {7fb3ea347600} Input NMEA [34] [33]
INP [33] $GPGSV,3,3,09,32,46,220,38,6*52\r\n
2019-11-19T17:25:00.040289Z <DBUG> [27595] {7fb3ea347600} Ready file [757] [1031]
2019-11-19T17:25:00.040306Z <DBUG> [27595] {7fb3ea347600} Input NMEA [65] [64]
INP [64] $GLGSV,3,1,09,65,65,328,,66,20,255,,72,38,038,,73,11,039,,1*71\r\n
2019-11-19T17:25:00.040436Z <DBUG> [27595] {7fb3ea347600} Ready file [693] [1031]
2019-11-19T17:25:00.040450Z <DBUG> [27595] {7fb3ea347600} Input NMEA [67] [66]
INP [66] $GLGSV,3,2,09,74,01,132,,75,09,044,,81,22,329,,87,51,188,23,1*73\r\n
2019-11-19T17:25:00.040583Z <DBUG> [27595] {7fb3ea347600} Ready file [627] [1031]
2019-11-19T17:25:00.040595Z <DBUG> [27595] {7fb3ea347600} Input NMEA [32] [31]
INP [31] $GLGSV,3,3,09,88,64,294,,1*4C\r\n
2019-11-19T17:25:00.040671Z <DBUG> [27595] {7fb3ea347600} Ready file [596] [1031]
2019-11-19T17:25:00.040684Z <DBUG> [27595] {7fb3ea347600} Input NMEA [71] [70]
INP [70] $GLGSV,3,1,09,65,65,328,,66,20,255,26,72,38,038,30,73,11,039,20,3*76\r\n
2019-11-19T17:25:00.040825Z <DBUG> [27595] {7fb3ea347600} Ready file [526] [1031]
2019-11-19T17:25:00.040837Z <DBUG> [27595] {7fb3ea347600} Input NMEA [69] [68]
INP [68] $GLGSV,3,2,09,74,01,132,,75,09,044,,81,22,329,28,87,51,188,35,3*7C\r\n
2019-11-19T17:25:00.040975Z <DBUG> [27595] {7fb3ea347600} Ready file [458] [1031]
2019-11-19T17:25:00.040987Z <DBUG> [27595] {7fb3ea347600} Input NMEA [32] [31]
INP [31] $GLGSV,3,3,09,88,64,294,,3*4E\r\n
2019-11-19T17:25:00.041056Z <DBUG> [27595] {7fb3ea347600} Ready file [427] [1031]
2019-11-19T17:25:00.041081Z <DBUG> [27595] {7fb3ea347600} Input NMEA [71] [70]
INP [70] $GAGSV,2,1,06,03,29,240,19,05,81,281,11,09,41,050,11,15,22,318,,7*70\r\n
2019-11-19T17:25:00.041207Z <DBUG> [27595] {7fb3ea347600} Ready file [357] [1031]
2019-11-19T17:25:00.041224Z <DBUG> [27595] {7fb3ea347600} Input NMEA [45] [44]
INP [44] $GAGSV,2,2,06,31,02,077,,36,45,164,23,7*73\r\n
2019-11-19T17:25:00.041307Z <DBUG> [27595] {7fb3ea347600} Ready file [313] [1031]
2019-11-19T17:25:00.041327Z <DBUG> [27595] {7fb3ea347600} Input NMEA [73] [72]
INP [72] $GAGSV,2,1,06,03,29,240,39,05,81,281,35,09,41,050,36,15,22,318,27,2*71\r\n
2019-11-19T17:25:00.041457Z <DBUG> [27595] {7fb3ea347600} Ready file [241] [1031]
2019-11-19T17:25:00.041475Z <DBUG> [27595] {7fb3ea347600} Input NMEA [45] [44]
INP [44] $GAGSV,2,2,06,31,02,077,,36,45,164,39,2*7D\r\n
2019-11-19T17:25:00.041554Z <DBUG> [27595] {7fb3ea347600} Ready file [197] [1031]
2019-11-19T17:25:00.041565Z <DBUG> [27595] {7fb3ea347600} Input NMEA [64] [63]
INP [63] $GBGSV,2,1,06,11,09,170,,14,59,042,,24,17,120,,26,18,071,,*4A\r\n
2019-11-19T17:25:00.041690Z <DBUG> [27595] {7fb3ea347600} Ready file [134] [1031]
2019-11-19T17:25:00.041701Z <DBUG> [27595] {7fb3ea347600} Input NMEA [42] [41]
INP [41] $GBGSV,2,2,06,27,26,313,,28,54,250,,*4D\r\n
2019-11-19T17:25:00.041793Z <DBUG> [27595] {7fb3ea347600} Ready file [93] [1031]
2019-11-19T17:25:00.041804Z <DBUG> [27595] {7fb3ea347600} Input NMEA [42] [41]
INP [41] $GBGSV,2,2,06,27,26,313,,28,54,250,,*4D\r\n
2019-11-19T17:25:00.041900Z <DBUG> [27595] {7fb3ea347600} Ready file [52] [1031]
2019-11-19T17:25:00.041912Z <DBUG> [27595] {7fb3ea347600} Input NMEA [53] [52]
INP [52] $GNGLL,3947.65155,N,10509.20477,W,172500.00,A,A*64\r\n
2019-11-19T17:25:00.042028Z <DBUG> [27595] {7fb3ea347600} Ready empty [0] [1031]
2019-11-19T17:25:01.044680Z <DBUG> [27595] {7fb3ea347600} Input UBX [45] [44]
INP [44] \xb5b\x01\x14$\0\0\0\0\0\x18\xbc\t\x0e\xd8\xdcR\xc1\x9c\x1c\xb8\x17 \xcd\x19\0\x1c!\x1a\0-\x04\xfc\xfb\xfa\xcf\0\0\x9a\x8f\x01\0\xea\xe3
0000000018d23590:          b5620114 24000000 000018bc |    .b..$.......|
0000000018d235a0: 090ed8dc 52c19c1c b81720cd 19001c21 |....R..... ....!|
0000000018d235b0: 1a002d04 fcfbfacf 00009a8f 0100eae3 |..-.............|
2019-11-19T17:25:01.046364Z <DBUG> [27595] {7fb3ea347600} Ready device [728] [1031]
2019-11-19T17:25:01.046506Z <DBUG> [27595] {7fb3ea347600} Input NMEA [71] [70]
INP [70] $GNRMC,172501.00,A,3947.65150,N,10509.20472,W,0.035,,191119,,,A,V*00\r\n
2019-11-19T17:25:01.047303Z <DBUG> [27595] {7fb3ea347600} Ready file [788] [1031]
2019-11-19T17:25:01.047368Z <DBUG> [27595] {7fb3ea347600} Input NMEA [36] [35]
INP [35] $GNVTG,,T,,M,0.035,N,0.065,K,A*38\r\n
2019-11-19T17:25:01.047855Z <DBUG> [27595] {7fb3ea347600} Ready file [753] [1031]
2019-11-19T17:25:01.047998Z <DBUG> [27595] {7fb3ea347600} Input NMEA [78] [77]
INP [77] $GNGGA,172501.00,3947.65150,N,10509.20472,W,1,12,0.79,1712.4,M,-21.5,M,,*47\r\n
2019-11-19T17:25:01.049246Z <DBUG> [27595] {7fb3ea347600} Ready file [676] [1031]
2019-11-19T17:25:01.049371Z <DBUG> [27595] {7fb3ea347600} Input NMEA [63] [62]
INP [62] $GNGSA,A,3,08,10,14,15,20,21,24,27,32,,,,1.46,0.79,1.23,1*07\r\n
2019-11-19T17:25:01.050403Z <DBUG> [27595] {7fb3ea347600} Ready file [614] [1031]
2019-11-19T17:25:01.050508Z <DBUG> [27595] {7fb3ea347600} Input NMEA [47] [46]
INP [46] $GNGSA,A,3,87,,,,,,,,,,,,1.46,0.79,1.23,2*00\r\n
2019-11-19T17:25:01.051365Z <DBUG> [27595] {7fb3ea347600} Ready file [568] [1031]
2019-11-19T17:25:01.051450Z <DBUG> [27595] {7fb3ea347600} Input NMEA [53] [52]
INP [52] $GNGSA,A,3,03,05,09,36,,,,,,,,,1.46,0.79,1.23,3*04\r\n
2019-11-19T17:25:01.052405Z <DBUG> [27595] {7fb3ea347600} Ready file [516] [1031]
2019-11-19T17:25:01.052511Z <DBUG> [27595] {7fb3ea347600} Input NMEA [45] [44]
INP [44] $GNGSA,A,3,,,,,,,,,,,,,1.46,0.79,1.23,4*09\r\n
2019-11-19T17:25:01.053261Z <DBUG> [27595] {7fb3ea347600} Ready file [472] [1031]
2019-11-19T17:25:01.053368Z <DBUG> [27595] {7fb3ea347600} Input NMEA [69] [68]
INP [68] $GPGSV,3,1,09,08,21,308,,10,65,323,10,14,19,218,21,15,14,050,,1*6F\r\n
2019-11-19T17:25:01.053698Z <DBUG> [27595] {7fb3ea347600} Ready file [404] [1031]
2019-11-19T17:25:01.053716Z <DBUG> [27595] {7fb3ea347600} Input NMEA [71] [70]
INP [70] $GPGSV,3,2,09,20,66,049,12,21,54,145,26,24,34,083,11,27,36,271,,1*68\r\n
2019-11-19T17:25:01.053978Z <DBUG> [27595] {7fb3ea347600} Ready file [334] [1031]
2019-11-19T17:25:01.054006Z <DBUG> [27595] {7fb3ea347600} Input NMEA [34] [33]
INP [33] $GPGSV,3,3,09,32,46,220,24,1*58\r\n
2019-11-19T17:25:01.054144Z <DBUG> [27595] {7fb3ea347600} Ready file [301] [1031]
2019-11-19T17:25:01.054163Z <DBUG> [27595] {7fb3ea347600} Input NMEA [71] [70]
INP [70] $GPGSV,3,1,09,08,21,308,21,10,65,323,21,14,19,218,,15,14,050,20,6*68\r\n
2019-11-19T17:25:01.054388Z <DBUG> [27595] {7fb3ea347600} Ready file [231] [1031]
2019-11-19T17:25:01.054414Z <DBUG> [27595] {7fb3ea347600} Input NMEA [69] [68]
INP [68] $GPGSV,3,2,09,20,66,049,,21,54,145,,24,34,083,20,27,36,271,27,6*6F\r\n
2019-11-19T17:25:01.054638Z <DBUG> [27595] {7fb3ea347600} Ready file [163] [1031]
2019-11-19T17:25:01.054661Z <DBUG> [27595] {7fb3ea347600} Input NMEA [34] [33]
INP [33] $GPGSV,3,3,09,32,46,220,38,6*52\r\n
2019-11-19T17:25:01.054778Z <DBUG> [27595] {7fb3ea347600} Ready file [130] [1031]
2019-11-19T17:25:01.054794Z <DBUG> [27595] {7fb3ea347600} Input NMEA [65] [64]
INP [64] $GLGSV,3,1,09,65,65,328,,66,20,255,,72,38,038,,73,11,039,,1*71\r\n
2019-11-19T17:25:01.055016Z <DBUG> [27595] {7fb3ea347600} Ready file [66] [1031]
2019-11-19T17:25:01.055029Z <DBUG> [27595] {7fb3ea347600} Input NMEA [67] [66]
INP [66] $GLGSV,3,2,09,74,01,132,,75,09,044,,81,22,329,,87,51,188,24,1*74\r\n
2019-11-19T17:25:01.055247Z <DBUG> [27595] {7fb3ea347600} Ready device [626] [1031]
2019-11-19T17:25:01.055282Z <DBUG> [27595] {7fb3ea347600} Input NMEA [32] [31]
INP [31] $GLGSV,3,3,09,88,64,294,,1*4C\r\n
2019-11-19T17:25:01.055403Z <DBUG> [27595] {7fb3ea347600} Ready file [595] [1031]
2019-11-19T17:25:01.055427Z <DBUG> [27595] {7fb3ea347600} Input NMEA [71] [70]
INP [70] $GLGSV,3,1,09,65,65,328,,66,20,255,26,72,38,038,30,73,11,039,20,3*76\r\n
2019-11-19T17:25:01.055582Z <DBUG> [27595] {7fb3ea347600} Ready file [525] [1031]
2019-11-19T17:25:01.055595Z <DBUG> [27595] {7fb3ea347600} Input NMEA [69] [68]
INP [68] $GLGSV,3,2,09,74,01,132,,75,09,044,,81,22,329,28,87,51,188,35,3*7C\r\n
2019-11-19T17:25:01.055741Z <DBUG> [27595] {7fb3ea347600} Ready file [457] [1031]
2019-11-19T17:25:01.055753Z <DBUG> [27595] {7fb3ea347600} Input NMEA [32] [31]
INP [31] $GLGSV,3,3,09,88,64,294,,3*4E\r\n
2019-11-19T17:25:01.055821Z <DBUG> [27595] {7fb3ea347600} Ready file [426] [1031]
2019-11-19T17:25:01.055845Z <DBUG> [27595] {7fb3ea347600} Input NMEA [71] [70]
INP [70] $GAGSV,2,1,06,03,29,240,18,05,81,281,10,09,41,050,11,15,22,318,,7*70\r\n
2019-11-19T17:25:01.055996Z <DBUG> [27595] {7fb3ea347600} Ready file [356] [1031]
2019-11-19T17:25:01.056006Z <DBUG> [27595] {7fb3ea347600} Input NMEA [45] [44]
INP [44] $GAGSV,2,2,06,31,02,077,,36,45,164,23,7*73\r\n
2019-11-19T17:25:01.056100Z <DBUG> [27595] {7fb3ea347600} Ready file [312] [1031]
2019-11-19T17:25:01.056108Z <WARN> [27595] {7fb3ea347600} Sync Lost 0x0000000000002f17 0x37 '7'
2019-11-19T17:25:01.056115Z <NOTE> [27595] {7fb3ea347600} Sync NMEA 0x0000000000002f4a
2019-11-19T17:25:01.056119Z <DBUG> [27595] {7fb3ea347600} Input NMEA [45] [44]
INP [44] $GAGSV,2,2,06,31,02,077,,36,45,164,39,2*7D\r\n
2019-11-19T17:25:01.056214Z <DBUG> [27595] {7fb3ea347600} Ready file [260] [1031]
2019-11-19T17:25:01.056225Z <DBUG> [27595] {7fb3ea347600} Input NMEA [64] [63]
INP [63] $GBGSV,2,1,06,11,09,170,,14,59,042,,24,17,120,,26,18,071,,*4A\r\n
2019-11-19T17:25:01.056342Z <DBUG> [27595] {7fb3ea347600} Ready file [197] [1031]
2019-11-19T17:25:01.056360Z <DBUG> [27595] {7fb3ea347600} Input NMEA [42] [41]
INP [41] $GBGSV,2,2,06,27,26,313,,28,54,250,,*4D\r\n
2019-11-19T17:25:01.056464Z <DBUG> [27595] {7fb3ea347600} Ready file [156] [1031]
2019-11-19T17:25:01.056476Z <DBUG> [27595] {7fb3ea347600} Input NMEA [64] [63]
INP [63] $GBGSV,2,1,06,11,09,170,,14,59,042,,24,17,120,,26,18,071,,*4A\r\n
2019-11-19T17:25:01.056618Z <DBUG> [27595] {7fb3ea347600} Ready file [93] [1031]
2019-11-19T17:25:01.056630Z <DBUG> [27595] {7fb3ea347600} Input NMEA [42] [41]
INP [41] $GBGSV,2,2,06,27,26,313,,28,54,250,,*4D\r\n
2019-11-19T17:25:01.056722Z <DBUG> [27595] {7fb3ea347600} Ready file [52] [1031]
2019-11-19T17:25:01.056731Z <DBUG> [27595] {7fb3ea347600} Input NMEA [53] [52]
INP [52] $GNGLL,3947.65150,N,10509.20472,W,172501.00,A,A*65\r\n
2019-11-19T17:25:01.056847Z <DBUG> [27595] {7fb3ea347600} Ready empty [0] [1031]
2019-11-19T17:25:02.034234Z <DBUG> [27595] {7fb3ea347600} Input UBX [45] [44]
INP [44] \xb5b\x01\x14$\0\0\0\0\0\0\xc0\t\x0e\xe0\xdcR\xc1\x90\x1c\xb8\x17\xd3\xcc\x19\0\xcf \x1a\0\xee\xe1\x04\x04Y\xcf\0\0\xfe\x8d\x01\0\xa6\xd7
0000000018d23590:          b5620114 24000000 000000c0 |    .b..$.......|
0000000018d235a0: 090ee0dc 52c1901c b817d3cc 1900cf20 |....R.......... |
0000000018d235b0: 1a00eee1 040459cf 0000fe8d 0100a6d7 |......Y.........|
2019-11-19T17:25:02.034952Z <DBUG> [27595] {7fb3ea347600} Ready device [386] [1031]
2019-11-19T17:25:02.035001Z <DBUG> [27595] {7fb3ea347600} Input NMEA [71] [70]
INP [70] $GNRMC,172502.00,A,3947.65142,N,10509.20467,W,0.089,,191119,,,A,V*03\r\n
2019-11-19T17:25:02.035346Z <DBUG> [27595] {7fb3ea347600} Ready file [316] [1031]
2019-11-19T17:25:02.035367Z <DBUG> [27595] {7fb3ea347600} Input NMEA [36] [35]
INP [35] $GNVTG,,T,,M,0.089,N,0.164,K,A*3F\r\n
2019-11-19T17:25:02.035592Z <DBUG> [27595] {7fb3ea347600} Ready file [281] [1031]
2019-11-19T17:25:02.035624Z <DBUG> [27595] {7fb3ea347600} Input NMEA [78] [77]
INP [77] $GNGGA,172502.00,3947.65142,N,10509.20467,W,1,12,0.79,1712.3,M,-21.5,M,,*44\r\n
2019-11-19T17:25:02.036106Z <DBUG> [27595] {7fb3ea347600} Ready file [204] [1031]
2019-11-19T17:25:02.036148Z <DBUG> [27595] {7fb3ea347600} Input NMEA [63] [62]
INP [62] $GNGSA,A,3,08,10,14,15,20,21,24,27,32,,,,1.46,0.79,1.23,1*07\r\n
2019-11-19T17:25:02.036550Z <DBUG> [27595] {7fb3ea347600} Ready file [142] [1031]
2019-11-19T17:25:02.036575Z <DBUG> [27595] {7fb3ea347600} Input NMEA [47] [46]
INP [46] $GNGSA,A,3,87,,,,,,,,,,,,1.46,0.79,1.23,2*00\r\n
2019-11-19T17:25:02.036867Z <DBUG> [27595] {7fb3ea347600} Ready file [96] [1031]
2019-11-19T17:25:02.036897Z <DBUG> [27595] {7fb3ea347600} Input NMEA [53] [52]
INP [52] $GNGSA,A,3,03,05,09,36,,,,,,,,,1.46,0.79,1.23,3*04\r\n
2019-11-19T17:25:02.037208Z <DBUG> [27595] {7fb3ea347600} Ready file [44] [1031]
2019-11-19T17:25:02.037263Z <DBUG> [27595] {7fb3ea347600} Input NMEA [45] [44]
INP [44] $GNGSA,A,3,,,,,,,,,,,,,1.46,0.79,1.23,4*09\r\n
2019-11-19T17:25:02.037595Z <DBUG> [27595] {7fb3ea347600} Ready device [1110] [1110]
2019-11-19T17:25:02.037652Z <DBUG> [27595] {7fb3ea347600} Input NMEA [69] [68]
INP [68] $GPGSV,3,1,09,08,21,308,,10,65,323,11,14,19,218,21,15,14,050,,1*6E\r\n
2019-11-19T17:25:02.038012Z <DBUG> [27595] {7fb3ea347600} Ready file [1042] [1110]
2019-11-19T17:25:02.038051Z <DBUG> [27595] {7fb3ea347600} Input NMEA [71] [70]
INP [70] $GPGSV,3,2,09,20,66,049,13,21,54,145,25,24,34,083,14,27,36,271,,1*6F\r\n
2019-11-19T17:25:02.038361Z <DBUG> [27595] {7fb3ea347600} Ready file [972] [1110]
2019-11-19T17:25:02.038378Z <DBUG> [27595] {7fb3ea347600} Input NMEA [34] [33]
INP [33] $GPGSV,3,3,09,32,46,220,24,1*58\r\n
2019-11-19T17:25:02.038551Z <DBUG> [27595] {7fb3ea347600} Ready file [939] [1110]
2019-11-19T17:25:02.038591Z <DBUG> [27595] {7fb3ea347600} Input NMEA [71] [70]
INP [70] $GPGSV,3,1,09,08,21,308,22,10,65,323,21,14,19,218,,15,14,050,21,6*6A\r\n
2019-11-19T17:25:02.038910Z <DBUG> [27595] {7fb3ea347600} Ready file [869] [1110]
2019-11-19T17:25:02.038951Z <DBUG> [27595] {7fb3ea347600} Input NMEA [69] [68]
INP [68] $GPGSV,3,2,09,20,66,049,,21,54,145,,24,34,083,20,27,36,271,27,6*6F\r\n
2019-11-19T17:25:02.039233Z <DBUG> [27595] {7fb3ea347600} Ready file [801] [1110]
2019-11-19T17:25:02.039276Z <DBUG> [27595] {7fb3ea347600} Input NMEA [34] [33]
INP [33] $GPGSV,3,3,09,32,46,220,38,6*52\r\n
2019-11-19T17:25:02.039418Z <DBUG> [27595] {7fb3ea347600} Ready file [768] [1110]
2019-11-19T17:25:02.039441Z <DBUG> [27595] {7fb3ea347600} Input NMEA [65] [64]
INP [64] $GLGSV,3,1,09,65,65,328,,66,20,255,,72,38,038,,73,11,039,,1*71\r\n
2019-11-19T17:25:02.039735Z <DBUG> [27595] {7fb3ea347600} Ready file [704] [1110]
2019-11-19T17:25:02.039762Z <DBUG> [27595] {7fb3ea347600} Input NMEA [67] [66]
INP [66] $GLGSV,3,2,09,74,01,132,,75,09,044,,81,22,329,,87,50,188,25,1*74\r\n
2019-11-19T17:25:02.040077Z <DBUG> [27595] {7fb3ea347600} Ready file [638] [1110]
