\xb5b\r\x01\x10\0\x10\x15s\x17\0\0\0\0\x1a\xdd\xff\xff\xd6\b\n\0\xaa;
\xb5b\x01\a\\\0(\x11s\x17\xe7\a\x05\x12\r\x10\'7\x10\0\0\04\xa3\xfc\xff\x03\x03\n\f(\xdeR\xc1\x9c\x1e\xb8\x17\xce\xd8\x19\0\xca,\x1a\0\x19\n\0\0\x19\x0f\0\02\0\0\0\xf8\xff\xff\xff9\0\0\02\0\0\0\xd7\xdd\xe4\x01\x8f\x01\0\0\x8ei\x9e\0\x81\0\0\0\xe0J#\0\0\0\0\0\0\0\0\0\x7fI
\xb5b\x01\x03\x10\0(\x11s\x17\x03\xdf\0\bl\xbc\0\0\xf9\xe4:\x0e\x0e\xf8
\xb5b\x01\"\x14\0(\x11s\x17|\x1a\xf4\xffH\xd6\xff\xff\t\0\0\0E\x04\0\0\xf1V
$GNRMC,131639.00,A,3947.65457,N,10509.20270,W,0.098,,180523,,,D*7C\r\n
$GNVTG,,T,,M,0.098,N,0.181,K,D*31\r\n
$GNGGA,131639.00,3947.65457,N,10509.20270,W,2,12,0.73,1715.4,M,-21.5,M,,0000*40\r\n
$GNGSA,M,3,02,14,07,21,01,09,46,48,17,30,13,15,1.29,0.73,1.07*1E\r\n
$GNGSA,M,3,,,,,,,,,,,,,1.29,0.73,1.07*18\r\n
\xb5b\x06\0\x14\0\x03\0\0\0\0\0\0\0\0\0\0\0\a\0\x03\0\0\0\0\0\'\xce
\xb5b\x05\x01\x02\0\x06\0\x0e7
$GPGSV,4,1,14,01,20,118,24,02,09,039,20,07,60,115,39,08,27,046,*76\r\n
$GPGSV,4,2,14,09,11,177,34,13,30,310,31,14,59,288,29,15,05,324,20*72\r\n
$GPGSV,4,3,14,17,31,201,40,19,06,207,18,21,26,087,27,30,82,340,32*78\r\n
\xb5b\x05\x01\x02\0\x06\x01\x0f8
$GPGSV,4,4,14,46,38,215,41,48,40,209,35*73\r\n
\xb5b\x05\x01\x02\0\x06\x01\x0f8
$GLGSV,3,1,10,68,02,200,,69,28,241,,70,24,311,,78,31,075,28*6D\r\n
$PUBX,00,131639.00,3947.65457,N,10509.20270,W,1693.902,D3,2.6,3.9,0.181,317.76,0.057,,0.73,1.07,0.62,12,0,0*7B\r\n
\xb5b\x05\x01\x02\0\x06\x01\x0f8
$PUBX,03,26,1,U,118,20,24,000,2,U,039,09,20,000,7,U,115,60,39,064,8,e,046,27,,000,9,U,177,11,34,064,13,U,310,30,31,064,14,U,288,59,29,064,15,U,324,05,20,000,17,U,201,31,40,064,19,-,207,06,18,000,21,U,087,26,27,024,30,U,340,82,32,064,131,-,198,42,,000,133,U,215,38,41,064,135,U,209,40,35,064,68,-,200,02,,000,69,-,241,28,,000,70,-,311,24,,000,71,-,350,-2,,000,78,-,075,31,28,000,79,-,002,58,,000,80,-,300,24,,000,81,-,123,45,,000,82,-,167,14,,000,87,-,015,00,,000,88,-,049,35,,000*4F\r\n
$PUBX,04,131639.00,180523,393398.99,2262,18,-779652,-10680.052,21*1E\r\n
\xb5b\x05\x01\x02\0\x06\x01\x0f8
$GNTXT,01,01,02,u-blox AG - www.u-blox.com*4E\r\n
$GNTXT,01,01,02,HW UBX-M8030 00080000*60\r\n
$GNTXT,01,01,02,ROM CORE 3.01 (107888)*2B\r\n
$GNTXT,01,01,02,FWVER=SPG 3.01*46\r\n
$GNTXT,01,01,02,PROTVER=18.00*11\r\n
\xb5b\x05\x01\x02\0\x06\x01\x0f8
$GNTXT,01,01,02,GPS;GLO;GAL;BDS*77\r\n
$GNTXT,01,01,02,LLC=FFFFFFFF-FFFF7CBF-FFED7FAA-FFFFFFFF-FFFFFFF9*52\r\n
$GNTXT,01,01,02,ANTSUPERV=AC SD PDoS SR*3E\r\n
$GNTXT,01,01,02,ANTSTATUS=OK*25\r\n
$GNTXT,01,01,02,PF=3FF*4B\r\n
\xb5b\n\t<\0\0\xf4\x01\0\0\0\0\0\0\0\x01\0\xef\xf7\0\0f\0\xaa\n\x02\x01\t\x84\xff\xeb\x01\0\n\v\f\r\x0e\x0f\x01\0\x02\x03\xff\x10\xff\x12\x1365Y\xef^\0\0\0\0\x80\xf7\0\0\0\0\0\0\xcc\xc0
\xb5b\x05\x01\x02\0\x06\x01\x0f8
\xb5b\r\x01\x10\0\xe0\x1cs\x17\0\0\0\0\xd1\x10\0\0\xd6\b\n\0m\xcc
\xb5b\x05\x01\x02\0\x06\x01\x0f8
\xb5b\x01\a\\\0\x10\x15s\x17\xe7\a\x05\x12\r\x10(7\x10\0\0\0\xed\xcc\xfc\xff\x03\x03\n\f(\xdeR\xc1\x9f\x1e\xb8\x17\xd5\xd8\x19\0\xd1,\x1a\0#\n\0\0+\x0f\0\0\xfa\xff\xff\xff\xfc\xff\xff\xff\xf2\xff\xff\xff\b\0\0\0\xd7\xdd\xe4\x01\x8f\x01\0\0Pp\x9e\0\x81\0\0\0\xe0J#\0\0\0\0\0\0\0\0\0\x997
\xb5b\x01\x03\x10\0\x10\x15s\x17\x03\xdf\0\bl\xbc\0\0\xe1\xe8:\x0e\xe6`
\xb5b\x01 \x10\0\x10\x15s\x17\xeb\xcc\xfc\xff\xd6\b\x12\a\x10\0\0\0\x99\x92
\xb5b\x01!\x14\0\x10\x15s\x17\x10\0\0\0\xed\xcc\xfc\xff\xe7\a\x05\x12\r\x10(7*\xae
\xb5b\x05\0\x02\0\x06\x01\x0e3
\xb5b\x01\"\x14\0\x10\x15s\x17\xc3\xf0\xf3\xffG\xd6\xff\xff\t\0\0\0H\x04\0\0\xfb\xae
\xb5b\x01\t\x14\0\0\xd6\xff\xff\x10\x15s\x17\0\0\0\0\0\0\0\0\0\0\0\0\xa1\x0e
$GNRMC,131640.00,A,3947.65459,N,10509.20270,W,0.015,,180523,,,D*79\r\n
\xb5b\x05\x01\x02\0\x06\x01\x0f8
$GNVTG,,T,,M,0.015,N,0.028,K,D*36\r\n
$GLGSV,3,1,10,68,02,200,,69,28,241,,70,24,311,,78,31,075,23*66\r\n
$GLGSV,3,2,10,79,58,002,,80,24,300,,81,45,123,,82,14,167,*6E\r\n
$GLGSV,3,3,10,87,00,015,,88,35,049,*64\r\n
\xb5b\x05\x01\x02\0\x06\x01\x0f8
\xb5b\n\t<\0\0\xf4\x01\0\0\0\0\0\0\0\x01\0\xef\xff\0\0f\0\xaa\n\x02\x01\t\x84\xff\xeb\x01\0\n\v\f\r\x0e\x0f\x01\0\x02\x03\xff\x10\xff\x12\x1365Z\xe1^\0\0\0\0\x80\xf7\0\0\0\0\0\0\xc7\x83
\xb5b\x05\x01\x02\0\x069Gp
\xb5b\r\x01\x10\0\xe0\x1cs\x17\0\0\0\0\x1c\x02\0\0\xd6\b\n\0\xaa\xc2
\xb5b\n\x04\xa0\0ROM CORE 3.01 (107888)\0\0\0\0\0\0\0\000080000\0\0FWVER=SPG 3.01\0\0\0\0\0\0\0\0\0\0\0\0\0\0\0\0PROTVER=18.00\0\0\0\0\0\0\0\0\0\0\0\0\0\0\0\0\0GPS;GLO;GAL;BDS\0\0\0\0\0\0\0\0\0\0\0\0\0\0\0SBAS;IMES;QZSS\0\0\0\0\0\0\0\0\0\0\0\0\0\0\0\0A\xd2
\xb5b\x06\x064\0\0\0WGS84\0\0\0\0@\xa6TXA\x88mt\x96\x1d\xa4r@\0\0\0\0\0\0\0\0\0\0\0\0\0\0\0\0\0\0\0\0\0\0\0\0\0\0\0\0\xe2\xa5
\xb5b\x05\x01\x02\0\x06\x06\x14=
\xb5b\x01\a\\\0\xf8\x18s\x17\xe7\a\x05\x12\r\x10)7\x10\0\0\0\xa7\xf6\xfc\xff\x03\x03\n\f%\xdeR\xc1\xa3\x1e\xb8\x17\x96\xd8\x19\0\x92,\x1a\0,\n\0\0=\x0f\0\0\xef\xff\xff\xff\xef\xff\xff\xff\xc9\xff\xff\xff\x18\0\0\0\xd7\xdd\xe4\x01\x9c\x01\0\0Jw\x9e\0\x81\0\0\0\xe0J#\0\0\0\0\0\0\0\0\0\xe4\xf1
\xb5b\x01\x03\x10\0\xf8\x18s\x17\x03\xdf\0\bl\xbc\0\0\xc9\xec:\x0e\xbd\xb9
\xb5b\x01 \x10\0\xf8\x18s\x17\xa6\xf6\xfc\xff\xd6\b\x12\a\x10\0\0\0i\xd1
\xb5b\x01!\x14\0\xf8\x18s\x17\x10\0\0\0\xa7\xf6\xfc\xff\xe7\a\x05\x12\r\x10)7\xfa\x8f
\xb5b\x061 \0\0\x01\0\02\0\0\0@B\x0f\0\x80\x84\x1e\0\0\0\0\0@B\x0f\0\0\0\0\0\xf7\0\0\0\xc5\xca
\xb5b\x05\x01\x02\0\x061\?h
\xb5b\x01\"\x14\0\xf8\x18s\x17\t\xc7\xf3\xffE\xd6\xff\xff\t\0\0\0G\x04\0\0\0\xe4
\xb5b\x01\t\x14\0\0\x06\x02 \xf8\x18s\x17\0\0\0\0\0\0\0\0\0\0\0\0\xe0\xb2
\xb5b\x06><\0\0  \a\0\b\x10\0\x01\0\x01\x01\x01\x01\x03\0\x01\0\x01\x01\x02\x04\b\0\0\0\x01\x01\x03\b\x10\0\0\0\x01\x01\x04\0\b\0\0\0\x01\x03\x05\0\x03\0\x01\0\x01\x05\x06\b\x0e\0\x01\0\x01\x01U/
\xb5b\x05\x01\x02\0\x06>Lu
$GNRMC,131641.00,A,3947.65461,N,10509.20272,W,0.046,,180523,,,D*77\r\n
$GNVTG,,T,,M,0.046,N,0.085,K,D*37\r\n
$GNGGA,131641.00,3947.65461,N,10509.20272,W,2,12,0.73,1715.3,M,-21.5,M,,0000*4F\r\n
$GNGSA,M,3,02,14,07,21,01,09,46,48,17,30,13,15,1.29,0.73,1.07*1E\r\n
$GNGSA,M,3,,,,,,,,,,,,,1.29,0.73,1.07*18\r\n
$GPGSV,4,1,14,01,20,118,23,02,09,039,21,07,60,115,39,08,27,046,*70\r\n
$GPGSV,4,2,14,09,11,177,34,13,30,310,31,14,59,288,29,15,05,324,19*78\r\n
$GPGSV,4,3,14,17,31,201,40,19,06,207,,21,26,087,27,30,82,340,32*71\r\n
$GPGSV,4,4,14,46,38,215,42,48,40,209,35*70\r\n
$GLGSV,3,1,10,68,02,200,,69,28,241,,70,24,310,,78,31,075,*66\r\n
$GLGSV,3,2,10,79,58,002,,80,24,300,,81,45,123,,82,14,167,*6E\r\n
$GLGSV,3,3,10,87,00,015,,88,35,049,*64\r\n
\xb5b\n\t<\0\0\xf4\x01\0\0\0\0\0\0\0\x01\0\xef\xf7\0\0g\0\xaa\n\x02\x01\t\x84\xff\xeb\x01\0\n\v\f\r\x0e\x0f\x01\0\x02\x03\xff\x10\xff\x12\x1365\x12\xef^\0\0\0\0\x80\xf7\0\0\0\0\0\0\x86\xc3
\xb5b\r\x01\x10\0\xb0$s\x17\0\0\0\0q\x14\0\0\xd6\b\n\0\xe9`
\xb5b\x01\a\\\0\xe0\x1cs\x17\xe7\a\x05\x12\r\x10*7\x10\0\0\0d \xfd\xff\x03\x03\n\f!\xdeR\xc1\xa4\x1e\xb8\x170\xd8\x19\0,,\x1a\04\n\0\0N\x0f\0\0\xe8\xff\xff\xff\v\0\0\0\xc6\xff\xff\xff\x1a\0\0\0\xd7\xdd\xe4\x01\xa0\x01\0\0X~\x9e\0\x81\0\0\0\xe0J#\0\0\0\0\0\0\0\0\03\xfa
\xb5b\x01\x03\x10\0\xe0\x1cs\x17\x03\xdf\0\bl\xbc\0\0\xb1\xf0:\x0e\x95!
\xb5b\x01 \x10\0\xe0\x1cs\x17b \xfd\xff\xd6\b\x12\a\x10\0\0\0<5
\xb5b\x01!\x14\0\xe0\x1cs\x17\x10\0\0\0d \xfd\xff\xe7\a\x05\x12\r\x10*7\xcf\xb1
\xb5b\x01\"\x14\0\xe0\x1cs\x17M\x9d\xf3\xffC\xd6\xff\xff\t\0\0\0K\x04\0\0\b\x12
\xb5b\x01\t\x14\0\0\xd6\xff\xff\xe0\x1cs\x17\0\0\0\0\0\0\0\0\0\0\0\0xw
$GNRMC,131642.00,A,3947.65462,N,10509.20275,W,0.051,,180523,,,D*76\r\n
$GNVTG,,T,,M,0.051,N,0.094,K,D*31\r\n
$GNGGA,131642.00,3947.65462,N,10509.20275,W,2,12,0.73,1715.2,M,-21.5,M,,0000*49\r\n
$GNGSA,M,3,02,14,07,21,01,09,46,48,17,30,13,15,1.29,0.73,1.07*1E\r\n
$GNGSA,M,3,,,,,,,,,,,,,1.29,0.73,1.07*18\r\n
$GPGSV,4,1,14,01,20,118,23,02,09,039,21,07,60,115,39,08,27,046,*70\r\n
$GPGSV,4,2,14,09,11,177,34,13,30,310,31,14,59,288,29,15,05,324,19*78\r\n
$GPGSV,4,3,14,17,31,201,40,19,06,207,,21,26,087,27,30,82,340,33*70\r\n
$GPGSV,4,4,14,46,38,215,42,48,40,209,35*70\r\n
$GLGSV,3,1,10,68,02,200,,69,28,241,,70,24,310,,78,31,075,*66\r\n
$GLGSV,3,2,10,79,58,002,,80,24,300,,81,45,123,,82,14,167,*6E\r\n
$GLGSV,3,3,10,87,00,015,,88,35,049,*64\r\n
\xb5b\n\t<\0\0\xf4\x01\0\0\0\0\0\0\0\x01\0\xef\xff\0\0g\0\xaa\n\x02\x01\t\x84\xff\xeb\x01\0\n\v\f\r\x0e\x0f\x01\0\x02\x03\xff\x10\xff\x12\x1365Z\x9f^\0\0\0\0\x80\xf7\0\0\0\0\0\0\x86\x13
\xb5b\r\x01\x10\0\xb0$s\x17\0\0\0\0\xf9\x05\0\0\xd6\b\n\0b7
\xb5b\x01\a\\\0\xc8 s\x17\xe7\a\x05\x12\r\x10+7\x10\0\0\0\"J\xfd\xff\x03\x03\n\f\x19\xdeR\xc1\xa6\x1e\xb8\x17d\xd7\x19\0`+\x1a\0<\n\0\0]\x0f\0\0\xf4\xff\xff\xff\xf3\xff\xff\xff\xe1\xff\xff\xff\x12\0\0\0\xd7\xdd\xe4\x01\x99\x01\0\0F\x85\x9e\0\x81\0\0\0\xe0J#\0\0\0\0\0\0\0\0\0q\xdb
\xb5b\x01\x03\x10\0\xc8 s\x17\x03\xdf\0\bl\xbc\0\0\x99\xf4:\x0em\x89
\xb5b\x01 \x10\0\xc8 s\x17!J\xfd\xff\xd6\b\x12\a\x10\0\0\0\x11\xb3
\xb5b\x01!\x14\0\xc8 s\x17\x10\0\0\0\"J\xfd\xff\xe7\a\x05\x12\r\x10+7\xa4\xd5
\xb5b\x01\"\x14\0\xc8 s\x17\x8es\xf3\xffB\xd6\xff\xff\t\0\0\0T\x04\0\0\x130
\xb5b\x01\t\x14\0\0\xd6\xff\xff\xc8 s\x17\0\0\0\0\0\0\0\0\0\0\0\0d3
$GNRMC,131643.00,A,3947.65463,N,10509.20279,W,0.035,,180523,,,D*78\r\n
$GNVTG,,T,,M,0.035,N,0.064,K,D*3C\r\n
$GNGGA,131643.00,3947.65463,N,10509.20279,W,2,12,0.73,1715.0,M,-21.5,M,,0000*47\r\n
$GNGSA,M,3,02,14,07,21,01,09,46,48,17,30,13,15,1.29,0.73,1.07*1E\r\n
$GNGSA,M,3,,,,,,,,,,,,,1.29,0.73,1.07*18\r\n
$GPGSV,4,1,14,01,20,118,23,02,09,039,21,07,60,115,39,08,27,046,*70\r\n
$GPGSV,4,2,14,09,11,177,34,13,30,310,31,14,59,288,29,15,05,324,19*78\r\n
$GPGSV,4,3,14,17,31,201,40,19,06,207,,21,26,087,26,30,82,340,33*71\r\n
$GPGSV,4,4,14,46,38,215,41,48,40,209,34*72\r\n
$GLGSV,3,1,10,68,02,200,,69,28,241,,70,24,310,,78,31,075,*66\r\n
$GLGSV,3,2,10,79,58,002,22,80,24,300,,81,45,123,,82,14,167,*6E\r\n
$GLGSV,3,3,10,87,00,015,,88,35,049,*64\r\n
\xb5b\n\t<\0\0\xf4\x01\0\0\0\0\0\0\0\x01\0\xef\xf7\0\0g\0\xaa\n\x02\x01\x05\x84\xff\xeb\x01\0\n\v\f\r\x0e\x0f\x01\0\x02\x03\xff\x10\xff\x12\x1365\n\xef^\0\0\0\0\x80\xf7\0\0\0\0\0\0z\xb3
\xb5b\r\x01\x10\0\x80,s\x17\0\0\0\0\xd3\xee\xff\xff\xd6\b\n\0\xfb\xd3
\xb5b\x01\a\\\0\xb0$s\x17\xe7\a\x05\x12\r\x10,7\x10\0\0\0\xe3s\xfd\xff\x03\x03\n\f\x13\xdeR\xc1\xa4\x1e\xb8\x17\x1a\xd7\x19\0\x15+\x1a\0C\n\0\0j\x0f\0\0\xbd\xff\xff\xff\x0f\0\0\0\xb3\xff\xff\xffE\0\0\0\xd7\xdd\xe4\x01\x90\x01\0\0\n\x8c\x9e\0\x81\0\0\0\xe0J#\0\0\0\0\0\0\0\0\0n\x8f
\xb5b\x01\x03\x10\0\xb0$s\x17\x03\xdf\0\bl\xbc\0\0\x81\xf8:\x0eE\xf1
\xb5b\x01 \x10\0\xb0$s\x17\xe1s\xfd\xff\xd6\b\x12\a\x10\0\0\0\xe62
\xb5b\x01!\x14\0\xb0$s\x17\x10\0\0\0\xe3s\xfd\xff\xe7\a\x05\x12\r\x10,7{\x12
\xb5b\x01\"\x14\0\xb0$s\x17\xceI\xf3\xff\?\xd6\xff\xff\t\0\0\0M\x04\0\0\v\xe6
\xb5b\x01\t\x14\0\0\xd6\xff\xff\xb0$s\x17\0\0\0\0\0\0\0\0\0\0\0\0P\xef
$GNRMC,131644.00,A,3947.65461,N,10509.20283,W,0.134,,180523,,,D*78\r\n
$GNVTG,,T,,M,0.134,N,0.248,K,D*30\r\n
$GNGGA,131644.00,3947.65461,N,10509.20283,W,2,12,0.73,1715.0,M,-21.5,M,,0000*47\r\n
$GNGSA,M,3,02,14,07,21,01,09,46,48,17,30,13,15,1.29,0.73,1.07*1E\r\n
$GNGSA,M,3,,,,,,,,,,,,,1.29,0.73,1.07*18\r\n
$GPGSV,4,1,14,01,20,118,25,02,09,039,21,07,60,115,39,08,27,046,19*7E\r\n
$GPGSV,4,2,14,09,11,177,34,13,30,310,31,14,59,288,29,15,05,324,19*78\r\n
$GPGSV,4,3,14,17,31,201,40,19,06,207,,21,26,087,27,30,82,340,33*70\r\n
$GPGSV,4,4,14,46,38,215,41,48,40,209,35*73\r\n
$GLGSV,3,1,10,68,02,200,,69,28,241,,70,24,310,,78,31,075,31*64\r\n
$GLGSV,3,2,10,79,58,002,,80,24,300,,81,45,123,,82,14,167,*6E\r\n
$GLGSV,3,3,10,87,00,015,,88,35,049,*64\r\n
\xb5b\n\t<\0\0\xf4\x01\0\0\0\0\0\0\0\x01\0\xef\xff\0\0g\0\xaa\n\x02\x01\x05\x84\xff\xeb\x01\0\n\v\f\r\x0e\x0f\x01\0\x02\x03\xff\x10\xff\x12\x1365N\xef^\0\0\0\0\x80\xf7\0\0\0\0\0\0\xc6\'
\xb5b\r\x01\x10\0\x80,s\x17\0\0\0\0\x9b\xe4\xff\xff\xd6\b\n\0\xb9\xcd
\xb5b\x01\a\\\0\x98(s\x17\xe7\a\x05\x12\r\x10-7\x10\0\0\0\xa5\x9d\xfd\xff\x03\x03\n\f\x0e\xdeR\xc1\xa8\x1e\xb8\x17\x9e\xd6\x19\0\x9a*\x1a\0M\n\0\0v\x0f\0\0\0\0\0\0\x05\0\0\0\xcc\xff\xff\xff\x05\0\0\0\xd7\xdd\xe4\x01\xa3\x01\0\0 \x93\x9e\0\x81\0\0\0\xe0J#\0\0\0\0\0\0\0\0\0\xa8\x18
\xb5b\x01\x03\x10\0\x98(s\x17\x03\xdf\0\bl\xbc\0\0i\xfc:\x0e\x1dY
\xb5b\x01 \x10\0\x98(s\x17\xa4\x9d\xfd\xff\xd6\b\x12\a\x10\0\0\0\xbf\xe0
\xb5b\x01!\x14\0\x98(s\x17\x10\0\0\0\xa5\x9d\xfd\xff\xe7\a\x05\x12\r\x10-7Tf
\xb5b\x01\"\x14\0\x98(s\x17\v \xf3\xff=\xd6\xff\xff\t\0\0\0U\x04\0\0\x11\xc3
\xb5b\x01\t\x14\0\0\xd6\xff\xff\x98(s\x17\0\0\0\0\0\0\0\0\0\0\0\0<\xab
$GNRMC,131645.00,A,3947.65464,N,10509.20286,W,0.009,,180523,,,D*76\r\n
$GNVTG,,T,,M,0.009,N,0.016,K,D*36\r\n
$GNGGA,131645.00,3947.65464,N,10509.20286,W,2,12,0.73,1714.8,M,-21.5,M,,0000*4F\r\n
$GNGSA,M,3,02,14,07,21,01,09,46,48,17,30,13,15,1.29,0.73,1.07*1E\r\n
$GNGSA,M,3,,,,,,,,,,,,,1.29,0.73,1.07*18\r\n
$GPGSV,4,1,14,01,20,118,25,02,09,039,21,07,60,115,39,08,27,046,20*74\r\n
$GPGSV,4,2,14,09,11,177,34,13,30,310,31,14,59,288,28,15,05,324,20*73\r\n
$GPGSV,4,3,14,17,31,201,39,19,06,207,,21,26,087,26,30,82,340,33*7F\r\n
$GPGSV,4,4,14,46,38,215,41,48,40,209,35*73\r\n
$GLGSV,3,1,10,68,02,200,,69,28,241,,70,24,310,,78,31,075,*66\r\n
$GLGSV,3,2,10,79,58,002,,80,24,300,,81,45,123,,82,14,167,*6E\r\n
$GLGSV,3,3,10,87,00,015,,88,35,049,*64\r\n
\xb5b\n\t<\0\0\xf4\x01\0\0\0\0\0\0\0\x01\0\xef\xf7\0\0g\0\xaa\n\x02\x01\t\x84\xff\xeb\x01\0\n\v\f\r\x0e\x0f\x01\0\x02\x03\xff\x10\xff\x12\x1365W\xef^\0\0\0\0\x80\xf7\0\0\0\0\0\0\xcb\xce
\xb5b\r\x01\x10\0P4s\x17\0\0\0\0\xd7\x16\0\0\xd6\b\n\0\x01\x8e
\xb5b\x01\a\\\0\x80,s\x17\xe7\a\x05\x12\r\x10.7\x10\0\0\0i\xc7\xfd\xff\x03\x03\n\r\a\xdeR\xc1\xa8\x1e\xb8\x17\x8f\xd6\x19\0\x8b*\x1a\0T\n\0\0\x7f\x0f\0\0\xe7\xff\xff\xff\xf9\xff\xff\xff\xc4\xff\xff\xff\x1a\0\0\0\xd7\xdd\xe4\x01\xa5\x01\0\0<\x9a\x9e\0\x7f\0\0\0\xe0J#\0\0\0\0\0\0\0\0\0t\x96
\xb5b\x01\x03\x10\0\x80,s\x17\x03\xdf\0\bl\xbc\0\0Q\0;\x0e\xf6\xc3
\xb5b\x01 \x10\0\x80,s\x17g\xc7\xfd\xff\xd6\b\x12\a\x10\0\0\0\x98\x8e
\xb5b\x01!\x14\0\x80,s\x17\x10\0\0\0i\xc7\xfd\xff\xe7\a\x05\x12\r\x10.7/\xd2
\xb5b\x01\"\x14\0\x80,s\x17G\xf6\xf2\xff=\xd6\xff\xff\t\0\0\0N\x04\0\0\aO
\xb5b\x01\t\x14\0\0\xd6\xff\xff\x80,s\x17\0\0\0\0\0\0\0\0\0\0\0\0(g
$GNRMC,131646.00,A,3947.65464,N,10509.20290,W,0.051,,180523,,,D*7F\r\n
$GNVTG,,T,,M,0.051,N,0.095,K,D*30\r\n
$GNGGA,131646.00,3947.65464,N,10509.20290,W,2,12,0.70,1714.8,M,-21.5,M,,0000*48\r\n
$GNGSA,M,3,08,02,14,07,21,01,09,46,48,17,30,13,1.27,0.70,1.07*1F\r\n
$GNGSA,M,3,,,,,,,,,,,,,1.27,0.70,1.07*15\r\n
$GPGSV,4,1,14,01,20,118,25,02,09,039,21,07,60,115,39,08,27,046,21*75\r\n
$GPGSV,4,2,14,09,11,177,34,13,30,310,31,14,59,288,28,15,05,324,20*73\r\n
$GPGSV,4,3,14,17,31,201,39,19,06,207,,21,26,087,27,30,82,340,33*7E\r\n
$GPGSV,4,4,14,46,38,215,41,48,40,209,35*73\r\n
$GLGSV,3,1,10,68,02,200,,69,28,241,,70,24,310,,78,31,075,*66\r\n
$GLGSV,3,2,10,79,58,002,,80,24,300,,81,45,123,,82,14,167,*6E\r\n
$GLGSV,3,3,10,87,00,015,,88,35,049,*64\r\n
\xb5b\n\t<\0\0\xf4\x01\0\0\0\0\0\0\0\x01\0\xef\xff\0\0g\0\xaa\n\x02\x01\t\x84\xff\xeb\x01\0\n\v\f\r\x0e\x0f\x01\0\x02\x03\xff\x10\xff\x12\x1365S\xcf^\0\0\0\0\x80\xf7\0\0\0\0\0\0\xafJ
\xb5b\r\x01\x10\0P4s\x17\0\0\0\0f\v\0\0\xd6\b\n\0\x85\xb9
\xb5b\x01\a\\\0h0s\x17\xe7\a\x05\x12\r\x10/7\x10\0\0\0-\xf1\xfd\xff\x03\x03\n\f\x04\xdeR\xc1\xab\x1e\xb8\x17\f\xd6\x19\0\b*\x1a\0Z\n\0\0\x89\x0f\0\0\r\0\0\0\0\0\0\0\xf5\xff\xff\xff\r\0\0\0\xd7\xdd\xe4\x01\x14\x01\0\0\xea\x9e\x9e\0\x81\0\0\0\xe0J#\0\0\0\0\0\0\0\0\0\xd2\xdd
\xb5b\x01\x03\x10\0h0s\x17\x03\xdf\0\bl\xbc\0\09\x04;\x0e\xce+
\xb5b\x01 \x10\0h0s\x17,\xf1\xfd\xff\xd6\b\x12\a\x10\0\0\0sT
\xb5b\x01!\x14\0h0s\x17\x10\0\0\0-\xf1\xfd\xff\xe7\a\x05\x12\r\x10/7\n>
\xb5b\x01\"\x14\0h0s\x17\x83\xcc\xf2\xff;\xd6\xff\xff\t\0\0\0J\x04\0\0\xff\xdd
\xb5b\x01\t\x14\0\0\xd6\xff\xffh0s\x17\0\0\0\0\0\0\0\0\0\0\0\0\x14#
$GNRMC,131647.00,A,3947.65466,N,10509.20292,W,0.024,,180523,,,D*7C\r\n
$GNVTG,,T,,M,0.024,N,0.045,K,D*3F\r\n
$GNGGA,131647.00,3947.65466,N,10509.20292,W,2,12,0.73,1714.7,M,-21.5,M,,0000*45\r\n
$GNGSA,M,3,08,02,14,07,21,01,09,46,48,17,30,13,1.29,0.73,1.07*12\r\n
$GNGSA,M,3,,,,,,,,,,,,,1.29,0.73,1.07*18\r\n
$GPGSV,4,1,14,01,20,118,25,02,09,039,21,07,60,115,39,08,27,046,21*75\r\n
$GPGSV,4,2,14,09,11,177,34,13,30,310,32,14,59,288,28,15,05,324,19*7A\r\n
$GPGSV,4,3,14,17,31,201,39,19,06,207,,21,26,087,26,30,82,340,33*7F\r\n
$GPGSV,4,4,14,46,38,215,41,48,40,209,35*73\r\n
$GLGSV,3,1,10,68,02,200,,69,28,241,,70,24,310,,78,31,075,*66\r\n
$GLGSV,3,2,10,79,58,002,,80,24,300,,81,45,123,,82,14,167,*6E\r\n
$GLGSV,3,3,10,87,00,015,,88,35,049,*64\r\n
\xb5b\n\t<\0\0\xf4\x01\0\0\0\0\0\0\0\x01\0\xef\xf7\0\0g\0\xaa\n\x02\x01\t\x84\xff\xeb\x01\0\n\v\f\r\x0e\x0f\x01\0\x02\x03\xff\x10\xff\x12\x1365B\x9f^\0\0\0\0\x80\xf7\0\0\0\0\0\0f3
\xb5b\r\x01\x10\0 <s\x17\0\0\0\0\xac\xd7\xff\xff\xd6\b\n\0m\xea
\xb5b\x01\a\\\0P4s\x17\xe7\a\x05\x12\r\x1007\x10\0\0\0\xf3\x1a\xfe\xff\x03\x03\n\f\x02\xdeR\xc1\xb0\x1e\xb8\x17\x99\xd5\x19\0\x95)\x1a\0^\n\0\0\x91\x0f\0\0\xff\xff\xff\xff\xf3\xff\xff\xff\xfd\xff\xff\xff\r\0\0\0\xd7\xdd\xe4\x01\x1e\x01\0\0\xc2\xa3\x9e\0\x81\0\0\0\xe0J#\0\0\0\0\0\0\0\0\0\xa4y
\xb5b\x01\x03\x10\0P4s\x17\x03\xdf\0\bl\xbc\0\0!\b;\x0e\xa6\x93
\xb5b\x01 \x10\0P4s\x17\xf1\x1a\xfe\xff\xd6\b\x12\a\x10\0\0\0N\x19
\xb5b\x01!\x14\0P4s\x17\x10\0\0\0\xf3\x1a\xfe\xff\xe7\a\x05\x12\r\x1007\xe7\xc1
\xb5b\x01\"\x14\0P4s\x17\xbd\xa2\xf2\xff:\xd6\xff\xff\t\0\0\0C\x04\0\0\xf3K
\xb5b\x01\t\x14\0\0\xd6\xff\xffP4s\x17\0\0\0\0\0\0\0\0\0\0\0\0\0\xdf
$GNRMC,131648.00,A,3947.65469,N,10509.20293,W,0.026,,180523,,,D*7F\r\n
$GNVTG,,T,,M,0.026,N,0.048,K,D*30\r\n
$GNGGA,131648.00,3947.65469,N,10509.20293,W,2,12,0.73,1714.6,M,-21.5,M,,0000*45\r\n
$GNGSA,M,3,08,02,14,07,21,01,09,46,48,17,30,13,1.29,0.73,1.07*12\r\n
$GNGSA,M,3,,,,,,,,,,,,,1.29,0.73,1.07*18\r\n
$GPGSV,4,1,14,01,20,118,25,02,09,039,21,07,60,115,39,08,27,046,21*75\r\n
$GPGSV,4,2,14,09,11,177,34,13,30,310,32,14,59,288,28,15,05,324,19*7A\r\n
$GPGSV,4,3,14,17,31,201,39,19,06,207,,21,26,087,27,30,82,340,33*7E\r\n
$GPGSV,4,4,14,46,38,215,41,48,40,209,35*73\r\n
$GLGSV,3,1,10,68,02,200,,69,28,241,,70,24,310,,78,31,075,23*67\r\n
$GLGSV,3,2,10,79,58,002,,80,24,300,,81,45,123,,82,14,167,*6E\r\n
$GLGSV,3,3,10,87,00,015,,88,35,049,*64\r\n
\xb5b\n\t<\0\0\xf4\x01\0\0\0\0\0\0\0\x01\0\xef\xff\0\0g\0\xaa\n\x02\x01\t\x84\xff\xeb\x01\0\n\v\f\r\x0e\x0f\x01\0\x02\x03\xff\x10\xff\x12\x1365T\xef^\0\0\0\0\x80\xf7\0\0\0\0\0\0\xd0\x19
\xb5b\r\x01\x10\0 <s\x17\0\0\0\0\x90\xd9\xff\xff\xd6\b\n\0S\x18
\xb5b\x01\a\\\088s\x17\xe7\a\x05\x12\r\x1017\x10\0\0\0\xb9D\xfe\xff\x03\x03\n\f\x02\xdeR\xc1\xb3\x1e\xb8\x17\x17\xd5\x19\0\x13)\x1a\0e\n\0\0\x99\x0f\0\0\b\0\0\0\x0f\0\0\0\x11\0\0\0\x11\0\0\0\xd7\xdd\xe4\x01t\x01\0\0\n\xaa\x9e\0\x81\0\0\0\xe0J#\0\0\0\0\0\0\0\0\0z8
\xb5b\x01\x03\x10\088s\x17\x03\xdf\0\bl\xbc\0\0\t\f;\x0e~\xfb
\xb5b\x01 \x10\088s\x17\xb7D\xfe\xff\xd6\b\x12\a\x10\0\0\0*\xeb
\xb5b\x01!\x14\088s\x17\x10\0\0\0\xb9D\xfe\xff\xe7\a\x05\x12\r\x1017\xc4E
\xb5b\x01\"\x14\088s\x17\xf8x\xf2\xff;\xd6\xff\xff\t\0\0\0H\x04\0\0\xf6\x11
\xb5b\x01\t\x14\0\0\xd6\xff\xff88s\x17\0\0\0\0\0\0\0\0\0\0\0\0\xec\x9b
$GNRMC,131649.00,A,3947.65471,N,10509.20293,W,0.033,,180523,,,D*73\r\n
$GNVTG,,T,,M,0.033,N,0.061,K,D*3F\r\n
$GNGGA,131649.00,3947.65471,N,10509.20293,W,2,12,0.73,1714.5,M,-21.5,M,,0000*4E\r\n
$GNGSA,M,3,08,02,14,07,21,01,09,46,48,17,30,13,1.29,0.73,1.07*12\r\n
$GNGSA,M,3,,,,,,,,,,,,,1.29,0.73,1.07*18\r\n
$GPGSV,4,1,14,01,20,118,25,02,09,039,22,07,60,115,39,08,27,046,20*77\r\n
$GPGSV,4,2,14,09,11,177,34,13,30,310,31,14,59,288,28,15,05,324,20*73\r\n
$GPGSV,4,3,14,17,31,201,39,19,06,207,,21,26,087,27,30,82,340,33*7E\r\n
$GPGSV,4,4,14,46,38,215,41,48,40,209,35*73\r\n
$GLGSV,3,1,10,68,02,200,,69,28,241,,70,24,310,,78,31,075,25*61\r\n
$GLGSV,3,2,10,79,58,002,,80,24,300,,81,45,123,,82,14,167,*6E\r\n
$GLGSV,3,3,10,87,00,015,,88,35,049,*64\r\n
\xb5b\n\t<\0\0\xf4\x01\0\0\0\0\0\0\0\x01\0\xef\xf7\0\0h\0\xaa\n\x02\x01\t\x84\xff\xeb\x01\0\n\v\f\r\x0e\x0f\x01\0\x02\x03\xff\x10\xff\x12\x1365Z\x9f^\0\0\0\0\x80\xf7\0\0\0\0\0\0\x7f\xc7
\xb5b\r\x01\x10\0\xf0Cs\x17\0\0\0\0>\xfd\xff\xff\xd6\b\n\0\xfc\xed
\xb5b\x01\a\\\0 <s\x17\xe7\a\x05\x12\r\x1027\x10\0\0\0\x7fn\xfe\xff\x03\x03\n\f\xff\xddR\xc1\xbc\x1e\xb8\x17\x11\xd4\x19\0\r(\x1a\0l\n\0\0\xa2\x0f\0\0>\0\0\0\xf1\xff\xff\xffS\0\0\0@\0\0\0\xd7\xdd\xe4\x01\x95\x01\0\0\xe4\xb0\x9e\0\x81\0\0\0\xe0J#\0\0\0\0\0\0\0\0\0\xe5o
\xb5b\x01\x03\x10\0 <s\x17\x03\xdf\0\bl\xbc\0\0\xf1\x0f;\x0eU`
\xb5b\x01 \x10\0 <s\x17}n\xfe\xff\xd6\b\x12\a\x10\0\0\0\x06\xbd
\xb5b\x01!\x14\0 <s\x17\x10\0\0\0\x7fn\xfe\xff\xe7\a\x05\x12\r\x1027\xa1\xc9
\xb5b\x01\"\x14\0 <s\x172O\xf2\xff;\xd6\xff\xff\t\0\0\0I\x04\0\0\xf4\xba
\xb5b\x01\t\x14\0\0\xd6\xff\xff <s\x17\0\0\0\0\0\0\0\0\0\0\0\0\xd8W
$GNRMC,131650.00,A,3947.65476,N,10509.20295,W,0.124,,180523,,,D*7D\r\n
$GNVTG,,T,,M,0.124,N,0.230,K,D*3E\r\n
$GNGGA,131650.00,3947.65476,N,10509.20295,W,2,12,0.73,1714.2,M,-21.5,M,,0000*40\r\n
$GNGSA,M,3,08,02,14,07,21,01,09,46,48,17,30,13,1.29,0.73,1.07*12\r\n
$GNGSA,M,3,,,,,,,,,,,,,1.29,0.73,1.07*18\r\n
$GPGSV,4,1,14,01,20,118,25,02,09,039,21,07,60,115,39,08,27,046,20*74\r\n
$GPGSV,4,2,14,09,11,177,34,13,30,310,31,14,59,288,28,15,05,324,20*73\r\n
$GPGSV,4,3,14,17,31,201,39,19,06,207,,21,26,087,27,30,82,340,33*7E\r\n
$GPGSV,4,4,14,46,38,215,41,48,40,209,35*73\r\n
$GLGSV,3,1,10,68,02,200,,69,28,241,,70,24,310,,78,31,075,*66\r\n
$GLGSV,3,2,10,79,58,003,,80,24,300,,81,45,123,,82,14,167,*6F\r\n
$GLGSV,3,3,10,87,00,015,,88,35,049,*64\r\n
\xb5b\n\t<\0\0\xf4\x01\0\0\0\0\0\0\0\x01\0\xef\xff\0\0g\0\xaa\n\x02\x01\t\x84\xff\xeb\x01\0\n\v\f\r\x0e\x0f\x01\0\x02\x03\xff\x10\xff\x12\x1365B\xef^\0\0\0\0\x80\xf7\0\0\0\0\0\0\xbe\v
\xb5b\r\x01\x10\0\xf0Cs\x17\0\0\0\0\xed\x02\0\0\xd6\b\n\0\xb2\x93
\xb5b\x01\a\\\0\b@s\x17\xe7\a\x05\x12\r\x1037\x10\0\0\0C\x98\xfe\xff\x03\x03\n\f\xff\xddR\xc1\xc3\x1e\xb8\x17\\\xd3\x19\0X\'\x1a\0o\n\0\0\xa9\x0f\0\0H\0\0\0\x10\0\0\0[\0\0\0I\0\0\0\xd7\xdd\xe4\x01\x8f\x01\0\0\xa2\xb7\x9e\0\x81\0\0\0\xe0J#\0\0\0\0\0\0\0\0\0aP
\xb5b\x01\x03\x10\0\b@s\x17\x03\xdf\0\bl\xbc\0\0\xd9\x13;\x0e-\xc8
\xb5b\x01 \x10\0\b@s\x17B\x98\xfe\xff\xd6\b\x12\a\x10\0\0\0\xe1\x83
\xb5b\x01!\x14\0\b@s\x17\x10\0\0\0C\x98\xfe\xff\xe7\a\x05\x12\r\x1037|5
\xb5b\x01\"\x14\0\b@s\x17m%\xf2\xff<\xd6\xff\xff\t\0\0\0<\x04\0\0\xe58
\xb5b\x01\t\x14\0\0\xd6\xff\xff\b@s\x17\0\0\0\0\0\0\0\0\0\0\0\0\xc4\x13
$GNRMC,131651.00,A,3947.65480,N,10509.20295,W,0.143,,180523,,,D*74\r\n
$GNVTG,,T,,M,0.143,N,0.264,K,D*3E\r\n
$GNGGA,131651.00,3947.65480,N,10509.20295,W,2,12,0.73,1714.0,M,-21.5,M,,0000*4A\r\n
$GNGSA,M,3,08,02,14,07,21,01,09,46,48,17,30,13,1.29,0.73,1.07*12\r\n
$GNGSA,M,3,,,,,,,,,,,,,1.29,0.73,1.07*18\r\n
$GPGSV,4,1,14,01,20,118,26,02,09,039,21,07,60,115,39,08,27,046,20*77\r\n
$GPGSV,4,2,14,09,11,177,34,13,30,310,32,14,59,288,28,15,05,324,19*7A\r\n
$GPGSV,4,3,14,17,31,201,39,19,06,207,,21,26,087,27,30,82,340,33*7E\r\n
$GPGSV,4,4,14,46,38,215,41,48,40,209,35*73\r\n
$GLGSV,3,1,10,68,02,200,,69,28,241,,70,24,310,,78,31,075,35*60\r\n
$GLGSV,3,2,10,79,58,003,,80,25,300,,81,45,123,,82,14,167,*6E\r\n
$GLGSV,3,3,10,87,00,015,,88,35,049,*64\r\n
\xb5b\n\t<\0\0\xf4\x01\0\0\0\0\0\0\0\x01\0\xef\xf7\0\0h\0\xaa\n\x02\x01\t\x84\xff\xeb\x01\0\n\v\f\r\x0e\x0f\x01\0\x02\x03\xff\x10\xff\x12\x1365\\\xef^\0\0\0\0\x80\xf7\0\0\0\0\0\0\xd1E
\xb5b\r\x01\x10\0\xc0Ks\x17\0\0\0\0\xef%\0\0\xd6\b\n\0\xaf\x10
\xb5b\x01\a\\\0\xf0Cs\x17\xe7\a\x05\x12\r\x1047\x10\0\0\0\b\xc2\xfe\xff\x03\x03\n\f\x01\xdeR\xc1\xcb\x1e\xb8\x17\xa7\xd2\x19\0\xa3&\x1a\0q\n\0\0\xa9\x0f\0\0\r\0\0\0\x04\0\0\07\0\0\0\x0e\0\0\0\xd7\xdd\xe4\x01\x9f\x01\0\0\xa6\xbe\x9e\0\x81\0\0\0\xe0J#\0\0\0\0\0\0\0\0\0R{
\xb5b\x01\x03\x10\0\xf0Cs\x17\x03\xdf\0\bl\xbc\0\0\xc1\x17;\x0e\x04!
\xb5b\x01 \x10\0\xf0Cs\x17\a\xc2\xfe\xff\xd6\b\x12\a\x10\0\0\0\xbb:
\xb5b\x01!\x14\0\xf0Cs\x17\x10\0\0\0\b\xc2\xfe\xff\xe7\a\x05\x12\r\x1047W\x9a
\xb5b\x01\"\x14\0\xf0Cs\x17\xa8\xfb\xf1\xff;\xd6\xff\xff\t\0\0\07\x04\0\0\xda\x9d
\xb5b\x01\t\x14\0\0\xd6\xff\xff\xf0Cs\x17\0\0\0\0\0\0\0\0\0\0\0\0\xaf\xc0
$GNRMC,131652.00,A,3947.65485,N,10509.20294,W,0.027,,180523,,,D*70\r\n
$GNVTG,,T,,M,0.027,N,0.050,K,D*38\r\n
$GNGGA,131652.00,3947.65485,N,10509.20294,W,2,12,0.73,1713.8,M,-21.5,M,,0000*42\r\n
$GNGSA,M,3,08,02,14,07,21,01,09,46,48,17,30,13,1.29,0.73,1.07*12\r\n
$GNGSA,M,3,,,,,,,,,,,,,1.29,0.73,1.07*18\r\n
$GPGSV,4,1,14,01,20,118,26,02,09,039,20,07,60,115,39,08,27,046,19*7C\r\n
$GPGSV,4,2,14,09,11,177,35,13,30,310,32,14,59,288,28,15,05,324,19*7B\r\n
$GPGSV,4,3,14,17,31,201,39,19,06,207,,21,26,087,27,30,82,340,33*7E\r\n
$GPGSV,4,4,14,46,38,215,41,48,40,209,35*73\r\n
$GLGSV,3,1,10,68,02,200,,69,28,241,,70,24,310,,78,31,075,*66\r\n
$GLGSV,3,2,10,79,58,003,,80,25,300,,81,46,123,,82,14,167,*6D\r\n
$GLGSV,3,3,10,87,00,015,,88,35,049,*64\r\n
\xb5b\n\t<\0\0\xf4\x01\0\0\0\0\0\0\0\x01\0\xef\xff\0\0h\0\xaa\n\x02\x01\t\x84\xff\xeb\x01\0\n\v\f\r\x0e\x0f\x01\0\x02\x03\xff\x10\xff\x12\x1365\\\xef^\0\0\0\0\x80\xf7\0\0\0\0\0\0\xd9\xbd
\xb5b\r\x01\x10\0\xc0Ks\x17\0\0\0\0\xcb\x11\0\0\xd6\b\n\0wd
\xb5b\x01\a\\\0\xd8Gs\x17\xe7\a\x05\x12\r\x1057\x10\0\0\0\xd0\xeb\xfe\xff\x03\x03\n\f\x03\xdeR\xc1\xd1\x1e\xb8\x17R\xd2\x19\0N&\x1a\0q\n\0\0\xb0\x0f\0\0\xd3\xff\xff\xff\xf3\xff\xff\xff\xda\xff\xff\xff/\0\0\0\xd7\xdd\xe4\x01s\x01\0\0\xec\xc4\x9e\0\x81\0\0\0\xe0J#\0\0\0\0\0\0\0\0\0%\xb0
\xb5b\x01\x03\x10\0\xd8Gs\x17\x03\xdf\0\bl\xbc\0\0\xa9\x1b;\x0e\xdc\x89
\xb5b\x01 \x10\0\xd8Gs\x17\xce\xeb\xfe\xff\xd6\b\x12\a\x10\0\0\0\x97\r
\xb5b\x01!\x14\0\xd8Gs\x17\x10\0\0\0\xd0\xeb\xfe\xff\xe7\a\x05\x12\r\x10575+
\xb5b\x01\"\x14\0\xd8Gs\x17\xe1\xd1\xf1\xff7\xd6\xff\xff\t\0\0\06\x04\0\0\xd0\xef
\xb5b\x01\t\x14\0\0\xd6\xff\xff\xd8Gs\x17\0\0\0\0\0\0\0\0\0\0\0\0\x9b|
$GNRMC,131653.00,A,3947.65489,N,10509.20293,W,0.090,,180523,,,D*76\r\n
$GNVTG,,T,,M,0.090,N,0.168,K,D*3E\r\n
$GNGGA,131653.00,3947.65489,N,10509.20293,W,2,12,0.73,1713.7,M,-21.5,M,,0000*47\r\n
$GNGSA,M,3,08,02,14,07,21,01,09,46,48,17,30,13,1.29,0.73,1.07*12\r\n
$GNGSA,M,3,,,,,,,,,,,,,1.29,0.73,1.07*18\r\n
$GPGSV,4,1,14,01,20,118,26,02,09,039,20,07,60,115,39,08,27,046,19*7C\r\n
$GPGSV,4,2,14,09,11,177,34,13,30,310,32,14,59,288,28,15,05,324,18*7B\r\n
$GPGSV,4,3,14,17,31,201,40,19,06,207,,21,26,087,28,30,82,340,33*7F\r\n
$GPGSV,4,4,14,46,38,215,41,48,40,209,35*73\r\n
$GLGSV,3,1,10,68,02,200,,69,28,241,,70,24,310,,78,31,075,*66\r\n
$GLGSV,3,2,10,79,58,003,,80,25,300,,81,46,123,,82,14,167,*6D\r\n
$GLGSV,3,3,10,87,00,015,,88,35,049,*64\r\n
\xb5b\n\t<\0\0\xf4\x01\0\0\0\0\0\0\0\x01\0\xef\xf7\0\0h\0\xaa\n\x02\x01\t\x84\xff\xeb\x01\0\n\v\f\r\x0e\x0f\x01\0\x02\x03\xff\x10\xff\x12\x1365M\xef^\0\0\0\0\x80\xf7\0\0\0\0\0\0\xc2d
\xb5b\r\x01\x10\0\x90Ss\x17\0\0\0\03\xf6\xff\xff\xd6\b\n\0\x9aT
\xb5b\x01\a\\\0\xc0Ks\x17\xe7\a\x05\x12\r\x1067\x10\0\0\0\x9a\x15\xff\xff\x03\x03\n\f\a\xdeR\xc1\xd1\x1e\xb8\x17<\xd2\x19\08&\x1a\0o\n\0\0\xb7\x0f\0\0\xf6\xff\xff\xff\x04\0\0\0\xd5\xff\xff\xff\v\0\0\0\xd7\xdd\xe4\x01\x9f\x01\0\0\xee\xcb\x9e\0\x81\0\0\0\xe0J#\0\0\0\0\0\0\0\0\0\'\x15
\xb5b\x01\x03\x10\0\xc0Ks\x17\x03\xdf\0\bl\xbc\0\0\x91\x1f;\x0e\xb4\xf1
\xb5b\x01 \x10\0\xc0Ks\x17\x99\x15\xff\xff\xd6\b\x12\a\x10\0\0\0y%
\xb5b\x01!\x14\0\xc0Ks\x17\x10\0\0\0\x9a\x15\xff\xff\xe7\a\x05\x12\r\x1067\x17\xe9
\xb5b\x01\"\x14\0\xc0Ks\x17\x16\xa8\xf1\xff4\xd6\xff\xff\t\0\0\0=\x04\0\0\xcc<
\xb5b\x01\t\x14\0\0\x06\x02 \xc0Ks\x17\0\0\0\0\0\0\0\0\0\0\0\0\xdb/
$GNRMC,131654.00,A,3947.65489,N,10509.20290,W,0.021,,180523,,,D*78\r\n
$GNVTG,,T,,M,0.021,N,0.038,K,D*30\r\n
$GNGGA,131654.00,3947.65489,N,10509.20290,W,2,12,0.73,1713.7,M,-21.5,M,,0000*43\r\n
$GNGSA,M,3,08,02,14,07,21,01,09,46,48,17,30,13,1.29,0.73,1.07*12\r\n
$GNGSA,M,3,,,,,,,,,,,,,1.29,0.73,1.07*18\r\n
$GPGSV,4,1,14,01,20,118,26,02,09,039,20,07,60,115,39,08,27,046,19*7C\r\n
$GPGSV,4,2,14,09,11,177,34,13,30,310,32,14,59,288,29,15,05,324,18*7A\r\n
$GPGSV,4,3,14,17,31,201,40,19,06,207,,21,26,087,28,30,82,340,33*7F\r\n
$GPGSV,4,4,14,46,38,215,41,48,40,209,35*73\r\n
$GLGSV,3,1,10,68,02,200,,69,28,241,,70,24,310,,78,31,075,*66\r\n
$GLGSV,3,2,10,79,58,003,,80,25,300,,81,46,123,,82,14,167,*6D\r\n
$GLGSV,3,3,10,87,00,015,,88,35,049,*64\r\n
\xb5b\n\t<\0\0\xf4\x01\0\0\0\0\0\0\0\x01\0\xef\xff\0\0h\0\xaa\n\x02\x01\t\x84\xff\xeb\x01\0\n\v\f\r\x0e\x0f\x01\0\x02\x03\xff\x10\xff\x12\x1365[\x9f^\0\0\0\0\x80\xf7\0\0\0\0\0\0\x88N
\xb5b\r\x01\x10\0\x90Ss\x17\0\0\0\0T\xf2\xff\xff\xd6\b\n\0\xb7@
\xb5b\x01\a\\\0\xa8Os\x17\xe7\a\x05\x12\r\x1077\x10\0\0\0g\?\xff\xff\x03\x03\n\f\a\xdeR\xc1\xd2\x1e\xb8\x17&\xd2\x19\0\"&\x1a\0n\n\0\0\xb7\x0f\0\0\xf9\xff\xff\xff\xfe\xff\xff\xff\xe4\xff\xff\xff\a\0\0\0\xd7\xdd\xe4\x01\xa1\x01\0\0\xfc\xd2\x9e\0\x81\0\0\0\xe0J#\0\0\0\0\0\0\0\0\0\xfb\xfc
\xb5b\x01\x03\x10\0\xa8Os\x17\x03\xdf\0\bl\xbc\0\0y#;\x0e\x8cY
\xb5b\x01 \x10\0\xa8Os\x17e\?\xff\xff\xd6\b\x12\a\x10\0\0\0[\?
\xb5b\x01!\x14\0\xa8Os\x17\x10\0\0\0g\?\xff\xff\xe7\a\x05\x12\r\x1077\xfb\xc1
\xb5b\x01\"\x14\0\xa8Os\x17I~\xf1\xff3\xd6\xff\xff\t\0\0\0<\x04\0\0\xbfR
\xb5b\x01\t\x14\0\0\xd6\xff\xff\xa8Os\x17\0\0\0\0\0\0\0\0\0\0\0\0s\xf4
$GNRMC,131655.00,A,3947.65489,N,10509.20290,W,0.014,,180523,,,D*7F\r\n
$GNVTG,,T,,M,0.014,N,0.026,K,D*39\r\n
$GNGGA,131655.00,3947.65489,N,10509.20290,W,2,12,0.73,1713.7,M,-21.5,M,,0000*42\r\n
$GNGSA,M,3,08,02,14,07,21,01,09,46,48,17,30,13,1.29,0.73,1.07*12\r\n
$GNGSA,M,3,,,,,,,,,,,,,1.29,0.73,1.07*18\r\n
$GPGSV,4,1,14,01,20,118,26,02,09,039,20,07,60,115,39,08,27,046,20*76\r\n
$GPGSV,4,2,14,09,11,177,35,13,30,310,32,14,59,288,28,15,05,324,18*7A\r\n
$GPGSV,4,3,14,17,31,201,40,19,06,207,,21,26,087,28,30,82,340,33*7F\r\n
$GPGSV,4,4,14,46,38,215,41,48,40,209,35*73\r\n
$GLGSV,3,1,10,68,02,200,,69,28,241,,70,24,310,,78,31,075,*66\r\n
$GLGSV,3,2,10,79,58,003,,80,25,300,,81,46,123,,82,14,167,*6D\r\n
$GLGSV,3,3,10,87,00,015,,88,35,049,*64\r\n
\xb5b\n\t<\0\0\xf4\x01\0\0\0\0\0\0\0\x01\0\xef\xf7\0\0h\0\xaa\n\x02\x01\t\x84\xff\xeb\x01\0\n\v\f\r\x0e\x0f\x01\0\x02\x03\xff\x10\xff\x12\x1365E\xe9^\0\0\0\0\x80\xf7\0\0\0\0\0\0\xb4\x98
\xb5b\r\x01\x10\0`[s\x17\0\0\0\0^\xd7\xff\xff\xd6\b\n\0~K
\xb5b\x01\a\\\0\x90Ss\x17\xe7\a\x05\x12\r\x1087\x10\0\0\04i\xff\xff\x03\x03\n\f\n\xdeR\xc1\xd0\x1e\xb8\x17\r\xd2\x19\0\t&\x1a\0l\n\0\0\xb7\x0f\0\0\xfd\xff\xff\xff\xe3\xff\xff\xff\x02\0\0\0\x1d\0\0\0\xd7\xdd\xe4\x01\a\x01\0\0n\xd7\x9e\0\x81\0\0\0\xe0J#\0\0\0\0\0\0\0\0\0\xa9\x81
\xb5b\x01\x03\x10\0\x90Ss\x17\x03\xdf\0\bl\xbc\0\0a\';\x0ed\xc1
\xb5b\x01 \x10\0\x90Ss\x173i\xff\xff\xd6\b\x12\a\x10\0\0\0\?q
\xb5b\x01!\x14\0\x90Ss\x17\x10\0\0\04i\xff\xff\xe7\a\x05\x12\r\x1087\xdf\x99
\xb5b\x01\"\x14\0\x90Ss\x17|T\xf1\xff3\xd6\xff\xff\t\0\0\09\x04\0\0\xb1l
\xb5b\x01\t\x14\0\0\x06\x02 \x90Ss\x17\0\0\0\0\0\0\0\0\0\0\0\0\xb3\xa7
$GNRMC,131656.00,A,3947.65488,N,10509.20289,W,0.057,,180523,,,D*72\r\n
$GNVTG,,T,,M,0.057,N,0.105,K,D*3E\r\n
$GNGGA,131656.00,3947.65488,N,10509.20289,W,2,12,0.73,1713.7,M,-21.5,M,,0000*48\r\n
$GNGSA,M,3,08,02,14,07,21,01,09,46,48,17,30,13,1.29,0.73,1.07*12\r\n
$GNGSA,M,3,,,,,,,,,,,,,1.29,0.73,1.07*18\r\n
$GPGSV,4,1,14,01,20,118,26,02,09,039,20,07,60,115,39,08,27,046,19*7C\r\n
$GPGSV,4,2,14,09,11,177,35,13,30,310,32,14,59,288,28,15,05,324,18*7A\r\n
$GPGSV,4,3,14,17,31,201,40,19,06,207,,21,26,087,28,30,82,340,33*7F\r\n
$GPGSV,4,4,14,46,38,215,41,48,40,209,35*73\r\n
$GLGSV,3,1,10,68,02,200,,69,28,241,,70,24,310,,78,31,075,*66\r\n
$GLGSV,3,2,10,79,58,003,,80,25,300,,81,46,123,,82,14,167,*6D\r\n
$GLGSV,3,3,10,87,00,015,,88,35,049,*64\r\n
\xb5b\n\t<\0\0\xf4\x01\0\0\0\0\0\0\0\x01\0\xef\xff\0\0h\0\xaa\n\x02\x01\t\x84\xff\xeb\x01\0\n\v\f\r\x0e\x0f\x01\0\x02\x03\xff\x10\xff\x12\x13656\xef^\0\0\0\0\x80\xf7\0\0\0\0\0\0\xb3\x83
\xb5b\r\x01\x10\0`[s\x17\0\0\0\0&\xd8\xff\xff\xd6\b\n\0G\x92
\xb5b\x01\a\\\0xWs\x17\xe7\a\x05\x12\r\x1097\x10\0\0\0\x01\x93\xff\xff\x03\x03\n\f\x0e\xdeR\xc1\xcb\x1e\xb8\x17)\xd2\x19\0%&\x1a\0l\n\0\0\xb8\x0f\0\0\xec\xff\xff\xff\x05\0\0\0\xf0\xff\xff\xff\x14\0\0\0\xd7\xdd\xe4\x01v\x01\0\0\xbe\xdd\x9e\0\x81\0\0\0\xe0J#\0\0\0\0\0\0\0\0\0\x80[
\xb5b\x01\x03\x10\0xWs\x17\x03\xdf\0\bl\xbc\0\0I+;\x0e<)
\xb5b\x01 \x10\0xWs\x17\0\x93\xff\xff\xd6\b\x12\a\x10\0\0\0\"\x97
\xb5b\x01!\x14\0xWs\x17\x10\0\0\0\x01\x93\xff\xff\xe7\a\x05\x12\r\x1097\xc3q
\xb5b\x01\"\x14\0xWs\x17\xaf*\xf1\xff2\xd6\xff\xff\t\0\0\0\?\x04\0\0\xab\x9e
\xb5b\x01\t\x14\0\0\xd6\xff\xffxWs\x17\0\0\0\0\0\0\0\0\0\0\0\0Kl
$GNRMC,131657.00,A,3947.65485,N,10509.20286,W,0.040,,180523,,,D*77\r\n
$GNVTG,,T,,M,0.040,N,0.073,K,D*38\r\n
$GNGGA,131657.00,3947.65485,N,10509.20286,W,2,12,0.73,1713.7,M,-21.5,M,,0000*4B\r\n
$GNGSA,M,3,08,02,14,07,21,01,09,46,48,17,30,13,1.29,0.73,1.07*12\r\n
$GNGSA,M,3,,,,,,,,,,,,,1.29,0.73,1.07*18\r\n
$GPGSV,4,1,14,01,20,118,27,02,09,039,20,07,60,115,39,08,27,046,21*76\r\n
$GPGSV,4,2,14,09,11,177,35,13,30,310,32,14,59,288,28,15,05,324,17*75\r\n
$GPGSV,4,3,14,17,31,201,40,19,06,207,,21,26,087,27,30,82,340,33*70\r\n
$GPGSV,4,4,14,46,38,215,41,48,40,209,35*73\r\n
$GLGSV,3,1,10,68,02,200,,69,28,241,,70,24,310,,78,31,075,*66\r\n
$GLGSV,3,2,10,79,58,003,,80,25,300,,81,46,123,,82,14,167,*6D\r\n
$GLGSV,3,3,10,87,00,015,,88,35,049,*64\r\n
\xb5b\n\t<\0\0\xf4\x01\0\0\0\0\0\0\0\x01\0\xef\xf7\0\0h\0\xaa\n\x02\x01\t\x84\xff\xeb\x01\0\n\v\f\r\x0e\x0f\x01\0\x02\x03\xff\x10\xff\x12\x1365Y\x9f^\0\0\0\0\x80\xf7\0\0\0\0\0\0~\xb8
\xb5b\r\x01\x10\00cs\x17\0\0\0\0X\x1c\0\0\xd6\b\n\0\x97\x81
\xb5b\x01\a\\\0`[s\x17\xe7\a\x05\x12\r\x10:7\x10\0\0\0\xce\xbc\xff\xff\x03\x03\n\f\x17\xdeR\xc1\xcb\x1e\xb8\x176\xd2\x19\02&\x1a\0i\n\0\0\xb5\x0f\0\0#\0\0\0\x10\0\0\0\x11\0\0\0&\0\0\0\xd7\xdd\xe4\x01\?\x01\0\0\"\xe3\x9e\0\x81\0\0\0\xe0J#\0\0\0\0\0\0\0\0\0.\x82
\xb5b\x01\x03\x10\0`[s\x17\x03\xdf\0\bl\xbc\0\01/;\x0e\x14\x91
\xb5b\x01 \x10\0`[s\x17\xcd\xbc\xff\xff\xd6\b\x12\a\x10\0\0\0\x04\xb2
\xb5b\x01!\x14\0`[s\x17\x10\0\0\0\xce\xbc\xff\xff\xe7\a\x05\x12\r\x10:7\xa6>
\xb5b\x01\"\x14\0`[s\x17\xe2\0\xf1\xff4\xd6\xff\xff\t\0\0\0\x1b\x04\0\0~L
\xb5b\x01\t\x14\0\0\x06\x02 `[s\x17\0\0\0\0\0\0\0\0\0\0\0\0\x8b\x1f
$GNRMC,131658.00,A,3947.65485,N,10509.20281,W,0.075,,180523,,,D*79\r\n
$GNVTG,,T,,M,0.075,N,0.138,K,D*30\r\n
$GNGGA,131658.00,3947.65485,N,10509.20281,W,2,12,0.73,1713.7,M,-21.5,M,,0000*43\r\n
$GNGSA,M,3,08,02,14,07,21,01,09,46,48,17,30,13,1.29,0.73,1.07*12\r\n
$GNGSA,M,3,,,,,,,,,,,,,1.29,0.73,1.07*18\r\n
$GPGSV,4,1,14,01,20,118,27,02,09,039,20,07,60,115,39,08,27,046,21*76\r\n
$GPGSV,4,2,14,09,11,177,35,13,30,310,32,14,59,288,28,15,05,324,17*75\r\n
$GPGSV,4,3,14,17,31,201,40,19,06,207,,21,26,087,27,30,82,340,33*70\r\n
$GPGSV,4,4,14,46,38,215,41,48,40,209,35*73\r\n
$GLGSV,3,1,09,68,02,200,,69,28,241,,70,24,310,,78,31,075,27*6B\r\n
$GLGSV,3,2,09,79,58,003,,80,25,300,,81,46,123,,82,14,167,*65\r\n
$GLGSV,3,3,09,88,35,049,*57\r\n
\xb5b\n\t<\0\0\xf4\x01\0\0\0\0\0\0\0\x01\0\xef\xff\0\0h\0\xaa\n\x02\x01\t\x84\xff\xeb\x01\0\n\v\f\r\x0e\x0f\x01\0\x02\x03\xff\x10\xff\x12\x1365M\xef^\0\0\0\0\x80\xf7\0\0\0\0\0\0\xca\xdc
\xb5b\r\x01\x10\00cs\x17\0\0\0\0r\xdf\xff\xff\xd6\b\n\0r\x9b
\xb5b\x01\a\\\0H_s\x17\xe7\a\x05\x12\r\x10;7\x10\0\0\0\x98\xe6\xff\xff\x03\x03\n\f\x1e\xdeR\xc1\xc9\x1e\xb8\x17p\xd2\x19\0l&\x1a\0f\n\0\0\xb2\x0f\0\0\x05\0\0\0\x06\0\0\0\x17\0\0\0\b\0\0\0\xd7\xdd\xe4\x01\x8f\x01\0\0\xe0\xe9\x9e\0\x81\0\0\0\xe0J#\0\0\0\0\0\0\0\0\0V\x88
\xb5b\x01\x03\x10\0H_s\x17\x03\xdf\0\bl\xbc\0\0\x193;\x0e\xec\xf9
\xb5b\x01 \x10\0H_s\x17\x97\xe6\xff\xff\xd6\b\x12\a\x10\0\0\0\xe4\xb4
\xb5b\x01!\x14\0H_s\x17\x10\0\0\0\x98\xe6\xff\xff\xe7\a\x05\x12\r\x10;7\x87\xf2
\xb5b\x01\"\x14\0H_s\x17\x18\xd7\xf0\xff7\xd6\xff\xff\t\0\0\0\x18\x04\0\0v\xbb
\xb5b\x01\t\x14\0\0\x06\x02 H_s\x17\0\0\0\0\0\0\0\0\0\0\0\0w\xdb
$GNRMC,131659.00,A,3947.65484,N,10509.20276,W,0.015,,180523,,,D*77\r\n
$GNVTG,,T,,M,0.015,N,0.027,K,D*39\r\n
$GNGGA,131659.00,3947.65484,N,10509.20276,W,2,12,0.73,1713.8,M,-21.5,M,,0000*44\r\n
$GNGSA,M,3,08,02,14,07,21,01,09,46,48,17,30,13,1.29,0.73,1.07*12\r\n
$GNGSA,M,3,,,,,,,,,,,,,1.29,0.73,1.07*18\r\n
$GPGSV,4,1,14,01,20,118,27,02,09,039,19,07,60,115,39,08,27,046,21*7C\r\n
$GPGSV,4,2,14,09,11,177,35,13,30,310,32,14,59,288,28,15,05,324,17*75\r\n
$GPGSV,4,3,14,17,31,201,40,19,06,207,,21,26,087,27,30,82,340,33*70\r\n
$GPGSV,4,4,14,46,38,215,41,48,40,209,35*73\r\n
$GLGSV,3,1,09,68,02,200,,69,28,241,,70,24,310,,78,31,075,*6E\r\n
$GLGSV,3,2,09,79,58,003,,80,25,300,,81,46,123,,82,14,167,*65\r\n
$GLGSV,3,3,09,88,34,048,*57\r\n
\xb5b\n\t<\0\0\xf4\x01\0\0\0\0\0\0\0\x01\0\xef\xf7\0\0h\0\xaa\n\x02\x01\t\x84\xff\xeb\x01\0\n\v\f\r\x0e\x0f\x01\0\x02\x03\xff\x10\xff\x12\x1365X\xef^\0\0\0\0\x80\xf7\0\0\0\0\0\0\xcd\t
\xb5b\r\x01\x10\0\0ks\x17\0\0\0\0\x9f\xf8\xff\xff\xd6\b\n\0\x90*
\xb5b\x01\a\\\00cs\x17\xe7\a\x05\x12\r\x11\07\x10\0\0\0_\x10\0\0\x03\x03\n\f+\xdeR\xc1\xcb\x1e\xb8\x17\x94\xd2\x19\0\x90&\x1a\0c\n\0\0\xb0\x0f\0\0\b\0\0\0\x03\0\0\0!\0\0\0\t\0\0\0\xd7\xdd\xe4\x01\x99\x01\0\0\xc6\xf0\x9e\0\x81\0\0\0\xe0J#\0\0\0\0\0\0\0\0\0O\xff
\xb5b\x01\x03\x10\00cs\x17\x03\xdf\0\bl\xbc\0\0\x017;\x0e\xc4a
\xb5b\x01 \x10\00cs\x17_\x10\0\0\xd6\b\x12\a\x10\0\0\0\xc4\xb1
\xb5b\x01!\x14\00cs\x17\x10\0\0\0_\x10\0\0\xe7\a\x05\x12\r\x11\07, 
\xb5b\x01\"\x14\00cs\x17P\xad\xf0\xff9\xd6\xff\xff\t\0\0\0\x1c\x04\0\0vY
\xb5b\x01\t\x14\0\0\x06\x02 0cs\x17\0\0\0\0\0\0\0\0\0\0\0\0c\x97
$GNRMC,131700.00,A,3947.65485,N,10509.20269,W,0.017,,180523,,,D*77\r\n
$GNVTG,,T,,M,0.017,N,0.032,K,D*3F\r\n
$GNGGA,131700.00,3947.65485,N,10509.20269,W,2,12,0.73,1713.8,M,-21.5,M,,0000*46\r\n
$GNGSA,M,3,08,02,14,07,21,01,09,46,48,17,30,13,1.29,0.73,1.07*12\r\n
$GNGSA,M,3,,,,,,,,,,,,,1.29,0.73,1.07*18\r\n
$GPGSV,4,1,14,01,20,117,27,02,09,039,19,07,60,115,39,08,27,046,20*72\r\n
$GPGSV,4,2,14,09,11,177,35,13,30,310,32,14,59,288,28,15,05,324,16*74\r\n
$GPGSV,4,3,14,17,31,201,40,19,06,207,,21,26,087,27,30,82,340,33*70\r\n
$GPGSV,4,4,14,46,38,215,41,48,40,209,34*72\r\n
$GLGSV,3,1,09,68,02,200,,69,28,241,,70,24,310,,78,31,075,*6E\r\n
$GLGSV,3,2,09,79,58,003,,80,25,300,,81,46,123,,82,14,167,*65\r\n
$GLGSV,3,3,09,88,34,048,*57\r\n
\xb5b\n\t<\0\0\xf4\x01\0\0\0\0\0\0\0\x01\0\xef\xff\0\0h\0\xaa\n\x02\x01\t\x84\xff\xeb\x01\0\n\v\f\r\x0e\x0f\x01\0\x02\x03\xff\x10\xff\x12\x1365Z\xef^\0\0\0\0\x80\xf7\0\0\0\0\0\0\xd7\x9f
\xb5b\r\x01\x10\0\0ks\x17\0\0\0\0O\x04\0\0\xd6\b\n\0N\t
\xb5b\x01\a\\\0\x18gs\x17\xe7\a\x05\x12\r\x11\x017\x10\0\0\0%:\0\0\x03\x03\n\f2\xdeR\xc1\xd2\x1e\xb8\x17E\xd2\x19\0A&\x1a\0k\n\0\0\xc2\x0f\0\0B\0\0\0\xf9\xff\xff\xffB\0\0\0B\0\0\0\xd7\xdd\xe4\x01\x91\x01\0\0\x8a\xf7\x9e\0\x81\0\0\0\xe0J#\0\0\0\0\0\0\0\0\0\0\xd2
\xb5b\x01\x03\x10\0\x18gs\x17\x03\xdf\0\bl\xbc\0\0\xe9:;\x0e\x9b\xc6
\xb5b\x01 \x10\0\x18gs\x17%:\0\0\xd6\b\x12\a\x10\0\0\0\xa0\x83
\xb5b\x01!\x14\0\x18gs\x17\x10\0\0\0%:\0\0\xe7\a\x05\x12\r\x11\x017\t\xa4
\xb5b\x01\"\x14\0\x18gs\x17\xca\xc5\xff\xff;\xd6\xff\xff\t\0\0\0g\x04\0\0P\xe3
\xb5b\x01\t\x14\0\0\xd6\xff\xff\x18gs\x17\0\0\0\0\0\0\0\0\0\0\0\0\xfb\\
$GNRMC,131701.00,A,3947.65489,N,10509.20264,W,0.129,,180523,,,D*7B\r\n
$GNVTG,,T,,M,0.129,N,0.239,K,D*3A\r\n
$GNGGA,131701.00,3947.65489,N,10509.20264,W,2,12,0.73,1713.7,M,-21.5,M,,0000*49\r\n
$GNGSA,M,3,08,02,14,07,21,01,09,46,48,17,30,13,1.29,0.73,1.07*12\r\n
$GNGSA,M,3,,,,,,,,,,,,,1.29,0.73,1.07*18\r\n
$GPGSV,4,1,14,01,20,117,27,02,09,039,19,07,60,115,38,08,27,046,18*78\r\n
$GPGSV,4,2,14,09,11,177,34,13,30,310,32,14,59,288,28,15,05,324,16*75\r\n
$GPGSV,4,3,14,17,31,201,40,19,06,207,18,21,26,087,26,30,82,340,33*78\r\n
$GPGSV,4,4,14,46,38,215,41,48,40,209,34*72\r\n
$GLGSV,3,1,09,68,02,200,,69,28,241,,70,24,310,,78,31,075,*6E\r\n
$GLGSV,3,2,09,79,58,003,,80,25,300,,81,46,123,,82,14,167,*65\r\n
$GLGSV,3,3,09,88,34,048,*57\r\n
\xb5b\n\t<\0\0\xf4\x01\0\0\0\0\0\0\0\x01\0\xef\xf7\0\0h\0\xaa\n\x02\x01\t\x84\xff\xeb\x01\0\n\v\f\r\x0e\x0f\x01\0\x02\x03\xff\x10\xff\x12\x1365X\xef^\0\0\0\0\x80\xf7\0\0\0\0\0\0\xcd\t
\xb5b\r\x01\x10\0\xd0rs\x17\0\0\0\0\xd1\xda\xff\xff\xd6\b\n\0{Q
\xb5b\x01\a\\\0\0ks\x17\xe7\a\x05\x12\r\x11\x027\x10\0\0\0\xeac\0\0\x03\x03\n\f;\xdeR\xc1\xd3\x1e\xb8\x17L\xd2\x19\0H&\x1a\0u\n\0\0\xd1\x0f\0\0\xe4\xff\xff\xff\x11\0\0\0\xf8\xff\xff\xff!\0\0\0\xd7\xdd\xe4\x014\x01\0\0\xbe\xfc\x9e\0\x81\0\0\0\xe0J#\0\0\0\0\0\0\0\0\04l
\xb5b\x01\x03\x10\0\0ks\x17\x03\xdf\0\bl\xbc\0\0\xd1>;\x0es.
\xb5b\x01 \x10\0\0ks\x17\xeac\0\0\xd6\b\x12\a\x10\0\0\0z>
\xb5b\x01!\x14\0\0ks\x17\x10\0\0\0\xeac\0\0\xe7\a\x05\x12\r\x11\x027\xe4\x11
\xb5b\x01\"\x14\0\0ks\x17\x05\x9c\xff\xff;\xd6\xff\xff\t\0\0\0p\x04\0\0W\xbc
\xb5b\x01\t\x14\0\0\xd6\xff\xff\0ks\x17\0\0\0\0\0\0\0\0\0\0\0\0\xe7\x18
$GNRMC,131702.00,A,3947.65490,N,10509.20259,W,0.064,,180523,,,D*76\r\n
$GNVTG,,T,,M,0.064,N,0.118,K,D*32\r\n
$GNGGA,131702.00,3947.65490,N,10509.20259,W,2,12,0.73,1713.7,M,-21.5,M,,0000*4C\r\n
$GNGSA,M,3,08,02,14,07,21,01,09,46,48,17,30,13,1.29,0.73,1.07*12\r\n
$GNGSA,M,3,,,,,,,,,,,,,1.29,0.73,1.07*18\r\n
$GPGSV,4,1,14,01,20,117,26,02,09,039,20,07,60,115,38,08,27,046,17*7C\r\n
$GPGSV,4,2,14,09,11,177,35,13,30,310,32,14,59,288,28,15,05,324,15*77\r\n
$GPGSV,4,3,14,17,31,201,40,19,06,207,17,21,26,087,25,30,82,340,33*74\r\n
$GPGSV,4,4,14,46,38,215,41,48,40,209,34*72\r\n
$GLGSV,3,1,09,68,02,200,,69,28,241,,70,24,310,,78,31,075,*6E\r\n
$GLGSV,3,2,09,79,58,003,,80,25,300,,81,46,123,,82,14,167,*65\r\n
$GLGSV,3,3,09,88,34,048,*57\r\n
\xb5b\n\t<\0\0\xf4\x01\0\0\0\0\0\0\0\x01\0\xef\xff\0\0h\0\xaa\n\x02\x01\t\x84\xff\xeb\x01\0\n\v\f\r\x0e\x0f\x01\0\x02\x03\xff\x10\xff\x12\x13653\xef^\0\0\0\0\x80\xf7\0\0\0\0\0\0\xb0V
\xb5b\r\x01\x10\0\xd0rs\x17\0\0\0\0\xb1\x1b\0\0\xd6\b\n\0\x9e#
\xb5b\x01\a\\\0\xe8ns\x17\xe7\a\x05\x12\r\x11\x037\x10\0\0\0\xb1\x8d\0\0\x03\x03\n\fD\xdeR\xc1\xd8\x1e\xb8\x17\xd8\xd1\x19\0\xd4%\x1a\0\x7f\n\0\0\xde\x0f\0\0\x01\0\0\0\xf7\xff\xff\xff\x04\0\0\0\t\0\0\0\xd7\xdd\xe4\x019\x01\0\0\x04\x02\x9f\0\x81\0\0\0\xe0J#\0\0\0\0\0\0\0\0\0\x98-
\xb5b\x01\x03\x10\0\xe8ns\x17\x03\xdf\0\bl\xbc\0\0\xb9B;\x0eJ\x87
\xb5b\x01 \x10\0\xe8ns\x17\xb1\x8d\0\0\xd6\b\x12\a\x10\0\0\0V\r
\xb5b\x01!\x14\0\xe8ns\x17\x10\0\0\0\xb1\x8d\0\0\xe7\a\x05\x12\r\x11\x037\xc1\x8e
\xb5b\x01\"\x14\0\xe8ns\x17>r\xff\xff9\xd6\xff\xff\t\0\0\0n\x04\0\0M\x0f
\xb5b\x01\t\x14\0\0\xd6\xff\xff\xe8ns\x17\0\0\0\0\0\0\0\0\0\0\0\0\xd2\xc5
$GNRMC,131703.00,A,3947.65493,N,10509.20254,W,0.017,,180523,,,D*7D\r\n
$GNVTG,,T,,M,0.017,N,0.031,K,D*3C\r\n
$GNGGA,131703.00,3947.65493,N,10509.20254,W,2,12,0.73,1713.6,M,-21.5,M,,0000*42\r\n
$GNGSA,M,3,08,02,14,07,21,01,09,46,48,17,30,13,1.29,0.73,1.07*12\r\n
$GNGSA,M,3,,,,,,,,,,,,,1.29,0.73,1.07*18\r\n
$GPGSV,4,1,14,01,20,117,27,02,09,039,19,07,60,115,38,08,27,046,16*76\r\n
$GPGSV,4,2,14,09,11,177,35,13,30,310,32,14,59,288,28,15,05,324,14*76\r\n
$GPGSV,4,3,14,17,31,201,40,19,06,207,18,21,26,087,25,30,82,340,33*7B\r\n
$GPGSV,4,4,14,46,38,215,41,48,40,209,34*72\r\n
$GLGSV,3,1,09,68,02,200,,69,28,241,,70,24,310,,78,31,075,30*6D\r\n
$GLGSV,3,2,09,79,58,003,,80,25,300,,81,46,123,,82,14,167,*65\r\n
$GLGSV,3,3,09,88,34,048,*57\r\n
\xb5b\n\t<\0\0\xf4\x01\0\0\0\0\0\0\0\x01\0\xef\xf7\0\0h\0\xaa\n\x02\x01\t\x84\xff\xeb\x01\0\n\v\f\r\x0e\x0f\x01\0\x02\x03\xff\x10\xff\x12\x1365\x1a\xcf^\0\0\0\0\x80\xf7\0\0\0\0\0\0o\xa7
\xb5b\r\x01\x10\0\xa0zs\x17\0\0\0\0b\x17\0\0\xd6\b\n\0#\a
\xb5b\x01\a\\\0\xd0rs\x17\xe7\a\x05\x12\r\x11\x047\x10\0\0\0z\xb7\0\0\x03\x03\n\fT\xdeR\xc1\xde\x1e\xb8\x17\xf2\xd1\x19\0\xee%\x1a\0}\n\0\0\xe0\x0f\0\0\v\0\0\0\a\0\0\0\xf5\xff\xff\xff\r\0\0\0\xd7\xdd\xe4\x01\x13\x01\0\0\xaa\x06\x9f\0\x81\0\0\0\xe0J#\0\0\0\0\0\0\0\0\0U!
\xb5b\x01\x03\x10\0\xd0rs\x17\x03\xdf\0\bl\xbc\0\0\xa1F;\x0e\"\xef
\xb5b\x01 \x10\0\xd0rs\x17z\xb7\0\0\xd6\b\x12\a\x10\0\0\05\x03
\xb5b\x01!\x14\0\xd0rs\x17\x10\0\0\0z\xb7\0\0\xe7\a\x05\x12\r\x11\x047\xa16
\xb5b\x01\"\x14\0\xd0rs\x17uH\xff\xff6\xd6\xff\xff\t\0\0\0g\x04\0\0<5
\xb5b\x01\t\x14\0\0\xd6\xff\xff\xd0rs\x17\0\0\0\0\0\0\0\0\0\0\0\0\xbe\x81
$GNRMC,131704.00,A,3947.65496,N,10509.20244,W,0.025,,180523,,,D*7F\r\n
$GNVTG,,T,,M,0.025,N,0.047,K,D*3C\r\n
$GNGGA,131704.00,3947.65496,N,10509.20244,W,2,12,0.73,1713.6,M,-21.5,M,,0000*41\r\n
$GNGSA,M,3,08,02,14,07,21,01,09,46,48,17,30,13,1.29,0.73,1.07*12\r\n
$GNGSA,M,3,,,,,,,,,,,,,1.29,0.73,1.07*18\r\n
$GPGSV,4,1,14,01,20,117,26,02,09,039,18,07,60,115,39,08,27,046,16*77\r\n
$GPGSV,4,2,14,09,11,177,35,13,30,310,33,14,59,288,28,15,05,324,13*70\r\n
$GPGSV,4,3,14,17,31,201,40,19,06,207,17,21,26,087,25,30,82,340,33*74\r\n
$GPGSV,4,4,14,46,38,215,41,48,40,209,34*72\r\n
$GLGSV,3,1,09,68,02,200,,69,28,241,,70,24,310,,78,31,075,25*69\r\n
$GLGSV,3,2,09,79,58,003,,80,25,300,,81,46,123,,82,14,167,*65\r\n
$GLGSV,3,3,09,88,34,048,*57\r\n
\xb5b\n\t<\0\0\xf4\x01\0\0\0\0\0\0\0\x01\0\xef\xff\0\0h\0\xaa\n\x02\x01\t\x84\xff\xeb\x01\0\n\v\f\r\x0e\x0f\x01\0\x02\x03\xff\x10\xff\x12\x13655\xef^\0\0\0\0\x80\xf7\0\0\0\0\0\0\xb2t
\xb5b\r\x01\x10\0\xa0zs\x17\0\0\0\0\xe1\x14\0\0\xd6\b\n\0\x9f\xea
\xb5b\x01\a\\\0\xb8vs\x17\xe7\a\x05\x12\r\x11\x057\x10\0\0\0D\xe1\0\0\x03\x03\n\f[\xdeR\xc1\xe2\x1e\xb8\x17\x94\xd1\x19\0\x90%\x1a\0\x82\n\0\0\xee\x0f\0\0\x17\0\0\0\xfc\xff\xff\xff\x12\0\0\0\x17\0\0\0\xd7\xdd\xe4\x01\x7f\x01\0\0\x1e\r\x9f\0\x81\0\0\0\xe0J#\0\0\0\0\0\0\0\0\0\xa7\xc2
\xb5b\x01\x03\x10\0\xb8vs\x17\x03\xdf\0\bl\xbc\0\0\x89J;\x0e\xfaW
\xb5b\x01 \x10\0\xb8vs\x17D\xe1\0\0\xd6\b\x12\a\x10\0\0\0\x15\x05
\xb5b\x01!\x14\0\xb8vs\x17\x10\0\0\0D\xe1\0\0\xe7\a\x05\x12\r\x11\x057\x82\xea
\xb5b\x01\"\x14\0\xb8vs\x17\xab\x1e\xff\xff6\xd6\xff\xff\t\0\0\0i\x04\0\06\x93
\xb5b\x01\t\x14\0\0\xd6\xff\xff\xb8vs\x17\0\0\0\0\0\0\0\0\0\0\0\0\xaa=
$GNRMC,131705.00,A,3947.65499,N,10509.20240,W,0.045,,180523,,,D*73\r\n
$GNVTG,,T,,M,0.045,N,0.084,K,D*35\r\n
$GNGGA,131705.00,3947.65499,N,10509.20240,W,2,12,0.73,1713.6,M,-21.5,M,,0000*4B\r\n
$GNGSA,M,3,02,14,07,21,01,09,46,48,17,30,13,15,1.29,0.73,1.07*1E\r\n
$GNGSA,M,3,,,,,,,,,,,,,1.29,0.73,1.07*18\r\n
$GPGSV,4,1,14,01,20,117,26,02,09,039,17,07,60,115,38,08,27,046,18*77\r\n
$GPGSV,4,2,14,09,11,177,35,13,30,310,33,14,59,288,29,15,05,324,14*76\r\n
$GPGSV,4,3,14,17,31,201,40,19,06,207,17,21,26,087,25,30,82,340,33*74\r\n
$GPGSV,4,4,14,46,38,215,41,48,40,209,34*72\r\n
$GLGSV,3,1,09,68,02,200,,69,28,241,,70,24,310,,78,31,075,*6E\r\n
$GLGSV,3,2,09,79,58,003,,80,25,300,,81,46,123,,82,14,167,*65\r\n
$GLGSV,3,3,09,88,34,048,*57\r\n
\xb5b\n\t<\0\0\xf4\x01\0\0\0\0\0\0\0\x01\0\xef\xf7\0\0h\0\xaa\n\x02\x01\t\x84\xff\xeb\x01\0\n\v\f\r\x0e\x0f\x01\0\x02\x03\xff\x10\xff\x12\x1365B\xef^\0\0\0\0\x80\xf7\0\0\0\0\0\0\xb7\xbf
\xb5b\r\x01\x10\0p\x82s\x17\0\0\0\0+\x14\0\0\xd6\b\n\0\xc1\xb2
\xb5b\x01\a\\\0\xa0zs\x17\xe7\a\x05\x12\r\x11\x067\x10\0\0\0\x0e\v\x01\0\x03\x03\n\fg\xdeR\xc1\xe1\x1e\xb8\x17\xce\xd1\x19\0\xca%\x1a\0\x84\n\0\0\xf7\x0f\0\0\xfe\xff\xff\xff\xf6\xff\xff\xff\xfb\xff\xff\xff\v\0\0\0\xd7\xdd\xe4\x01u\x01\0\0h\x13\x9f\0\x81\0\0\0\xe0J#\0\0\0\0\0\0\0\0\0\x11.
\xb5b\x01\x03\x10\0\xa0zs\x17\x03\xdf\0\bl\xbc\0\0qN;\x0e\xd2\xbf
\xb5b\x01 \x10\0\xa0zs\x17\x0e\v\x01\0\xd6\b\x12\a\x10\0\0\0\xf6\x11
\xb5b\x01!\x14\0\xa0zs\x17\x10\0\0\0\x0e\v\x01\0\xe7\a\x05\x12\r\x11\x067d\xa8
\xb5b\x01\"\x14\0\xa0zs\x17\xe1\xf4\xfe\xff6\xd6\xff\xff\t\0\0\0\xb4\x04\0\0x\a
\xb5b\x01\t\x14\0\0\x06\x02 \xa0zs\x17\0\0\0\0\0\0\0\0\0\0\0\0\xea\xf0
$GNRMC,131706.00,A,3947.65498,N,10509.20233,W,0.021,,180523,,,D*77\r\n
$GNVTG,,T,,M,0.021,N,0.038,K,D*30\r\n
$GNGGA,131706.00,3947.65498,N,10509.20233,W,2,12,0.73,1713.6,M,-21.5,M,,0000*4D\r\n
$GNGSA,M,3,02,14,07,21,01,09,46,48,17,30,13,15,1.29,0.73,1.07*1E\r\n
$GNGSA,M,3,,,,,,,,,,,,,1.29,0.73,1.07*18\r\n
$GPGSV,4,1,14,01,20,117,26,02,09,039,17,07,60,116,39,08,27,046,18*75\r\n
$GPGSV,4,2,14,09,11,177,35,13,30,310,33,14,59,288,28,15,05,324,14*77\r\n
$GPGSV,4,3,14,17,31,201,40,19,06,207,17,21,26,087,25,30,82,340,33*74\r\n
$GPGSV,4,4,14,46,38,215,41,48,40,209,34*72\r\n
$GLGSV,3,1,09,68,02,200,,69,28,241,,70,24,310,,78,31,075,*6E\r\n
$GLGSV,3,2,09,79,58,003,,80,25,300,,81,46,123,,82,14,167,*65\r\n
$GLGSV,3,3,09,88,34,048,*57\r\n
\xb5b\n\t<\0\0\xf4\x01\0\0\0\0\0\0\0\x01\0\xef\xff\0\0h\0\xaa\n\x02\x01\t\x84\xff\xeb\x01\0\n\v\f\r\x0e\x0f\x01\0\x02\x03\xff\x10\xff\x12\x13657\xcf^\0\0\0\0\x80\xf7\0\0\0\0\0\0\x94\xd2
\xb5b\r\x01\x10\0p\x82s\x17\0\0\0\0\xd4\x14\0\0\xd6\b\n\0j\xfa
\xb5b\x01\a\\\0\x88~s\x17\xe7\a\x05\x12\r\x11\a7\x10\0\0\0\xd94\x01\0\x03\x03\n\fq\xdeR\xc1\xdf\x1e\xb8\x17%\xd2\x19\0!&\x1a\0\x88\n\0\0\x02\x10\0\0\xea\xff\xff\xff\x06\0\0\0\xd6\xff\xff\xff\x16\0\0\0\xd7\xdd\xe4\x01\xb1\x01\0\0\xb4\x1a\x9f\0\x81\0\0\0\xe0J#\0\0\0\0\0\0\0\0\0.k
\xb5b\x01\x03\x10\0\x88~s\x17\x03\xdf\0\bl\xbc\0\0YR;\x0e\xaa\'
\xb5b\x01 \x10\0\x88~s\x17\xd84\x01\0\xd6\b\x12\a\x10\0\0\0\xd5\b
\xb5b\x01!\x14\0\x88~s\x17\x10\0\0\0\xd94\x01\0\xe7\a\x05\x12\r\x11\a7E]
\xb5b\x01\"\x14\0\x88~s\x17\x17\xcb\xfe\xff6\xd6\xff\xff\t\0\0\0\xb9\x04\0\0v\x80
\xb5b\x01\t\x14\0\0\xd6\xff\xff\x88~s\x17\0\0\0\0\0\0\0\0\0\0\0\0\x82\xb5
$GNRMC,131707.00,A,3947.65497,N,10509.20227,W,0.044,,180523,,,D*7F\r\n
$GNVTG,,T,,M,0.044,N,0.081,K,D*31\r\n
$GNGGA,131707.00,3947.65497,N,10509.20227,W,2,12,0.73,1713.7,M,-21.5,M,,0000*47\r\n
$GNGSA,M,3,02,14,07,21,01,09,46,48,17,30,13,15,1.29,0.73,1.07*1E\r\n
$GNGSA,M,3,,,,,,,,,,,,,1.29,0.73,1.07*18\r\n
$GPGSV,4,1,14,01,20,117,26,02,09,039,18,07,60,116,39,08,26,046,17*74\r\n
$GPGSV,4,2,14,09,11,177,35,13,30,310,33,14,59,288,29,15,05,324,15*77\r\n
$GPGSV,4,3,14,17,31,201,40,19,06,207,18,21,26,087,25,30,82,340,32*7A\r\n
$GPGSV,4,4,14,46,38,215,41,48,40,209,34*72\r\n
$GLGSV,3,1,09,68,02,200,,69,28,241,,70,24,310,,78,31,075,*6E\r\n
$GLGSV,3,2,09,79,58,003,,80,25,300,,81,46,123,,82,14,167,*65\r\n
$GLGSV,3,3,09,88,34,048,*57\r\n
\xb5b\n\t<\0\0\xf4\x01\0\0\0\0\0\0\0\x01\0\xef\xf7\0\0i\0\xaa\n\x02\x01\t\x84\xff\xeb\x01\0\n\v\f\r\x0e\x0f\x01\0\x02\x03\xff\x10\xff\x12\x1365\x1c\xe9^\0\0\0\0\x80\xf7\0\0\0\0\0\0\x8c]
\xb5b\r\x01\x10\0@\x8as\x17\0\0\0\0\xfe\0\0\0\xd6\b\n\0X6
\xb5b\x01\a\\\0p\x82s\x17\xe7\a\x05\x12\r\x11\b7\x10\0\0\0\xa4^\x01\0\x03\x03\n\f\x7f\xdeR\xc1\xe1\x1e\xb8\x17\x1f\xd2\x19\0\x1b&\x1a\0\x8d\n\0\0\x10\x10\0\0\x16\0\0\0\xf8\xff\xff\xff\x03\0\0\0\x18\0\0\0\xd7\xdd\xe4\x01\x1e\x01\0\0\x86\x1f\x9f\0\x81\0\0\0\xe0J#\0\0\0\0\0\0\0\0\0\xbb\xa4
\xb5b\x01\x03\x10\0p\x82s\x17\x03\xdf\0\bl\xbc\0\0AV;\x0e\x82\x8f
\xb5b\x01 \x10\0p\x82s\x17\xa3^\x01\0\xd6\b\x12\a\x10\0\0\0\xb6\x16
\xb5b\x01!\x14\0p\x82s\x17\x10\0\0\0\xa4^\x01\0\xe7\a\x05\x12\r\x11\b7\'\x1d
\xb5b\x01\"\x14\0p\x82s\x17K\xa1\xfe\xff4\xd6\xff\xff\t\0\0\0\xb9\x04\0\0j\x9e
\xb5b\x01\t\x14\0\0\xd6\xff\xffp\x82s\x17\0\0\0\0\0\0\0\0\0\0\0\0nq
$GNRMC,131708.00,A,3947.65498,N,10509.20218,W,0.046,,180523,,,D*71\r\n
$GNVTG,,T,,M,0.046,N,0.085,K,D*37\r\n
$GNGGA,131708.00,3947.65498,N,10509.20218,W,2,12,0.73,1713.7,M,-21.5,M,,0000*4B\r\n
$GNGSA,M,3,02,14,07,21,01,09,46,48,17,30,13,15,1.29,0.73,1.07*1E\r\n
$GNGSA,M,3,,,,,,,,,,,,,1.29,0.73,1.07*18\r\n
$GPGSV,4,1,14,01,20,117,26,02,09,039,18,07,60,116,39,08,26,046,*72\r\n
$GPGSV,4,2,14,09,11,177,35,13,30,310,33,14,59,288,28,15,05,324,15*76\r\n
$GPGSV,4,3,14,17,31,201,40,19,06,207,18,21,26,087,25,30,82,340,32*7A\r\n
$GPGSV,4,4,14,46,38,215,41,48,40,209,34*72\r\n
$GLGSV,3,1,09,68,02,200,,69,28,241,,70,24,310,,78,31,075,*6E\r\n
$GLGSV,3,2,09,79,58,003,,80,25,300,,81,46,123,,82,14,167,*65\r\n
$GLGSV,3,3,09,88,34,048,*57\r\n
\xb5b\n\t<\0\0\xf4\x01\0\0\0\0\0\0\0\x01\0\xef\xff\0\0i\0\xaa\n\x02\x01\t\x84\xff\xeb\x01\0\n\v\f\r\x0e\x0f\x01\0\x02\x03\xff\x10\xff\x12\x1365F\xef^\0\0\0\0\x80\xf7\0\0\0\0\0\0\xc4\x9f
\xb5b\r\x01\x10\0@\x8as\x17\0\0\0\0(\xfc\xff\xff\xd6\b\n\0|_
\xb5b\x01\a\\\0X\x86s\x17\xe7\a\x05\x12\r\x11\t7\x10\0\0\0p\x88\x01\0\x03\x03\n\f\x8a\xdeR\xc1\xe4\x1e\xb8\x17o\xd2\x19\0k&\x1a\0\x91\n\0\0\x1d\x10\0\0\xf0\xff\xff\xff\xfe\xff\xff\xff\xcc\xff\xff\xff\x10\0\0\0\xd7\xdd\xe4\x01\xbf\x01\0\0\x12\'\x9f\0\x81\0\0\0\xe0J#\0\0\0\0\0\0\0\0\0-4
\xb5b\x01\x03\x10\0X\x86s\x17\x03\xdf\0\bl\xbc\0\0)Z;\x0eZ\xf7
\xb5b\x01 \x10\0X\x86s\x17p\x88\x01\0\xd6\b\x12\a\x10\0\0\0\x99<
\xb5b\x01!\x14\0X\x86s\x17\x10\0\0\0p\x88\x01\0\xe7\a\x05\x12\r\x11\t7\n\xe9
\xb5b\x01\"\x14\0X\x86s\x17\x7fw\xfe\xff3\xd6\xff\xff\t\0\0\0\xb9\x04\0\0_\xc8
\xb5b\x01\t\x14\0\0\xd6\xff\xffX\x86s\x17\0\0\0\0\0\0\0\0\0\0\0\0Z-
$GNRMC,131709.00,A,3947.65500,N,10509.20212,W,0.031,,180523,,,D*7A\r\n
$GNVTG,,T,,M,0.031,N,0.057,K,D*38\r\n
$GNGGA,131709.00,3947.65500,N,10509.20212,W,2,12,0.73,1713.8,M,-21.5,M,,0000*4F\r\n
$GNGSA,M,3,02,14,07,21,01,09,46,48,17,30,13,15,1.29,0.73,1.07*1E\r\n
$GNGSA,M,3,,,,,,,,,,,,,1.29,0.73,1.07*18\r\n
$GPGSV,4,1,14,01,20,117,26,02,09,039,18,07,60,116,39,08,26,046,19*7A\r\n
$GPGSV,4,2,14,09,11,177,35,13,30,310,33,14,59,288,29,15,05,324,16*74\r\n
$GPGSV,4,3,14,17,31,201,40,19,06,207,18,21,26,087,25,30,82,340,32*7A\r\n
$GPGSV,4,4,14,46,38,215,41,48,40,209,34*72\r\n
$GLGSV,3,1,09,68,02,200,,69,28,241,,70,24,310,,78,31,075,*6E\r\n
$GLGSV,3,2,09,79,58,003,,80,25,300,,81,46,123,,82,14,167,*65\r\n
$GLGSV,3,3,09,88,34,048,*57\r\n
\xb5b\n\t<\0\0\xf4\x01\0\0\0\0\0\0\0\x01\0\xef\xf7\0\0i\0\xaa\n\x02\x01\t\x84\xff\xeb\x01\0\n\v\f\r\x0e\x0f\x01\0\x02\x03\xff\x10\xff\x12\x1365\x13\xef^\0\0\0\0\x80\xf7\0\0\0\0\0\0\x89*
\xb5b\r\x01\x10\0\x10\x92s\x17\0\0\0\0[\xd6\xff\xff\xd6\b\n\0ae
\xb5b\x01\a\\\0@\x8as\x17\xe7\a\x05\x12\r\x11\n7\x10\0\0\0>\xb2\x01\0\x03\x03\n\f\x9b\xdeR\xc1\xec\x1e\xb8\x17\xf3\xd1\x19\0\xef%\x1a\0\x95\n\0\0*\x10\0\0&\0\0\0%\0\0\0\x1a\0\0\05\0\0\0\xd7\xdd\xe4\x01\x82\x01\0\0\x94-\x9f\0\x81\0\0\0\xe0J#\0\0\0\0\0\0\0\0\0f\x1a
\xb5b\x01\x03\x10\0@\x8as\x17\x03\xdf\0\bl\xbc\0\0\x11^;\x0e2_
\xb5b\x01 \x10\0@\x8as\x17>\xb2\x01\0\xd6\b\x12\a\x10\0\0\0}n
\xb5b\x01!\x14\0@\x8as\x17\x10\0\0\0>\xb2\x01\0\xe7\a\x05\x12\r\x11\n7\xef\xcd
\xb5b\x01\"\x14\0@\x8as\x17\xb1M\xfe\xff2\xd6\xff\xff\t\0\0\0\xb7\x04\0\0P\xca
\xb5b\x01\t\x14\0\0\xd6\xff\xff@\x8as\x17\0\0\0\0\0\0\0\0\0\0\0\0F\xe9
$GNRMC,131710.00,A,3947.65505,N,10509.20201,W,0.104,,180523,,,D*72\r\n
$GNVTG,,T,,M,0.104,N,0.192,K,D*37\r\n
$GNGGA,131710.00,3947.65505,N,10509.20201,W,2,12,0.73,1713.6,M,-21.5,M,,0000*4E\r\n
$GNGSA,M,3,02,14,07,21,01,09,46,48,17,30,13,15,1.29,0.73,1.07*1E\r\n
$GNGSA,M,3,,,,,,,,,,,,,1.29,0.73,1.07*18\r\n
$GPGSV,4,1,14,01,20,117,27,02,09,039,17,07,60,116,39,08,26,046,19*74\r\n
$GPGSV,4,2,14,09,11,177,35,13,30,310,33,14,59,288,29,15,05,324,17*75\r\n
$GPGSV,4,3,14,17,31,201,40,19,06,207,18,21,26,087,25,30,82,340,32*7A\r\n
$GPGSV,4,4,14,46,38,215,41,48,40,209,35*73\r\n
$GLGSV,3,1,09,68,02,200,,69,28,241,,70,24,310,,78,31,075,*6E\r\n
$GLGSV,3,2,09,79,58,003,,80,25,300,,81,46,123,,82,14,167,*65\r\n
$GLGSV,3,3,09,88,34,048,*57\r\n
\xb5b\n\t<\0\0\xf4\x01\0\0\0\0\0\0\0\x01\0\xef\xff\0\0i\0\xaa\n\x02\x01\t\x84\xff\xeb\x01\0\n\v\f\r\x0e\x0f\x01\0\x02\x03\xff\x10\xff\x12\x1365Y\x9f^\0\0\0\0\x80\xf7\0\0\0\0\0\0\x87\\
\xb5b\r\x01\x10\0\x10\x92s\x17\0\0\0\0[&\0\0\xd6\b\n\0\xb3\xa0
\xb5b\x01\a\\\0(\x8es\x17\xe7\a\x05\x12\r\x11\v7\x10\0\0\0\f\xdc\x01\0\x03\x03\n\f\xa6\xdeR\xc1\xf3\x1e\xb8\x17\xd1\xd1\x19\0\xcd%\x1a\0\x97\n\0\02\x10\0\0!\0\0\0\xfb\xff\xff\xff!\0\0\0\"\0\0\0\xd7\xdd\xe4\x01\x97\x01\0\0r4\x9f\0\x81\0\0\0\xe0J#\0\0\0\0\0\0\0\0\0\xdfm
\xb5b\x01\x03\x10\0(\x8es\x17\x03\xdf\0\bl\xbc\0\0\xf9a;\x0e\t\xc4
\xb5b\x01 \x10\0(\x8es\x17\f\xdc\x01\0\xd6\b\x12\a\x10\0\0\0a\xa0
\xb5b\x01!\x14\0(\x8es\x17\x10\0\0\0\f\xdc\x01\0\xe7\a\x05\x12\r\x11\v7\xd4\xb1
\xb5b\x01\"\x14\0(\x8es\x17\xe3#\xfe\xff2\xd6\xff\xff\t\0\0\0z\x04\0\0\a\xec
\xb5b\x01\t\x14\0\0\xd6\xff\xff(\x8es\x17\0\0\0\0\0\0\0\0\0\0\0\02\xa5
$GNRMC,131711.00,A,3947.65509,N,10509.20195,W,0.065,,180523,,,D*77\r\n
$GNVTG,,T,,M,0.065,N,0.121,K,D*39\r\n
$GNGGA,131711.00,3947.65509,N,10509.20195,W,2,12,0.73,1713.6,M,-21.5,M,,0000*4D\r\n
$GNGSA,M,3,02,14,07,21,01,09,46,48,17,30,13,15,1.29,0.73,1.07*1E\r\n
$GNGSA,M,3,,,,,,,,,,,,,1.29,0.73,1.07*18\r\n
$GPGSV,4,1,14,01,20,117,27,02,09,039,17,07,60,116,39,08,26,046,19*74\r\n
$GPGSV,4,2,14,09,11,177,35,13,30,310,32,14,59,288,29,15,05,324,16*75\r\n
$GPGSV,4,3,14,17,31,201,40,19,06,207,18,21,26,087,26,30,82,340,32*79\r\n
$GPGSV,4,4,14,46,38,215,41,48,40,209,34*72\r\n
$GLGSV,3,1,09,68,02,200,,69,28,241,,70,24,310,,78,31,075,*6E\r\n
$GLGSV,3,2,09,79,58,003,,80,25,300,,81,46,123,,82,14,167,*65\r\n
$GLGSV,3,3,09,88,34,048,*57\r\n
\xb5b\n\t<\0\0\xf4\x01\0\0\0\0\0\0\0\x01\0\xef\xf7\0\0i\0\xaa\n\x02\x01\t\x84\xff\xeb\x01\0\n\v\f\r\x0e\x0f\x01\0\x02\x03\xff\x10\xff\x12\x1365$\x8f^\0\0\0\0\x80\xf7\0\0\0\0\0\0:\xe9
\xb5b\r\x01\x10\0\xe0\x99s\x17\0\0\0\0\?\b\0\0\xd6\b\n\0PW
\xb5b\x01\a\\\0\x10\x92s\x17\xe7\a\x05\x12\r\x11\f7\x10\0\0\0\xda\x05\x02\0\x03\x03\n\f\xb1\xdeR\xc1\xf9\x1e\xb8\x17\xb9\xd1\x19\0\xb5%\x1a\0\x94\n\0\08\x10\0\0\a\0\0\0\x02\0\0\0\x1f\0\0\0\a\0\0\0\xd7\xdd\xe4\x01\xad\x01\0\0\xae;\x9f\0\x95\0\0\0\xe0J#\0\0\0\0\0\0\0\0\0\xe8\xff
\xb5b\x01\x03\x10\0\x10\x92s\x17\x03\xdf\0\bl\xbc\0\0\xe1e;\x0e\xe1,
\xb5b\x01 \x10\0\x10\x92s\x17\xda\x05\x02\0\xd6\b\x12\a\x10\0\0\0E\xd1
\xb5b\x01!\x14\0\x10\x92s\x17\x10\0\0\0\xda\x05\x02\0\xe7\a\x05\x12\r\x11\f7\xb9\x94
\xb5b\x01\"\x14\0\x10\x92s\x17\x15\xfa\xfd\xff2\xd6\xff\xff\t\0\0\0g\x04\0\0\xe8\xb7
\xb5b\x01\t\x14\0\0\xd6\xff\xff\x10\x92s\x17\0\0\0\0\0\0\0\0\0\0\0\0\x1ea
$GNRMC,131712.00,A,3947.65512,N,10509.20188,W,0.014,,180523,,,D*74\r\n
$GNVTG,,T,,M,0.014,N,0.025,K,D*3A\r\n
$GNGGA,131712.00,3947.65512,N,10509.20188,W,2,12,0.80,1713.6,M,-21.5,M,,0000*44\r\n
$GNGSA,M,3,08,02,14,07,21,01,09,46,48,17,30,13,1.49,0.80,1.26*1B\r\n
$GNGSA,M,3,,,,,,,,,,,,,1.49,0.80,1.26*11\r\n
$GPGSV,4,1,14,01,20,117,27,02,09,039,16,07,60,116,39,08,26,046,20*7F\r\n
$GPGSV,4,2,14,09,11,177,35,13,30,309,33,14,59,288,29,15,05,324,15*7F\r\n
$GPGSV,4,3,14,17,31,201,40,19,06,207,19,21,26,087,25,30,82,340,32*7B\r\n
$GPGSV,4,4,14,46,38,215,41,48,40,209,34*72\r\n
$GLGSV,3,1,09,68,02,200,,69,28,241,,70,24,310,,78,31,075,*6E\r\n
$GLGSV,3,2,09,79,58,003,,80,25,300,,81,46,123,,82,14,167,*65\r\n
$GLGSV,3,3,09,88,34,048,*57\r\n
\xb5b\n\t<\0\0\xf4\x01\0\0\0\0\0\0\0\x01\0\xef\xff\0\0i\0\xaa\n\x02\x01\t\x84\xff\xeb\x01\0\n\v\f\r\x0e\x0f\x01\0\x02\x03\xff\x10\xff\x12\x1365Z\xef^\0\0\0\0\x80\xf7\0\0\0\0\0\0\xd8\xcb
\xb5b\r\x01\x10\0\xe0\x99s\x17\0\0\0\0\x98\n\0\0\xd6\b\n\0\xab-
\xb5b\x01\a\\\0\xf8\x95s\x17\xe7\a\x05\x12\r\x11\r7\x10\0\0\0\xa8/\x02\0\x03\x03\n\f\xaf\xdeR\xc1\xfc\x1e\xb8\x17\x9f\xd1\x19\0\x9b%\x1a\0\xba\n\0\0o\x10\0\0\x19\0\0\0\0\0\0\0\x1b\0\0\0\x19\0\0\0\xd7\xdd\xe4\x01\xc0\x01\0\0:C\x9f\0\x81\0\0\0\xe0J#\0\0\0\0\0\0\0\0\0\xa78
\xb5b\x01\x03\x10\0\xf8\x95s\x17\x03\xdf\0\bl\xbc\0\0\xc9i;\x0e\xb8\x85
\xb5b\x01 \x10\0\xf8\x95s\x17\xa8/\x02\0\xd6\b\x12\a\x10\0\0\0(\xf4
\xb5b\x01!\x14\0\xf8\x95s\x17\x10\0\0\0\xa8/\x02\0\xe7\a\x05\x12\r\x11\r7\x9de
\xb5b\x01\"\x14\0\xf8\x95s\x17G\xd0\xfd\xff2\xd6\xff\xff\n\0\0\0\xc9\x04\0\0>J
\xb5b\x01\t\x14\0\0\xd6\xff\xff\xf8\x95s\x17\0\0\0\0\0\0\0\0\0\0\0\0\t\x0e
$GNRMC,131713.00,A,3947.65515,N,10509.20189,W,0.049,,180523,,,D*7B\r\n
$GNVTG,,T,,M,0.049,N,0.091,K,D*3D\r\n
$GNGGA,131713.00,3947.65515,N,10509.20189,W,2,12,0.73,1713.6,M,-21.5,M,,0000*4F\r\n
$GNGSA,M,3,08,02,14,07,21,01,09,46,48,17,30,13,1.29,0.73,1.07*12\r\n
$GNGSA,M,3,,,,,,,,,,,,,1.29,0.73,1.07*18\r\n
$GPGSV,4,1,14,01,20,117,25,02,09,039,15,07,60,116,34,08,26,046,19*79\r\n
$GPGSV,4,2,14,09,11,177,30,13,30,309,28,14,60,289,28,15,05,324,15*7A\r\n
$GPGSV,4,3,14,17,31,201,37,19,06,207,17,21,26,087,24,30,82,340,27*70\r\n
$GPGSV,4,4,14,46,38,215,36,48,40,209,31*77\r\n
$GLGSV,3,1,09,68,02,200,,69,28,241,,70,24,310,,78,31,075,*6E\r\n
$GLGSV,3,2,09,79,58,003,,80,25,300,,81,46,123,,82,14,167,*65\r\n
$GLGSV,3,3,09,88,34,048,*57\r\n
\xb5b\n\t<\0\0\xf4\x01\0\0\0\0\0\0\0\x01\0\xef\xf7\0\0i\0\\\n\x02\x01\t\x84\xff\xeb\x01\0\n\v\f\r\x0e\x0f\x01\0\x02\x03\xff\x10\xff\x12\x1365W\x9f^\0\0\0\0\x80\xf7\0\0\0\0\0\0/\xfa
\xb5b\r\x01\x10\0\xb0\xa1s\x17\0\0\0\0,\xeb\xff\xff\xd6\b\n\0\xf6a
\xb5b\x01\a\\\0\xe0\x99s\x17\xe7\a\x05\x12\r\x11\x0e7\x11\0\0\0vY\x02\0\x03\x03\n\f\xb1\xdeR\xc1\0\x1f\xb8\x17E\xd1\x19\0A%\x1a\0\xda\n\0\0\x99\x10\0\0\x03\0\0\0\xf0\xff\xff\xff\x1f\0\0\0\x10\0\0\0\xd7\xdd\xe4\x01\x9d\x01\0\0.J\x9f\0\x81\0\0\0\xe0J#\0\0\0\0\0\0\0\0\0\xd4~
\xb5b\x01\x03\x10\0\xe0\x99s\x17\x03\xdf\0\bl\xbc\0\0\xb1m;\x0e\x90\xed
\xb5b\x01 \x10\0\xe0\x99s\x17vY\x02\0\xd6\b\x12\a\x11\0\0\0\r*
\xb5b\x01!\x14\0\xe0\x99s\x17\x11\0\0\0vY\x02\0\xe7\a\x05\x12\r\x11\x0e7\x83Y
\xb5b\x01\"\x14\0\xe0\x99s\x17y\xa6\xfd\xff2\xd6\xff\xff\n\0\0\0\xb2\x04\0\0\x1b\x04
\xb5b\x01\t\x14\0\0\x06\x02 \xe0\x99s\x17\0\0\0\0\0\0\0\0\0\0\0\0I\xc1
$GNRMC,131714.00,A,3947.65517,N,10509.20188,W,0.032,,180523,,,D*73\r\n
$GNVTG,,T,,M,0.032,N,0.058,K,D*34\r\n
$GNGGA,131714.00,3947.65517,N,10509.20188,W,2,12,0.73,1713.5,M,-21.5,M,,0000*48\r\n
$GNGSA,M,3,08,02,14,07,21,01,09,46,48,17,30,13,1.29,0.73,1.07*12\r\n
$GNGSA,M,3,,,,,,,,,,,,,1.29,0.73,1.07*18\r\n
$GPGSV,4,1,14,01,20,117,26,02,09,039,12,07,60,116,37,08,26,046,18*7F\r\n
$GPGSV,4,2,14,09,11,177,33,13,30,309,30,14,60,289,28,15,06,324,15*73\r\n
$GPGSV,4,3,14,17,31,201,39,19,06,207,18,21,26,087,24,30,82,340,30*77\r\n
$GPGSV,4,4,14,46,38,215,39,48,40,209,33*7A\r\n
$GLGSV,3,1,09,68,02,200,,69,28,241,,70,24,310,,78,31,075,*6E\r\n
$GLGSV,3,2,09,79,58,003,,80,25,300,,81,46,123,,82,14,167,*65\r\n
$GLGSV,3,3,09,88,34,048,*57\r\n
\xb5b\n\t<\0\0\xf4\x01\0\0\0\0\0\0\0\x01\0\xef\xff\0\0i\0\\\n\x02\x01\t\x84\xff\xeb\x01\0\n\v\f\r\x0e\x0f\x01\0\x02\x03\xff\x10\xff\x12\x1365S\xcf^\0\0\0\0\x80\xf7\0\0\0\0\0\0c\xd6
