0000000000000000: 000a2447 4e524d43 2c313630 3131372e |..$GNRMC,160117.|
0000000000000010: 30302c41 2c333934 372e3635 3639352c |00,A,3947.65695,|
0000000000000020: 4e2c3130 3530392e 31393936 302c572c |N,10509.19960,W,|
0000000000000030: 302e3030 372c2c31 32303532 332c2c2c |0.007,,120523,,,|
0000000000000040: 412c562a 30430d0a 24474e56 54472c2c |A,V*0C..$GNVTG,,|
0000000000000050: 542c2c4d 2c302e30 30372c4e 2c302e30 |T,,M,0.007,N,0.0|
0000000000000060: 31332c4b 2c412a33 380d0a24 474e4747 |13,K,A*38..$GNGG|
0000000000000070: 412c3136 30313137 2e30302c 33393437 |A,160117.00,3947|
0000000000000080: 2e363536 39352c4e 2c313035 30392e31 |.65695,N,10509.1|
0000000000000090: 39393630 2c572c31 2c30352c 332e3637 |9960,W,1,05,3.67|
00000000000000a0: 2c313730 352e342c 4d2c2d32 312e352c |,1705.4,M,-21.5,|
00000000000000b0: 4d2c2c2a 34310d0a 24474e47 53412c41 |M,,*41..$GNGSA,A|
00000000000000c0: 2c332c31 372c3139 2c33302c 31332c30 |,3,17,19,30,13,0|
00000000000000d0: 362c2c2c 2c2c2c2c 2c362e32 382c332e |6,,,,,,,,6.28,3.|
00000000000000e0: 36372c35 2e31302c 312a3032 0d0a2447 |67,5.10,1*02..$G|
00000000000000f0: 4e475341 2c412c33 2c2c2c2c 2c2c2c2c |NGSA,A,3,,,,,,,,|
0000000000000100: 2c2c2c2c 2c362e32 382c332e 36372c35 |,,,,,6.28,3.67,5|
0000000000000110: 2e31302c 332a3039 0d0a2447 4e475341 |.10,3*09..$GNGSA|
0000000000000120: 2c412c33 2c2c2c2c 2c2c2c2c 2c2c2c2c |,A,3,,,,,,,,,,,,|
0000000000000130: 2c362e32 382c332e 36372c35 2e31302c |,6.28,3.67,5.10,|
0000000000000140: 342a3045 0d0a2447 4e475341 2c412c33 |4*0E..$GNGSA,A,3|
0000000000000150: 2c2c2c2c 2c2c2c2c 2c2c2c2c 2c362e32 |,,,,,,,,,,,,,6.2|
0000000000000160: 382c332e 36372c35 2e31302c 352a3046 |8,3.67,5.10,5*0F|
0000000000000170: 0d0a2447 50475356 2c322c31 2c30382c |..$GPGSV,2,1,08,|
0000000000000180: 30362c32 382c3137 362c3237 2c31332c |06,28,176,27,13,|
0000000000000190: 32332c32 33392c32 312c3135 2c31312c |23,239,21,15,11,|
00000000000001a0: 3236392c 31342c31 372c3830 2c303037 |269,14,17,80,007|
00000000000001b0: 2c31332c 312a3639 0d0a2447 50475356 |,13,1*69..$GPGSV|
00000000000001c0: 2c322c32 2c30382c 31392c36 362c3234 |,2,2,08,19,66,24|
00000000000001d0: 382c3233 2c33302c 32392c31 36302c32 |8,23,30,29,160,2|
00000000000001e0: 342c3434 2c34322c 3139382c 32392c34 |4,44,42,198,29,4|
00000000000001f0: 382c3430 2c323039 2c32392c 312a3637 |8,40,209,29,1*67|
0000000000000200: 0d0a2447 50475356 2c322c31 2c30362c |..$GPGSV,2,1,06,|
0000000000000210: 30312c32 362c3034 372c2c30 332c3033 |01,26,047,,03,03|
0000000000000220: 2c303931 2c2c3134 2c35362c 3037382c |,091,,14,56,078,|
0000000000000230: 2c32312c 30362c30 33352c2c 302a3634 |,21,06,035,,0*64|
0000000000000240: 0d0a2447 50475356 2c322c32 2c30362c |..$GPGSV,2,2,06,|
0000000000000250: 32342c32 302c3331 352c2c34 362c3338 |24,20,315,,46,38|
0000000000000260: 2c323135 2c2c302a 36460d0a 24474147 |,215,,0*6F..$GAG|
0000000000000270: 53562c31 2c312c30 302c302a 37340d0a |SV,1,1,00,0*74..|
0000000000000280: 24474247 53562c31 2c312c30 302c302a |$GBGSV,1,1,00,0*|
0000000000000290: 37370d0a 24475147 53562c31 2c312c30 |77..$GQGSV,1,1,0|
00000000000002a0: 302c302a 36340d0a 24474e47 4c4c2c33 |0,0*64..$GNGLL,3|
00000000000002b0: 3934372e 36353639 352c4e2c 31303530 |947.65695,N,1050|
00000000000002c0: 392e3139 3936302c 572c3136 30313137 |9.19960,W,160117|
00000000000002d0: 2e30302c 412c412a 36460d0a 24474e5a |.00,A,A*6F..$GNZ|
00000000000002e0: 44412c31 36303131 372e3030 2c31322c |DA,160117.00,12,|
00000000000002f0: 30352c32 3032332c 30302c30 302a3744 |05,2023,00,00*7D|
0000000000000300: 0d0a2447 4e524d43 2c313630 3131382e |..$GNRMC,160118.|
0000000000000310: 30302c41 2c333934 372e3635 3639302c |00,A,3947.65690,|
0000000000000320: 4e2c3130 3530392e 31393936 312c572c |N,10509.19961,W,|
0000000000000330: 302e3030 372c2c31 32303532 332c2c2c |0.007,,120523,,,|
0000000000000340: 412c562a 30370d0a 24474e56 54472c2c |A,V*07..$GNVTG,,|
0000000000000350: 542c2c4d 2c302e30 30372c4e 2c302e30 |T,,M,0.007,N,0.0|
0000000000000360: 31332c4b 2c412a33 380d0a24 474e4747 |13,K,A*38..$GNGG|
0000000000000370: 412c3136 30313138 2e30302c 33393437 |A,160118.00,3947|
0000000000000380: 2e363536 39302c4e 2c313035 30392e31 |.65690,N,10509.1|
0000000000000390: 39393631 2c572c31 2c30352c 332e3637 |9961,W,1,05,3.67|
00000000000003a0: 2c313730 352e352c 4d2c2d32 312e352c |,1705.5,M,-21.5,|
00000000000003b0: 4d2c2c2a 34420d0a 24474e47 53412c41 |M,,*4B..$GNGSA,A|
00000000000003c0: 2c332c31 372c3139 2c33302c 31332c30 |,3,17,19,30,13,0|
00000000000003d0: 362c2c2c 2c2c2c2c 2c362e32 382c332e |6,,,,,,,,6.28,3.|
00000000000003e0: 36372c35 2e31302c 312a3032 0d0a2447 |67,5.10,1*02..$G|
00000000000003f0: 4e475341 2c412c33 2c2c2c2c 2c2c2c2c |NGSA,A,3,,,,,,,,|
0000000000000400: 2c2c2c2c 2c362e32 382c332e 36372c35 |,,,,,6.28,3.67,5|
0000000000000410: 2e31302c 332a3039 0d0a2447 4e475341 |.10,3*09..$GNGSA|
0000000000000420: 2c412c33 2c2c2c2c 2c2c2c2c 2c2c2c2c |,A,3,,,,,,,,,,,,|
0000000000000430: 2c362e32 382c332e 36372c35 2e31302c |,6.28,3.67,5.10,|
0000000000000440: 342a3045 0d0a2447 4e475341 2c412c33 |4*0E..$GNGSA,A,3|
0000000000000450: 2c2c2c2c 2c2c2c2c 2c2c2c2c 2c362e32 |,,,,,,,,,,,,,6.2|
0000000000000460: 382c332e 36372c35 2e31302c 352a3046 |8,3.67,5.10,5*0F|
0000000000000470: 0d0a2447 50475356 2c322c31 2c30382c |..$GPGSV,2,1,08,|
0000000000000480: 30362c32 382c3137 362c3237 2c31332c |06,28,176,27,13,|
0000000000000490: 32332c32 33392c32 312c3135 2c31312c |23,239,21,15,11,|
00000000000004a0: 3236392c 31342c31 372c3830 2c303037 |269,14,17,80,007|
00000000000004b0: 2c31322c 312a3638 0d0a2447 50475356 |,12,1*68..$GPGSV|
00000000000004c0: 2c322c32 2c30382c 31392c36 362c3234 |,2,2,08,19,66,24|
00000000000004d0: 382c3234 2c33302c 32392c31 36302c32 |8,24,30,29,160,2|
00000000000004e0: 342c3434 2c34322c 3139382c 32392c34 |4,44,42,198,29,4|
00000000000004f0: 382c3430 2c323039 2c32392c 312a3630 |8,40,209,29,1*60|
0000000000000500: 0d0a2447 50475356 2c322c31 2c30362c |..$GPGSV,2,1,06,|
0000000000000510: 30312c32 362c3034 372c2c30 332c3033 |01,26,047,,03,03|
0000000000000520: 2c303931 2c2c3134 2c35362c 3037382c |,091,,14,56,078,|
0000000000000530: 2c32312c 30362c30 33352c2c 302a3634 |,21,06,035,,0*64|
0000000000000540: 0d0a2447 50475356 2c322c32 2c30362c |..$GPGSV,2,2,06,|
0000000000000550: 32342c32 302c3331 352c2c34 362c3338 |24,20,315,,46,38|
0000000000000560: 2c323135 2c2c302a 36460d0a 24474147 |,215,,0*6F..$GAG|
0000000000000570: 53562c31 2c312c30 302c302a 37340d0a |SV,1,1,00,0*74..|
0000000000000580: 24474247 53562c31 2c312c30 302c302a |$GBGSV,1,1,00,0*|
0000000000000590: 37370d0a 24475147 53562c31 2c312c30 |77..$GQGSV,1,1,0|
00000000000005a0: 302c302a 36340d0a 24474e47 4c4c2c33 |0,0*64..$GNGLL,3|
00000000000005b0: 3934372e 36353639 302c4e2c 31303530 |947.65690,N,1050|
00000000000005c0: 392e3139 3936312c 572c3136 30313138 |9.19961,W,160118|
00000000000005d0: 2e30302c 412c412a 36340d0a 24474e5a |.00,A,A*64..$GNZ|
00000000000005e0: 44412c31 36303131 382e3030 2c31322c |DA,160118.00,12,|
00000000000005f0: 30352c32 3032332c 30302c30 302a3732 |05,2023,00,00*72|
0000000000000600: 0d0ab562 02771000 00010901 0af32200 |...b.w........".|
0000000000000610: 000d0e20 040b0600 0380b562 02771000 |... .......b.w..|
0000000000000620: 00000901 0af32200 000d0e20 040a0600 |......".... ....|
0000000000000630: 016eb562 02771000 00010701 f5f32200 |.n.b.w........".|
0000000000000640: 00020322 030b0600 d7dfb562 02771000 |...".......b.w..|
0000000000000650: 00000701 f5f32200 00020322 030a0600 |......"...."....|
0000000000000660: d5cd2447 4e524d43 2c313630 3131392e |..$GNRMC,160119.|
0000000000000670: 30302c41 2c333934 372e3635 3638362c |00,A,3947.65686,|
0000000000000680: 4e2c3130 3530392e 31393936 332c572c |N,10509.19963,W,|
0000000000000690: 302e3030 372c2c31 32303532 332c2c2c |0.007,,120523,,,|
00000000000006a0: 412c562a 30330d0a 24474e56 54472c2c |A,V*03..$GNVTG,,|
00000000000006b0: 542c2c4d 2c302e30 30372c4e 2c302e30 |T,,M,0.007,N,0.0|
00000000000006c0: 31342c4b 2c412a33 460d0a24 474e4747 |14,K,A*3F..$GNGG|
00000000000006d0: 412c3136 30313139 2e30302c 33393437 |A,160119.00,3947|
00000000000006e0: 2e363536 38362c4e 2c313035 30392e31 |.65686,N,10509.1|
00000000000006f0: 39393633 2c572c31 2c30352c 332e3637 |9963,W,1,05,3.67|
0000000000000700: 2c313730 352e362c 4d2c2d32 312e352c |,1705.6,M,-21.5,|
0000000000000710: 4d2c2c2a 34430d0a 24474e47 53412c41 |M,,*4C..$GNGSA,A|
0000000000000720: 2c332c31 372c3139 2c33302c 31332c30 |,3,17,19,30,13,0|
0000000000000730: 362c2c2c 2c2c2c2c 2c362e32 382c332e |6,,,,,,,,6.28,3.|
0000000000000740: 36372c35 2e31302c 312a3032 0d0a2447 |67,5.10,1*02..$G|
0000000000000750: 4e475341 2c412c33 2c2c2c2c 2c2c2c2c |NGSA,A,3,,,,,,,,|
0000000000000760: 2c2c2c2c 2c362e32 382c332e 36372c35 |,,,,,6.28,3.67,5|
0000000000000770: 2e31302c 332a3039 0d0a2447 4e475341 |.10,3*09..$GNGSA|
0000000000000780: 2c412c33 2c2c2c2c 2c2c2c2c 2c2c2c2c |,A,3,,,,,,,,,,,,|
0000000000000790: 2c362e32 382c332e 36372c35 2e31302c |,6.28,3.67,5.10,|
00000000000007a0: 342a3045 0d0a2447 4e475341 2c412c33 |4*0E..$GNGSA,A,3|
00000000000007b0: 2c2c2c2c 2c2c2c2c 2c2c2c2c 2c362e32 |,,,,,,,,,,,,,6.2|
00000000000007c0: 382c332e 36372c35 2e31302c 352a3046 |8,3.67,5.10,5*0F|
00000000000007d0: 0d0a2447 50475356 2c322c31 2c30382c |..$GPGSV,2,1,08,|
00000000000007e0: 30362c32 382c3137 362c3237 2c31332c |06,28,176,27,13,|
00000000000007f0: 32332c32 33392c32 312c3135 2c31312c |23,239,21,15,11,|
0000000000000800: 3236392c 31332c31 372c3830 2c303037 |269,13,17,80,007|
0000000000000810: 2c31342c 312a3639 0d0a2447 50475356 |,14,1*69..$GPGSV|
0000000000000820: 2c322c32 2c30382c 31392c36 362c3234 |,2,2,08,19,66,24|
0000000000000830: 382c3234 2c33302c 32392c31 36302c32 |8,24,30,29,160,2|
0000000000000840: 342c3434 2c34322c 3139382c 32392c34 |4,44,42,198,29,4|
0000000000000850: 382c3430 2c323039 2c33302c 312a3638 |8,40,209,30,1*68|
0000000000000860: 0d0a2447 50475356 2c322c31 2c30362c |..$GPGSV,2,1,06,|
0000000000000870: 30312c32 362c3034 372c2c30 332c3033 |01,26,047,,03,03|
0000000000000880: 2c303931 2c2c3134 2c35362c 3037382c |,091,,14,56,078,|
0000000000000890: 2c32312c 30362c30 33352c2c 302a3634 |,21,06,035,,0*64|
00000000000008a0: 0d0a2447 50475356 2c322c32 2c30362c |..$GPGSV,2,2,06,|
00000000000008b0: 32342c32 302c3331 352c2c34 362c3338 |24,20,315,,46,38|
00000000000008c0: 2c323135 2c2c302a 36460d0a 24474147 |,215,,0*6F..$GAG|
00000000000008d0: 53562c31 2c312c30 302c302a 37340d0a |SV,1,1,00,0*74..|
00000000000008e0: 24474247 53562c31 2c312c30 302c302a |$GBGSV,1,1,00,0*|
00000000000008f0: 37370d0a 24475147 53562c31 2c312c30 |77..$GQGSV,1,1,0|
0000000000000900: 302c302a 36340d0a 24474e47 4c4c2c33 |0,0*64..$GNGLL,3|
0000000000000910: 3934372e 36353638 362c4e2c 31303530 |947.65686,N,1050|
0000000000000920: 392e3139 3936332c 572c3136 30313139 |9.19963,W,160119|
0000000000000930: 2e30302c 412c412a 36300d0a 24474e5a |.00,A,A*60..$GNZ|
0000000000000940: 44412c31 36303131 392e3030 2c31322c |DA,160119.00,12,|
0000000000000950: 30352c32 3032332c 30302c30 302a3733 |05,2023,00,00*73|
0000000000000960: 0d0ab562 02771000 00010a01 aff72200 |...b.w........".|
0000000000000970: 00171820 040b0600 c1f8b562 02771000 |... .......b.w..|
0000000000000980: 00000a01 aff72200 00171820 040a0600 |......".... ....|
0000000000000990: bfe62447 4e524d43 2c313630 3132302e |..$GNRMC,160120.|
00000000000009a0: 30302c41 2c333934 372e3635 3638312c |00,A,3947.65681,|
00000000000009b0: 4e2c3130 3530392e 31393936 352c572c |N,10509.19965,W,|
00000000000009c0: 302e3030 382c2c31 32303532 332c2c2c |0.008,,120523,,,|
00000000000009d0: 412c562a 30370d0a 24474e56 54472c2c |A,V*07..$GNVTG,,|
00000000000009e0: 542c2c4d 2c302e30 30382c4e 2c302e30 |T,,M,0.008,N,0.0|
00000000000009f0: 31342c4b 2c412a33 300d0a24 474e4747 |14,K,A*30..$GNGG|
0000000000000a00: 412c3136 30313230 2e30302c 33393437 |A,160120.00,3947|
0000000000000a10: 2e363536 38312c4e 2c313035 30392e31 |.65681,N,10509.1|
0000000000000a20: 39393635 2c572c31 2c30352c 332e3636 |9965,W,1,05,3.66|
0000000000000a30: 2c313730 352e372c 4d2c2d32 312e352c |,1705.7,M,-21.5,|
0000000000000a40: 4d2c2c2a 34370d0a 24474e47 53412c41 |M,,*47..$GNGSA,A|
0000000000000a50: 2c332c31 372c3139 2c33302c 31332c30 |,3,17,19,30,13,0|
0000000000000a60: 362c2c2c 2c2c2c2c 2c362e32 382c332e |6,,,,,,,,6.28,3.|
0000000000000a70: 36362c35 2e31302c 312a3033 0d0a2447 |66,5.10,1*03..$G|
0000000000000a80: 4e475341 2c412c33 2c2c2c2c 2c2c2c2c |NGSA,A,3,,,,,,,,|
0000000000000a90: 2c2c2c2c 2c362e32 382c332e 36362c35 |,,,,,6.28,3.66,5|
0000000000000aa0: 2e31302c 332a3038 0d0a2447 4e475341 |.10,3*08..$GNGSA|
0000000000000ab0: 2c412c33 2c2c2c2c 2c2c2c2c 2c2c2c2c |,A,3,,,,,,,,,,,,|
0000000000000ac0: 2c362e32 382c332e 36362c35 2e31302c |,6.28,3.66,5.10,|
0000000000000ad0: 342a3046 0d0a2447 4e475341 2c412c33 |4*0F..$GNGSA,A,3|
0000000000000ae0: 2c2c2c2c 2c2c2c2c 2c2c2c2c 2c362e32 |,,,,,,,,,,,,,6.2|
0000000000000af0: 382c332e 36362c35 2e31302c 352a3045 |8,3.66,5.10,5*0E|
0000000000000b00: 0d0a2447 50475356 2c322c31 2c30382c |..$GPGSV,2,1,08,|
0000000000000b10: 30362c32 382c3137 362c3237 2c31332c |06,28,176,27,13,|
0000000000000b20: 32332c32 33392c32 302c3135 2c31312c |23,239,20,15,11,|
0000000000000b30: 3236392c 31322c31 372c3830 2c303037 |269,12,17,80,007|
0000000000000b40: 2c31332c 312a3645 0d0a2447 50475356 |,13,1*6E..$GPGSV|
0000000000000b50: 2c322c32 2c30382c 31392c36 362c3234 |,2,2,08,19,66,24|
0000000000000b60: 382c3234 2c33302c 32392c31 36302c32 |8,24,30,29,160,2|
0000000000000b70: 352c3434 2c34322c 3139382c 32392c34 |5,44,42,198,29,4|
0000000000000b80: 382c3430 2c323039 2c32392c 312a3631 |8,40,209,29,1*61|
0000000000000b90: 0d0a2447 50475356 2c322c31 2c30362c |..$GPGSV,2,1,06,|
0000000000000ba0: 30312c32 362c3034 372c2c30 332c3033 |01,26,047,,03,03|
0000000000000bb0: 2c303931 2c2c3134 2c35362c 3037382c |,091,,14,56,078,|
0000000000000bc0: 2c32312c 30362c30 33352c2c 302a3634 |,21,06,035,,0*64|
0000000000000bd0: 0d0a2447 50475356 2c322c32 2c30362c |..$GPGSV,2,2,06,|
0000000000000be0: 32342c32 302c3331 352c2c34 362c3338 |24,20,315,,46,38|
0000000000000bf0: 2c323135 2c2c302a 36460d0a 24474147 |,215,,0*6F..$GAG|
0000000000000c00: 53562c31 2c312c30 302c302a 37340d0a |SV,1,1,00,0*74..|
0000000000000c10: 24474247 53562c31 2c312c30 302c302a |$GBGSV,1,1,00,0*|
0000000000000c20: 37370d0a 24475147 53562c31 2c312c30 |77..$GQGSV,1,1,0|
0000000000000c30: 302c302a 36340d0a 24474e47 4c4c2c33 |0,0*64..$GNGLL,3|
0000000000000c40: 3934372e 36353638 312c4e2c 31303530 |947.65681,N,1050|
0000000000000c50: 392e3139 3936352c 572c3136 30313230 |9.19965,W,160120|
0000000000000c60: 2e30302c 412c412a 36420d0a 24474e5a |.00,A,A*6B..$GNZ|
0000000000000c70: 44412c31 36303132 302e3030 2c31322c |DA,160120.00,12,|
0000000000000c80: 30352c32 3032332c 30302c30 302a3739 |05,2023,00,00*79|
0000000000000c90: 0d0ab562 02771000 00010601 a8fb2200 |...b.w........".|
0000000000000ca0: 00141520 040b0600 b471b562 02771000 |... .....q.b.w..|
0000000000000cb0: 00000601 a8fb2200 00141520 040a0600 |......".... ....|
0000000000000cc0: b25f2447 4e524d43 2c313630 3132312e |._$GNRMC,160121.|
0000000000000cd0: 30302c41 2c333934 372e3635 3637352c |00,A,3947.65675,|
0000000000000ce0: 4e2c3130 3530392e 31393936 372c572c |N,10509.19967,W,|
0000000000000cf0: 302e3030 382c2c31 32303532 332c2c2c |0.008,,120523,,,|
0000000000000d00: 412c562a 30460d0a 24474e56 54472c2c |A,V*0F..$GNVTG,,|
0000000000000d10: 542c2c4d 2c302e30 30382c4e 2c302e30 |T,,M,0.008,N,0.0|
0000000000000d20: 31352c4b 2c412a33 310d0a24 474e4747 |15,K,A*31..$GNGG|
0000000000000d30: 412c3136 30313231 2e30302c 33393437 |A,160121.00,3947|
0000000000000d40: 2e363536 37352c4e 2c313035 30392e31 |.65675,N,10509.1|
0000000000000d50: 39393637 2c572c31 2c30352c 332e3636 |9967,W,1,05,3.66|
0000000000000d60: 2c313730 352e392c 4d2c2d32 312e352c |,1705.9,M,-21.5,|
0000000000000d70: 4d2c2c2a 34310d0a 24474e47 53412c41 |M,,*41..$GNGSA,A|
0000000000000d80: 2c332c31 372c3139 2c33302c 31332c30 |,3,17,19,30,13,0|
0000000000000d90: 362c2c2c 2c2c2c2c 2c362e32 382c332e |6,,,,,,,,6.28,3.|
0000000000000da0: 36362c35 2e31302c 312a3033 0d0a2447 |66,5.10,1*03..$G|
0000000000000db0: 4e475341 2c412c33 2c2c2c2c 2c2c2c2c |NGSA,A,3,,,,,,,,|
0000000000000dc0: 2c2c2c2c 2c362e32 382c332e 36362c35 |,,,,,6.28,3.66,5|
0000000000000dd0: 2e31302c 332a3038 0d0a2447 4e475341 |.10,3*08..$GNGSA|
0000000000000de0: 2c412c33 2c2c2c2c 2c2c2c2c 2c2c2c2c |,A,3,,,,,,,,,,,,|
0000000000000df0: 2c362e32 382c332e 36362c35 2e31302c |,6.28,3.66,5.10,|
0000000000000e00: 342a3046 0d0a2447 4e475341 2c412c33 |4*0F..$GNGSA,A,3|
0000000000000e10: 2c2c2c2c 2c2c2c2c 2c2c2c2c 2c362e32 |,,,,,,,,,,,,,6.2|
0000000000000e20: 382c332e 36362c35 2e31302c 352a3045 |8,3.66,5.10,5*0E|
0000000000000e30: 0d0a2447 50475356 2c322c31 2c30382c |..$GPGSV,2,1,08,|
0000000000000e40: 30362c32 382c3137 362c3237 2c31332c |06,28,176,27,13,|
0000000000000e50: 32332c32 33392c32 312c3135 2c31312c |23,239,21,15,11,|
0000000000000e60: 3236392c 31342c31 372c3830 2c303037 |269,14,17,80,007|
0000000000000e70: 2c31332c 312a3639 0d0a2447 50475356 |,13,1*69..$GPGSV|
0000000000000e80: 2c322c32 2c30382c 31392c36 362c3234 |,2,2,08,19,66,24|
0000000000000e90: 382c3233 2c33302c 32392c31 36302c32 |8,23,30,29,160,2|
0000000000000ea0: 352c3434 2c34322c 3139382c 32392c34 |5,44,42,198,29,4|
0000000000000eb0: 382c3430 2c323039 2c32392c 312a3636 |8,40,209,29,1*66|
0000000000000ec0: 0d0a2447 50475356 2c322c31 2c30362c |..$GPGSV,2,1,06,|
0000000000000ed0: 30312c32 362c3034 372c2c30 332c3033 |01,26,047,,03,03|
0000000000000ee0: 2c303931 2c2c3134 2c35362c 3037382c |,091,,14,56,078,|
0000000000000ef0: 2c32312c 30362c30 33352c2c 302a3634 |,21,06,035,,0*64|
0000000000000f00: 0d0a2447 50475356 2c322c32 2c30362c |..$GPGSV,2,2,06,|
0000000000000f10: 32342c32 302c3331 352c2c34 362c3338 |24,20,315,,46,38|
0000000000000f20: 2c323135 2c2c302a 36460d0a 24474147 |,215,,0*6F..$GAG|
0000000000000f30: 53562c31 2c312c30 302c302a 37340d0a |SV,1,1,00,0*74..|
0000000000000f40: 24474247 53562c31 2c312c30 302c302a |$GBGSV,1,1,00,0*|
0000000000000f50: 37370d0a 24475147 53562c31 2c312c30 |77..$GQGSV,1,1,0|
0000000000000f60: 302c302a 36340d0a 24474e47 4c4c2c33 |0,0*64..$GNGLL,3|
0000000000000f70: 3934372e 36353637 352c4e2c 31303530 |947.65675,N,1050|
0000000000000f80: 392e3139 3936372c 572c3136 30313231 |9.19967,W,160121|
0000000000000f90: 2e30302c 412c412a 36330d0a 24474e5a |.00,A,A*63..$GNZ|
0000000000000fa0: 44412c31 36303132 312e3030 2c31322c |DA,160121.00,12,|
0000000000000fb0: 30352c32 3032332c 30302c30 302a3738 |05,2023,00,00*78|
0000000000000fc0: 0d0a2447 4e524d43 2c313630 3132322e |..$GNRMC,160122.|
0000000000000fd0: 30302c41 2c333934 372e3635 3636392c |00,A,3947.65669,|
0000000000000fe0: 4e2c3130 3530392e 31393936 382c572c |N,10509.19968,W,|
0000000000000ff0: 302e3030 382c2c31 32303532 332c2c2c |0.008,,120523,,,|
0000000000001000: 412c562a 30450d0a 24474e56 54472c2c |A,V*0E..$GNVTG,,|
0000000000001010: 542c2c4d 2c302e30 30382c4e 2c302e30 |T,,M,0.008,N,0.0|
0000000000001020: 31352c4b 2c412a33 310d0a24 474e4747 |15,K,A*31..$GNGG|
0000000000001030: 412c3136 30313232 2e30302c 33393437 |A,160122.00,3947|
0000000000001040: 2e363536 36392c4e 2c313035 30392e31 |.65669,N,10509.1|
0000000000001050: 39393638 2c572c31 2c30352c 332e3636 |9968,W,1,05,3.66|
0000000000001060: 2c313730 362e302c 4d2c2d32 312e352c |,1706.0,M,-21.5,|
0000000000001070: 4d2c2c2a 34410d0a 24474e47 53412c41 |M,,*4A..$GNGSA,A|
0000000000001080: 2c332c31 372c3139 2c33302c 31332c30 |,3,17,19,30,13,0|
0000000000001090: 362c2c2c 2c2c2c2c 2c362e32 382c332e |6,,,,,,,,6.28,3.|
00000000000010a0: 36362c35 2e31302c 312a3033 0d0a2447 |66,5.10,1*03..$G|
00000000000010b0: 4e475341 2c412c33 2c2c2c2c 2c2c2c2c |NGSA,A,3,,,,,,,,|
00000000000010c0: 2c2c2c2c 2c362e32 382c332e 36362c35 |,,,,,6.28,3.66,5|
00000000000010d0: 2e31302c 332a3038 0d0a2447 4e475341 |.10,3*08..$GNGSA|
00000000000010e0: 2c412c33 2c2c2c2c 2c2c2c2c 2c2c2c2c |,A,3,,,,,,,,,,,,|
00000000000010f0: 2c362e32 382c332e 36362c35 2e31302c |,6.28,3.66,5.10,|
0000000000001100: 342a3046 0d0a2447 4e475341 2c412c33 |4*0F..$GNGSA,A,3|
0000000000001110: 2c2c2c2c 2c2c2c2c 2c2c2c2c 2c362e32 |,,,,,,,,,,,,,6.2|
0000000000001120: 382c332e 36362c35 2e31302c 352a3045 |8,3.66,5.10,5*0E|
0000000000001130: 0d0a2447 50475356 2c322c31 2c30382c |..$GPGSV,2,1,08,|
0000000000001140: 30362c32 382c3137 362c3237 2c31332c |06,28,176,27,13,|
0000000000001150: 32332c32 33392c32 312c3135 2c31312c |23,239,21,15,11,|
0000000000001160: 3236392c 31342c31 372c3830 2c303037 |269,14,17,80,007|
0000000000001170: 2c31332c 312a3639 0d0a2447 50475356 |,13,1*69..$GPGSV|
0000000000001180: 2c322c32 2c30382c 31392c36 362c3234 |,2,2,08,19,66,24|
0000000000001190: 382c3233 2c33302c 32392c31 36302c32 |8,23,30,29,160,2|
00000000000011a0: 352c3434 2c34322c 3139382c 32392c34 |5,44,42,198,29,4|
00000000000011b0: 382c3430 2c323039 2c33302c 312a3645 |8,40,209,30,1*6E|
00000000000011c0: 0d0a2447 50475356 2c322c31 2c30362c |..$GPGSV,2,1,06,|
00000000000011d0: 30312c32 362c3034 372c2c30 332c3033 |01,26,047,,03,03|
00000000000011e0: 2c303931 2c2c3134 2c35362c 3037382c |,091,,14,56,078,|
00000000000011f0: 2c32312c 30362c30 33352c2c 302a3634 |,21,06,035,,0*64|
0000000000001200: 0d0a2447 50475356 2c322c32 2c30362c |..$GPGSV,2,2,06,|
0000000000001210: 32342c32 302c3331 352c2c34 362c3338 |24,20,315,,46,38|
0000000000001220: 2c323135 2c2c302a 36460d0a 24474147 |,215,,0*6F..$GAG|
0000000000001230: 53562c31 2c312c30 302c302a 37340d0a |SV,1,1,00,0*74..|
0000000000001240: 24474247 53562c31 2c312c30 302c302a |$GBGSV,1,1,00,0*|
0000000000001250: 37370d0a 24475147 53562c31 2c312c30 |77..$GQGSV,1,1,0|
0000000000001260: 302c302a 36340d0a 24474e47 4c4c2c33 |0,0*64..$GNGLL,3|
0000000000001270: 3934372e 36353636 392c4e2c 31303530 |947.65669,N,1050|
0000000000001280: 392e3139 3936382c 572c3136 30313232 |9.19968,W,160122|
0000000000001290: 2e30302c 412c412a 36320d0a 24474e5a |.00,A,A*62..$GNZ|
00000000000012a0: 44412c31 36303132 322e3030 2c31322c |DA,160122.00,12,|
00000000000012b0: 30352c32 3032332c 30302c30 302a3742 |05,2023,00,00*7B|
00000000000012c0: 0d0a2447 4e524d43 2c313630 3132332e |..$GNRMC,160123.|
00000000000012d0: 30302c41 2c333934 372e3635 3636352c |00,A,3947.65665,|
00000000000012e0: 4e2c3130 3530392e 31393936 392c572c |N,10509.19969,W,|
00000000000012f0: 302e3030 392c2c31 32303532 332c2c2c |0.009,,120523,,,|
0000000000001300: 412c562a 30330d0a 24474e56 54472c2c |A,V*03..$GNVTG,,|
0000000000001310: 542c2c4d 2c302e30 30392c4e 2c302e30 |T,,M,0.009,N,0.0|
0000000000001320: 31362c4b 2c412a33 330d0a24 474e4747 |16,K,A*33..$GNGG|
0000000000001330: 412c3136 30313233 2e30302c 33393437 |A,160123.00,3947|
0000000000001340: 2e363536 36352c4e 2c313035 30392e31 |.65665,N,10509.1|
0000000000001350: 39393639 2c572c31 2c30352c 332e3636 |9969,W,1,05,3.66|
0000000000001360: 2c313730 362e312c 4d2c2d32 312e352c |,1706.1,M,-21.5,|
0000000000001370: 4d2c2c2a 34370d0a 24474e47 53412c41 |M,,*47..$GNGSA,A|
0000000000001380: 2c332c31 372c3139 2c33302c 31332c30 |,3,17,19,30,13,0|
0000000000001390: 362c2c2c 2c2c2c2c 2c362e32 372c332e |6,,,,,,,,6.27,3.|
00000000000013a0: 36362c35 2e31302c 312a3043 0d0a2447 |66,5.10,1*0C..$G|
00000000000013b0: 4e475341 2c412c33 2c2c2c2c 2c2c2c2c |NGSA,A,3,,,,,,,,|
00000000000013c0: 2c2c2c2c 2c362e32 372c332e 36362c35 |,,,,,6.27,3.66,5|
00000000000013d0: 2e31302c 332a3037 0d0a2447 4e475341 |.10,3*07..$GNGSA|
00000000000013e0: 2c412c33 2c2c2c2c 2c2c2c2c 2c2c2c2c |,A,3,,,,,,,,,,,,|
00000000000013f0: 2c362e32 372c332e 36362c35 2e31302c |,6.27,3.66,5.10,|
0000000000001400: 342a3030 0d0a2447 4e475341 2c412c33 |4*00..$GNGSA,A,3|
0000000000001410: 2c2c2c2c 2c2c2c2c 2c2c2c2c 2c362e32 |,,,,,,,,,,,,,6.2|
0000000000001420: 372c332e 36362c35 2e31302c 352a3031 |7,3.66,5.10,5*01|
0000000000001430: 0d0a2447 50475356 2c322c31 2c30382c |..$GPGSV,2,1,08,|
0000000000001440: 30362c32 382c3137 362c3237 2c31332c |06,28,176,27,13,|
0000000000001450: 32332c32 33392c32 312c3135 2c31312c |23,239,21,15,11,|
0000000000001460: 3236392c 31332c31 372c3830 2c303037 |269,13,17,80,007|
0000000000001470: 2c31342c 312a3639 0d0a2447 50475356 |,14,1*69..$GPGSV|
0000000000001480: 2c322c32 2c30382c 31392c36 362c3234 |,2,2,08,19,66,24|
0000000000001490: 382c3234 2c33302c 32392c31 36302c32 |8,24,30,29,160,2|
00000000000014a0: 352c3434 2c34322c 3139382c 32392c34 |5,44,42,198,29,4|
00000000000014b0: 382c3430 2c323039 2c33302c 312a3639 |8,40,209,30,1*69|
00000000000014c0: 0d0a2447 50475356 2c322c31 2c30362c |..$GPGSV,2,1,06,|
00000000000014d0: 30312c32 362c3034 372c2c30 332c3033 |01,26,047,,03,03|
00000000000014e0: 2c303931 2c2c3134 2c35362c 3037382c |,091,,14,56,078,|
00000000000014f0: 2c32312c 30362c30 33352c2c 302a3634 |,21,06,035,,0*64|
0000000000001500: 0d0a2447 50475356 2c322c32 2c30362c |..$GPGSV,2,2,06,|
0000000000001510: 32342c32 302c3331 352c2c34 362c3338 |24,20,315,,46,38|
0000000000001520: 2c323135 2c2c302a 36460d0a 24474147 |,215,,0*6F..$GAG|
0000000000001530: 53562c31 2c312c30 302c302a 37340d0a |SV,1,1,00,0*74..|
0000000000001540: 24474247 53562c31 2c312c30 302c302a |$GBGSV,1,1,00,0*|
0000000000001550: 37370d0a 24475147 53562c31 2c312c30 |77..$GQGSV,1,1,0|
0000000000001560: 302c302a 36340d0a 24474e47 4c4c2c33 |0,0*64..$GNGLL,3|
0000000000001570: 3934372e 36353636 352c4e2c 31303530 |947.65665,N,1050|
0000000000001580: 392e3139 3936392c 572c3136 30313233 |9.19969,W,160123|
0000000000001590: 2e30302c 412c412a 36450d0a 24474e5a |.00,A,A*6E..$GNZ|
00000000000015a0: 44412c31 36303132 332e3030 2c31322c |DA,160123.00,12,|
00000000000015b0: 30352c32 3032332c 30302c30 302a3741 |05,2023,00,00*7A|
00000000000015c0: 0d0ab562 02771000 00010901 5a072300 |...b.w......Z.#.|
00000000000015d0: 000d0e20 040b0600 6826b562 02771000 |... ....h&.b.w..|
00000000000015e0: 00000901 5a072300 000d0e20 040a0600 |....Z.#.... ....|
00000000000015f0: 6614b562 02771000 00010701 31082300 |f..b.w......1.#.|
0000000000001600: 00020322 030b0600 29a0b562 02771000 |..."....)..b.w..|
0000000000001610: 00000701 31082300 00020322 030a0600 |....1.#...."....|
0000000000001620: 278e2447 4e524d43 2c313630 3132342e |'.$GNRMC,160124.|
0000000000001630: 30302c41 2c333934 372e3635 3636312c |00,A,3947.65661,|
0000000000001640: 4e2c3130 3530392e 31393937 302c572c |N,10509.19970,W,|
0000000000001650: 302e3030 392c2c31 32303532 332c2c2c |0.009,,120523,,,|
0000000000001660: 412c562a 30380d0a 24474e56 54472c2c |A,V*08..$GNVTG,,|
0000000000001670: 542c2c4d 2c302e30 30392c4e 2c302e30 |T,,M,0.009,N,0.0|
0000000000001680: 31362c4b 2c412a33 330d0a24 474e4747 |16,K,A*33..$GNGG|
0000000000001690: 412c3136 30313234 2e30302c 33393437 |A,160124.00,3947|
00000000000016a0: 2e363536 36312c4e 2c313035 30392e31 |.65661,N,10509.1|
00000000000016b0: 39393730 2c572c31 2c30352c 332e3636 |9970,W,1,05,3.66|
00000000000016c0: 2c313730 362e322c 4d2c2d32 312e352c |,1706.2,M,-21.5,|
00000000000016d0: 4d2c2c2a 34460d0a 24474e47 53412c41 |M,,*4F..$GNGSA,A|
00000000000016e0: 2c332c31 372c3139 2c33302c 31332c30 |,3,17,19,30,13,0|
00000000000016f0: 362c2c2c 2c2c2c2c 2c362e32 372c332e |6,,,,,,,,6.27,3.|
0000000000001700: 36362c35 2e30392c 312a3034 0d0a2447 |66,5.09,1*04..$G|
0000000000001710: 4e475341 2c412c33 2c2c2c2c 2c2c2c2c |NGSA,A,3,,,,,,,,|
0000000000001720: 2c2c2c2c 2c362e32 372c332e 36362c35 |,,,,,6.27,3.66,5|
0000000000001730: 2e30392c 332a3046 0d0a2447 4e475341 |.09,3*0F..$GNGSA|
0000000000001740: 2c412c33 2c2c2c2c 2c2c2c2c 2c2c2c2c |,A,3,,,,,,,,,,,,|
0000000000001750: 2c362e32 372c332e 36362c35 2e30392c |,6.27,3.66,5.09,|
0000000000001760: 342a3038 0d0a2447 4e475341 2c412c33 |4*08..$GNGSA,A,3|
0000000000001770: 2c2c2c2c 2c2c2c2c 2c2c2c2c 2c362e32 |,,,,,,,,,,,,,6.2|
0000000000001780: 372c332e 36362c35 2e30392c 352a3039 |7,3.66,5.09,5*09|
0000000000001790: 0d0a2447 50475356 2c322c31 2c30382c |..$GPGSV,2,1,08,|
00000000000017a0: 30362c32 382c3137 362c3237 2c31332c |06,28,176,27,13,|
00000000000017b0: 32332c32 33392c32 302c3135 2c31312c |23,239,20,15,11,|
00000000000017c0: 3236392c 31332c31 372c3830 2c303037 |269,13,17,80,007|
00000000000017d0: 2c31342c 312a3638 0d0a2447 50475356 |,14,1*68..$GPGSV|
00000000000017e0: 2c322c32 2c30382c 31392c36 362c3234 |,2,2,08,19,66,24|
00000000000017f0: 382c3234 2c33302c 32392c31 36302c32 |8,24,30,29,160,2|
0000000000001800: 352c3434 2c34322c 3139382c 32392c34 |5,44,42,198,29,4|
0000000000001810: 382c3430 2c323039 2c33302c 312a3639 |8,40,209,30,1*69|
0000000000001820: 0d0a2447 50475356 2c322c31 2c30362c |..$GPGSV,2,1,06,|
0000000000001830: 30312c32 362c3034 372c2c30 332c3033 |01,26,047,,03,03|
0000000000001840: 2c303931 2c2c3134 2c35362c 3037382c |,091,,14,56,078,|
0000000000001850: 2c32312c 30362c30 33352c2c 302a3634 |,21,06,035,,0*64|
0000000000001860: 0d0a2447 50475356 2c322c32 2c30362c |..$GPGSV,2,2,06,|
0000000000001870: 32342c32 302c3331 352c2c34 362c3338 |24,20,315,,46,38|
0000000000001880: 2c323135 2c2c302a 36460d0a 24474147 |,215,,0*6F..$GAG|
0000000000001890: 53562c31 2c312c30 302c302a 37340d0a |SV,1,1,00,0*74..|
00000000000018a0: 24474247 53562c31 2c312c30 302c302a |$GBGSV,1,1,00,0*|
00000000000018b0: 37370d0a 24475147 53562c31 2c312c30 |77..$GQGSV,1,1,0|
00000000000018c0: 302c302a 36340d0a 24474e47 4c4c2c33 |0,0*64..$GNGLL,3|
00000000000018d0: 3934372e 36353636 312c4e2c 31303530 |947.65661,N,1050|
00000000000018e0: 392e3139 3937302c 572c3136 30313234 |9.19970,W,160124|
00000000000018f0: 2e30302c 412c412a 36350d0a 24474e5a |.00,A,A*65..$GNZ|
0000000000001900: 44412c31 36303132 342e3030 2c31322c |DA,160124.00,12,|
0000000000001910: 30352c32 3032332c 30302c30 302a3744 |05,2023,00,00*7D|
0000000000001920: 0d0ab562 02771000 00010a01 eb0b2300 |...b.w........#.|
0000000000001930: 00171820 040b0600 12aeb562 02771000 |... .......b.w..|
0000000000001940: 00000a01 eb0b2300 00171820 040a0600 |......#.... ....|
0000000000001950: 109c2447 4e524d43 2c313630 3132352e |..$GNRMC,160125.|
0000000000001960: 30302c41 2c333934 372e3635 3635382c |00,A,3947.65658,|
0000000000001970: 4e2c3130 3530392e 31393937 312c572c |N,10509.19971,W,|
0000000000001980: 302e3030 392c2c31 32303532 332c2c2c |0.009,,120523,,,|
0000000000001990: 412c562a 30320d0a 24474e56 54472c2c |A,V*02..$GNVTG,,|
00000000000019a0: 542c2c4d 2c302e30 30392c4e 2c302e30 |T,,M,0.009,N,0.0|
00000000000019b0: 31362c4b 2c412a33 330d0a24 474e4747 |16,K,A*33..$GNGG|
00000000000019c0: 412c3136 30313235 2e30302c 33393437 |A,160125.00,3947|
00000000000019d0: 2e363536 35382c4e 2c313035 30392e31 |.65658,N,10509.1|
00000000000019e0: 39393731 2c572c31 2c30352c 332e3636 |9971,W,1,05,3.66|
00000000000019f0: 2c313730 362e332c 4d2c2d32 312e352c |,1706.3,M,-21.5,|
0000000000001a00: 4d2c2c2a 34340d0a 24474e47 53412c41 |M,,*44..$GNGSA,A|
0000000000001a10: 2c332c31 372c3139 2c33302c 31332c30 |,3,17,19,30,13,0|
0000000000001a20: 362c2c2c 2c2c2c2c 2c362e32 372c332e |6,,,,,,,,6.27,3.|
0000000000001a30: 36362c35 2e30392c 312a3034 0d0a2447 |66,5.09,1*04..$G|
0000000000001a40: 4e475341 2c412c33 2c2c2c2c 2c2c2c2c |NGSA,A,3,,,,,,,,|
0000000000001a50: 2c2c2c2c 2c362e32 372c332e 36362c35 |,,,,,6.27,3.66,5|
0000000000001a60: 2e30392c 332a3046 0d0a2447 4e475341 |.09,3*0F..$GNGSA|
0000000000001a70: 2c412c33 2c2c2c2c 2c2c2c2c 2c2c2c2c |,A,3,,,,,,,,,,,,|
0000000000001a80: 2c362e32 372c332e 36362c35 2e30392c |,6.27,3.66,5.09,|
0000000000001a90: 342a3038 0d0a2447 4e475341 2c412c33 |4*08..$GNGSA,A,3|
0000000000001aa0: 2c2c2c2c 2c2c2c2c 2c2c2c2c 2c362e32 |,,,,,,,,,,,,,6.2|
0000000000001ab0: 372c332e 36362c35 2e30392c 352a3039 |7,3.66,5.09,5*09|
0000000000001ac0: 0d0a2447 50475356 2c322c31 2c30382c |..$GPGSV,2,1,08,|
0000000000001ad0: 30362c32 382c3137 362c3237 2c31332c |06,28,176,27,13,|
0000000000001ae0: 32332c32 33392c32 312c3135 2c31312c |23,239,21,15,11,|
0000000000001af0: 3236392c 31322c31 372c3830 2c303037 |269,12,17,80,007|
0000000000001b00: 2c31332c 312a3646 0d0a2447 50475356 |,13,1*6F..$GPGSV|
0000000000001b10: 2c322c32 2c30382c 31392c36 362c3234 |,2,2,08,19,66,24|
0000000000001b20: 382c3234 2c33302c 32392c31 36302c32 |8,24,30,29,160,2|
0000000000001b30: 352c3434 2c34322c 3139382c 32392c34 |5,44,42,198,29,4|
0000000000001b40: 382c3430 2c323039 2c32392c 312a3631 |8,40,209,29,1*61|
0000000000001b50: 0d0a2447 50475356 2c322c31 2c30362c |..$GPGSV,2,1,06,|
0000000000001b60: 30312c32 362c3034 372c2c30 332c3033 |01,26,047,,03,03|
0000000000001b70: 2c303931 2c2c3134 2c35362c 3037382c |,091,,14,56,078,|
0000000000001b80: 2c32312c 30362c30 33352c2c 302a3634 |,21,06,035,,0*64|
0000000000001b90: 0d0a2447 50475356 2c322c32 2c30362c |..$GPGSV,2,2,06,|
0000000000001ba0: 32342c32 302c3331 352c2c34 362c3338 |24,20,315,,46,38|
0000000000001bb0: 2c323135 2c2c302a 36460d0a 24474147 |,215,,0*6F..$GAG|
0000000000001bc0: 53562c31 2c312c30 302c302a 37340d0a |SV,1,1,00,0*74..|
0000000000001bd0: 24474247 53562c31 2c312c30 302c302a |$GBGSV,1,1,00,0*|
0000000000001be0: 37370d0a 24475147 53562c31 2c312c30 |77..$GQGSV,1,1,0|
0000000000001bf0: 302c302a 36340d0a 24474e47 4c4c2c33 |0,0*64..$GNGLL,3|
0000000000001c00: 3934372e 36353635 382c4e2c 31303530 |947.65658,N,1050|
0000000000001c10: 392e3139 3937312c 572c3136 30313235 |9.19971,W,160125|
0000000000001c20: 2e30302c 412c412a 36460d0a 24474e5a |.00,A,A*6F..$GNZ|
0000000000001c30: 44412c31 36303132 352e3030 2c31322c |DA,160125.00,12,|
0000000000001c40: 30352c32 3032332c 30302c30 302a3743 |05,2023,00,00*7C|
0000000000001c50: 0d0ab562 02771000 00010601 ee0f2300 |...b.w........#.|
0000000000001c60: 00141520 040b0600 0f9fb562 02771000 |... .......b.w..|
0000000000001c70: 00000601 ee0f2300 00141520 040a0600 |......#.... ....|
0000000000001c80: 0d8d2447 4e524d43 2c313630 3132362e |..$GNRMC,160126.|
0000000000001c90: 30302c41 2c333934 372e3635 3635352c |00,A,3947.65655,|
0000000000001ca0: 4e2c3130 3530392e 31393937 332c572c |N,10509.19973,W,|
0000000000001cb0: 302e3030 392c2c31 32303532 332c2c2c |0.009,,120523,,,|
0000000000001cc0: 412c562a 30450d0a 24474e56 54472c2c |A,V*0E..$GNVTG,,|
0000000000001cd0: 542c2c4d 2c302e30 30392c4e 2c302e30 |T,,M,0.009,N,0.0|
0000000000001ce0: 31372c4b 2c412a33 320d0a24 474e4747 |17,K,A*32..$GNGG|
0000000000001cf0: 412c3136 30313236 2e30302c 33393437 |A,160126.00,3947|
0000000000001d00: 2e363536 35352c4e 2c313035 30392e31 |.65655,N,10509.1|
0000000000001d10: 39393733 2c572c31 2c30352c 332e3636 |9973,W,1,05,3.66|
0000000000001d20: 2c313730 362e342c 4d2c2d32 312e352c |,1706.4,M,-21.5,|
0000000000001d30: 4d2c2c2a 34460d0a 24474e47 53412c41 |M,,*4F..$GNGSA,A|
0000000000001d40: 2c332c31 372c3139 2c33302c 31332c30 |,3,17,19,30,13,0|
0000000000001d50: 362c2c2c 2c2c2c2c 2c362e32 372c332e |6,,,,,,,,6.27,3.|
0000000000001d60: 36362c35 2e30392c 312a3034 0d0a2447 |66,5.09,1*04..$G|
0000000000001d70: 4e475341 2c412c33 2c2c2c2c 2c2c2c2c |NGSA,A,3,,,,,,,,|
0000000000001d80: 2c2c2c2c 2c362e32 372c332e 36362c35 |,,,,,6.27,3.66,5|
0000000000001d90: 2e30392c 332a3046 0d0a2447 4e475341 |.09,3*0F..$GNGSA|
0000000000001da0: 2c412c33 2c2c2c2c 2c2c2c2c 2c2c2c2c |,A,3,,,,,,,,,,,,|
0000000000001db0: 2c362e32 372c332e 36362c35 2e30392c |,6.27,3.66,5.09,|
0000000000001dc0: 342a3038 0d0a2447 4e475341 2c412c33 |4*08..$GNGSA,A,3|
0000000000001dd0: 2c2c2c2c 2c2c2c2c 2c2c2c2c 2c362e32 |,,,,,,,,,,,,,6.2|
0000000000001de0: 372c332e 36362c35 2e30392c 352a3039 |7,3.66,5.09,5*09|
0000000000001df0: 0d0a2447 50475356 2c322c31 2c30382c |..$GPGSV,2,1,08,|
0000000000001e00: 30362c32 382c3137 362c3237 2c31332c |06,28,176,27,13,|
0000000000001e10: 32332c32 33392c32 312c3135 2c31312c |23,239,21,15,11,|
0000000000001e20: 3236392c 31342c31 372c3830 2c303037 |269,14,17,80,007|
0000000000001e30: 2c31332c 312a3639 0d0a2447 50475356 |,13,1*69..$GPGSV|
0000000000001e40: 2c322c32 2c30382c 31392c36 362c3234 |,2,2,08,19,66,24|
0000000000001e50: 382c3234 2c33302c 32392c31 36302c32 |8,24,30,29,160,2|
0000000000001e60: 352c3434 2c34322c 3139382c 32392c34 |5,44,42,198,29,4|
0000000000001e70: 382c3430 2c323039 2c32392c 312a3631 |8,40,209,29,1*61|
0000000000001e80: 0d0a2447 50475356 2c322c31 2c30362c |..$GPGSV,2,1,06,|
0000000000001e90: 30312c32 362c3034 372c2c30 332c3033 |01,26,047,,03,03|
0000000000001ea0: 2c303931 2c2c3134 2c35362c 3037382c |,091,,14,56,078,|
0000000000001eb0: 2c32312c 30362c30 33352c2c 302a3634 |,21,06,035,,0*64|
0000000000001ec0: 0d0a2447 50475356 2c322c32 2c30362c |..$GPGSV,2,2,06,|
0000000000001ed0: 32342c32 302c3331 352c2c34 362c3338 |24,20,315,,46,38|
0000000000001ee0: 2c323135 2c2c302a 36460d0a 24474147 |,215,,0*6F..$GAG|
0000000000001ef0: 53562c31 2c312c30 302c302a 37340d0a |SV,1,1,00,0*74..|
0000000000001f00: 24474247 53562c31 2c312c30 302c302a |$GBGSV,1,1,00,0*|
0000000000001f10: 37370d0a 24475147 53562c31 2c312c30 |77..$GQGSV,1,1,0|
0000000000001f20: 302c302a 36340d0a 24474e47 4c4c2c33 |0,0*64..$GNGLL,3|
0000000000001f30: 3934372e 36353635 352c4e2c 31303530 |947.65655,N,1050|
0000000000001f40: 392e3139 3937332c 572c3136 30313236 |9.19973,W,160126|
0000000000001f50: 2e30302c 412c412a 36330d0a 24474e5a |.00,A,A*63..$GNZ|
0000000000001f60: 44412c31 36303132 362e3030 2c31322c |DA,160126.00,12,|
0000000000001f70: 30352c32 3032332c 30302c30 302a3746 |05,2023,00,00*7F|
0000000000001f80: 0d0a2447 4e524d43 2c313630 3132372e |..$GNRMC,160127.|
0000000000001f90: 30302c41 2c333934 372e3635 3635332c |00,A,3947.65653,|
0000000000001fa0: 4e2c3130 3530392e 31393937 352c572c |N,10509.19975,W,|
0000000000001fb0: 302e3030 392c2c31 32303532 332c2c2c |0.009,,120523,,,|
0000000000001fc0: 412c562a 30460d0a 24474e56 54472c2c |A,V*0F..$GNVTG,,|
0000000000001fd0: 542c2c4d 2c302e30 30392c4e 2c302e30 |T,,M,0.009,N,0.0|
0000000000001fe0: 31372c4b 2c412a33 320d0a24 474e4747 |17,K,A*32..$GNGG|
0000000000001ff0: 412c3136 30313237 2e30302c 33393437 |A,160127.00,3947|
0000000000002000: 2e363536 35332c4e 2c313035 30392e31 |.65653,N,10509.1|
0000000000002010: 39393735 2c572c31 2c30352c 332e3636 |9975,W,1,05,3.66|
0000000000002020: 2c313730 362e342c 4d2c2d32 312e352c |,1706.4,M,-21.5,|
0000000000002030: 4d2c2c2a 34450d0a 24474e47 53412c41 |M,,*4E..$GNGSA,A|
0000000000002040: 2c332c31 372c3139 2c33302c 31332c30 |,3,17,19,30,13,0|
0000000000002050: 362c2c2c 2c2c2c2c 2c362e32 372c332e |6,,,,,,,,6.27,3.|
0000000000002060: 36362c35 2e30392c 312a3034 0d0a2447 |66,5.09,1*04..$G|
0000000000002070: 4e475341 2c412c33 2c2c2c2c 2c2c2c2c |NGSA,A,3,,,,,,,,|
0000000000002080: 2c2c2c2c 2c362e32 372c332e 36362c35 |,,,,,6.27,3.66,5|
0000000000002090: 2e30392c 332a3046 0d0a2447 4e475341 |.09,3*0F..$GNGSA|
00000000000020a0: 2c412c33 2c2c2c2c 2c2c2c2c 2c2c2c2c |,A,3,,,,,,,,,,,,|
00000000000020b0: 2c362e32 372c332e 36362c35 2e30392c |,6.27,3.66,5.09,|
00000000000020c0: 342a3038 0d0a2447 4e475341 2c412c33 |4*08..$GNGSA,A,3|
00000000000020d0: 2c2c2c2c 2c2c2c2c 2c2c2c2c 2c362e32 |,,,,,,,,,,,,,6.2|
00000000000020e0: 372c332e 36362c35 2e30392c 352a3039 |7,3.66,5.09,5*09|
00000000000020f0: 0d0a2447 50475356 2c322c31 2c30382c |..$GPGSV,2,1,08,|
0000000000002100: 30362c32 382c3137 362c3237 2c31332c |06,28,176,27,13,|
0000000000002110: 32332c32 33392c32 312c3135 2c31312c |23,239,21,15,11,|
0000000000002120: 3236392c 31342c31 372c3830 2c303037 |269,14,17,80,007|
0000000000002130: 2c31332c 312a3639 0d0a2447 50475356 |,13,1*69..$GPGSV|
0000000000002140: 2c322c32 2c30382c 31392c36 362c3234 |,2,2,08,19,66,24|
0000000000002150: 382c3234 2c33302c 32392c31 36302c32 |8,24,30,29,160,2|
0000000000002160: 342c3434 2c34322c 3139382c 32392c34 |4,44,42,198,29,4|
0000000000002170: 382c3430 2c323039 2c33302c 312a3638 |8,40,209,30,1*68|
0000000000002180: 0d0a2447 50475356 2c322c31 2c30362c |..$GPGSV,2,1,06,|
0000000000002190: 30312c32 362c3034 372c2c30 332c3033 |01,26,047,,03,03|
00000000000021a0: 2c303931 2c2c3134 2c35362c 3037382c |,091,,14,56,078,|
00000000000021b0: 2c32312c 30362c30 33352c2c 302a3634 |,21,06,035,,0*64|
00000000000021c0: 0d0a2447 50475356 2c322c32 2c30362c |..$GPGSV,2,2,06,|
00000000000021d0: 32342c32 302c3331 352c2c34 362c3338 |24,20,315,,46,38|
00000000000021e0: 2c323135 2c2c302a 36460d0a 24474147 |,215,,0*6F..$GAG|
00000000000021f0: 53562c31 2c312c30 302c302a 37340d0a |SV,1,1,00,0*74..|
0000000000002200: 24474247 53562c31 2c312c30 302c302a |$GBGSV,1,1,00,0*|
0000000000002210: 37370d0a 24475147 53562c31 2c312c30 |77..$GQGSV,1,1,0|
0000000000002220: 302c302a 36340d0a 24474e47 4c4c2c33 |0,0*64..$GNGLL,3|
0000000000002230: 3934372e 36353635 332c4e2c 31303530 |947.65653,N,1050|
0000000000002240: 392e3139 3937352c 572c3136 30313237 |9.19975,W,160127|
0000000000002250: 2e30302c 412c412a 36320d0a 24474e5a |.00,A,A*62..$GNZ|
0000000000002260: 44412c31 36303132 372e3030 2c31322c |DA,160127.00,12,|
0000000000002270: 30352c32 3032332c 30302c30 302a3745 |05,2023,00,00*7E|
0000000000002280: 0d0ab562 02771000 00010401 28172300 |...b.w......(.#.|
0000000000002290: 00000120 040b0600 278fb562 02771000 |... ....'..b.w..|
00000000000022a0: 00000401 28172300 00000120 040a0600 |....(.#.... ....|
00000000000022b0: 257d2447 4e524d43 2c313630 3132382e |%}$GNRMC,160128.|
00000000000022c0: 30302c41 2c333934 372e3635 3635302c |00,A,3947.65650,|
00000000000022d0: 4e2c3130 3530392e 31393937 372c572c |N,10509.19977,W,|
00000000000022e0: 302e3030 392c2c31 32303532 332c2c2c |0.009,,120523,,,|
00000000000022f0: 412c562a 30310d0a 24474e56 54472c2c |A,V*01..$GNVTG,,|
0000000000002300: 542c2c4d 2c302e30 30392c4e 2c302e30 |T,,M,0.009,N,0.0|
0000000000002310: 31372c4b 2c412a33 320d0a24 474e4747 |17,K,A*32..$GNGG|
0000000000002320: 412c3136 30313238 2e30302c 33393437 |A,160128.00,3947|
0000000000002330: 2e363536 35302c4e 2c313035 30392e31 |.65650,N,10509.1|
0000000000002340: 39393737 2c572c31 2c30352c 332e3636 |9977,W,1,05,3.66|
0000000000002350: 2c313730 362e352c 4d2c2d32 312e352c |,1706.5,M,-21.5,|
0000000000002360: 4d2c2c2a 34310d0a 24474e47 53412c41 |M,,*41..$GNGSA,A|
0000000000002370: 2c332c31 372c3139 2c33302c 31332c30 |,3,17,19,30,13,0|
0000000000002380: 362c2c2c 2c2c2c2c 2c362e32 372c332e |6,,,,,,,,6.27,3.|
0000000000002390: 36362c35 2e30392c 312a3034 0d0a2447 |66,5.09,1*04..$G|
00000000000023a0: 4e475341 2c412c33 2c2c2c2c 2c2c2c2c |NGSA,A,3,,,,,,,,|
00000000000023b0: 2c2c2c2c 2c362e32 372c332e 36362c35 |,,,,,6.27,3.66,5|
00000000000023c0: 2e30392c 332a3046 0d0a2447 4e475341 |.09,3*0F..$GNGSA|
00000000000023d0: 2c412c33 2c2c2c2c 2c2c2c2c 2c2c2c2c |,A,3,,,,,,,,,,,,|
00000000000023e0: 2c362e32 372c332e 36362c35 2e30392c |,6.27,3.66,5.09,|
00000000000023f0: 342a3038 0d0a2447 4e475341 2c412c33 |4*08..$GNGSA,A,3|
0000000000002400: 2c2c2c2c 2c2c2c2c 2c2c2c2c 2c362e32 |,,,,,,,,,,,,,6.2|
0000000000002410: 372c332e 36362c35 2e30392c 352a3039 |7,3.66,5.09,5*09|
0000000000002420: 0d0a2447 50475356 2c322c31 2c30382c |..$GPGSV,2,1,08,|
0000000000002430: 30362c32 382c3137 362c3237 2c31332c |06,28,176,27,13,|
0000000000002440: 32332c32 33392c32 322c3135 2c31312c |23,239,22,15,11,|
0000000000002450: 3236392c 31332c31 372c3830 2c303037 |269,13,17,80,007|
0000000000002460: 2c31332c 312a3644 0d0a2447 50475356 |,13,1*6D..$GPGSV|
0000000000002470: 2c322c32 2c30382c 31392c36 362c3234 |,2,2,08,19,66,24|
0000000000002480: 382c3235 2c33302c 32392c31 36302c32 |8,25,30,29,160,2|
0000000000002490: 352c3434 2c34322c 3139382c 32392c34 |5,44,42,198,29,4|
00000000000024a0: 382c3430 2c323039 2c32392c 312a3630 |8,40,209,29,1*60|
00000000000024b0: 0d0a2447 50475356 2c322c31 2c30362c |..$GPGSV,2,1,06,|
00000000000024c0: 30312c32 362c3034 372c2c30 332c3033 |01,26,047,,03,03|
00000000000024d0: 2c303931 2c2c3134 2c35362c 3037382c |,091,,14,56,078,|
00000000000024e0: 2c32312c 30362c30 33352c2c 302a3634 |,21,06,035,,0*64|
00000000000024f0: 0d0a2447 50475356 2c322c32 2c30362c |..$GPGSV,2,2,06,|
0000000000002500: 32342c32 302c3331 352c2c34 362c3338 |24,20,315,,46,38|
0000000000002510: 2c323135 2c2c302a 36460d0a 24474147 |,215,,0*6F..$GAG|
0000000000002520: 53562c31 2c312c30 302c302a 37340d0a |SV,1,1,00,0*74..|
0000000000002530: 24474247 53562c31 2c312c30 302c302a |$GBGSV,1,1,00,0*|
0000000000002540: 37370d0a 24475147 53562c31 2c312c30 |77..$GQGSV,1,1,0|
0000000000002550: 302c302a 36340d0a 24474e47 4c4c2c33 |0,0*64..$GNGLL,3|
0000000000002560: 3934372e 36353635 302c4e2c 31303530 |947.65650,N,1050|
0000000000002570: 392e3139 3937372c 572c3136 30313238 |9.19977,W,160128|
0000000000002580: 2e30302c 412c412a 36430d0a 24474e5a |.00,A,A*6C..$GNZ|
0000000000002590: 44412c31 36303132 382e3030 2c31322c |DA,160128.00,12,|
00000000000025a0: 30352c32 3032332c 30302c30 302a3731 |05,2023,00,00*71|
00000000000025b0: 0d0a2447 4e524d43 2c313630 3132392e |..$GNRMC,160129.|
00000000000025c0: 30302c41 2c333934 372e3635 3634382c |00,A,3947.65648,|
00000000000025d0: 4e2c3130 3530392e 31393937 382c572c |N,10509.19978,W,|
00000000000025e0: 302e3030 392c2c31 32303532 332c2c2c |0.009,,120523,,,|
00000000000025f0: 412c562a 30360d0a 24474e56 54472c2c |A,V*06..$GNVTG,,|
0000000000002600: 542c2c4d 2c302e30 30392c4e 2c302e30 |T,,M,0.009,N,0.0|
0000000000002610: 31372c4b 2c412a33 320d0a24 474e4747 |17,K,A*32..$GNGG|
0000000000002620: 412c3136 30313239 2e30302c 33393437 |A,160129.00,3947|
0000000000002630: 2e363536 34382c4e 2c313035 30392e31 |.65648,N,10509.1|
0000000000002640: 39393738 2c572c31 2c30352c 332e3635 |9978,W,1,05,3.65|
0000000000002650: 2c313730 362e352c 4d2c2d32 312e352c |,1706.5,M,-21.5,|
0000000000002660: 4d2c2c2a 34350d0a 24474e47 53412c41 |M,,*45..$GNGSA,A|
0000000000002670: 2c332c31 372c3139 2c33302c 31332c30 |,3,17,19,30,13,0|
0000000000002680: 362c2c2c 2c2c2c2c 2c362e32 362c332e |6,,,,,,,,6.26,3.|
0000000000002690: 36352c35 2e30392c 312a3036 0d0a2447 |65,5.09,1*06..$G|
00000000000026a0: 4e475341 2c412c33 2c2c2c2c 2c2c2c2c |NGSA,A,3,,,,,,,,|
00000000000026b0: 2c2c2c2c 2c362e32 362c332e 36352c35 |,,,,,6.26,3.65,5|
00000000000026c0: 2e30392c 332a3044 0d0a2447 4e475341 |.09,3*0D..$GNGSA|
00000000000026d0: 2c412c33 2c2c2c2c 2c2c2c2c 2c2c2c2c |,A,3,,,,,,,,,,,,|
00000000000026e0: 2c362e32 362c332e 36352c35 2e30392c |,6.26,3.65,5.09,|
00000000000026f0: 342a3041 0d0a2447 4e475341 2c412c33 |4*0A..$GNGSA,A,3|
0000000000002700: 2c2c2c2c 2c2c2c2c 2c2c2c2c 2c362e32 |,,,,,,,,,,,,,6.2|
0000000000002710: 362c332e 36352c35 2e30392c 352a3042 |6,3.65,5.09,5*0B|
0000000000002720: 0d0a2447 50475356 2c322c31 2c30382c |..$GPGSV,2,1,08,|
0000000000002730: 30362c32 382c3137 362c3237 2c31332c |06,28,176,27,13,|
0000000000002740: 32332c32 33392c32 322c3135 2c31312c |23,239,22,15,11,|
0000000000002750: 3236392c 31332c31 372c3830 2c303037 |269,13,17,80,007|
0000000000002760: 2c31332c 312a3644 0d0a2447 50475356 |,13,1*6D..$GPGSV|
0000000000002770: 2c322c32 2c30382c 31392c36 362c3234 |,2,2,08,19,66,24|
0000000000002780: 382c3235 2c33302c 32392c31 36302c32 |8,25,30,29,160,2|
0000000000002790: 352c3434 2c34322c 3139382c 32392c34 |5,44,42,198,29,4|
00000000000027a0: 382c3430 2c323039 2c32392c 312a3630 |8,40,209,29,1*60|
00000000000027b0: 0d0a2447 50475356 2c322c31 2c30362c |..$GPGSV,2,1,06,|
00000000000027c0: 30312c32 362c3034 372c2c30 332c3033 |01,26,047,,03,03|
00000000000027d0: 2c303931 2c2c3134 2c35362c 3037382c |,091,,14,56,078,|
00000000000027e0: 2c32312c 30362c30 33352c2c 302a3634 |,21,06,035,,0*64|
00000000000027f0: 0d0a2447 50475356 2c322c32 2c30362c |..$GPGSV,2,2,06,|
0000000000002800: 32342c32 302c3331 352c2c34 362c3338 |24,20,315,,46,38|
0000000000002810: 2c323135 2c2c302a 36460d0a 24474147 |,215,,0*6F..$GAG|
0000000000002820: 53562c31 2c312c30 302c302a 37340d0a |SV,1,1,00,0*74..|
0000000000002830: 24474247 53562c31 2c312c30 302c302a |$GBGSV,1,1,00,0*|
0000000000002840: 37370d0a 24475147 53562c31 2c312c30 |77..$GQGSV,1,1,0|
0000000000002850: 302c302a 36340d0a 24474e47 4c4c2c33 |0,0*64..$GNGLL,3|
0000000000002860: 3934372e 36353634 382c4e2c 31303530 |947.65648,N,1050|
0000000000002870: 392e3139 3937382c 572c3136 30313239 |9.19978,W,160129|
0000000000002880: 2e30302c 412c412a 36420d0a 24474e5a |.00,A,A*6B..$GNZ|
0000000000002890: 44412c31 36303132 392e3030 2c31322c |DA,160129.00,12,|
00000000000028a0: 30352c32 3032332c 30302c30 302a3730 |05,2023,00,00*70|
00000000000028b0: 0d0ab562 02771000 00010901 3e1e2300 |...b.w......>.#.|
00000000000028c0: 000d0e20 040b0600 63d3b562 02771000 |... ....c..b.w..|
00000000000028d0: 00000901 3e1e2300 000d0e20 040a0600 |....>.#.... ....|
00000000000028e0: 61c12447 4e524d43 2c313630 3133302e |a.$GNRMC,160130.|
00000000000028f0: 30302c41 2c333934 372e3635 3634352c |00,A,3947.65645,|
0000000000002900: 4e2c3130 3530392e 31393938 302c572c |N,10509.19980,W,|
0000000000002910: 302e3031 302c2c31 32303532 332c2c2c |0.010,,120523,,,|
0000000000002920: 412c562a 30430d0a 24474e56 54472c2c |A,V*0C..$GNVTG,,|
0000000000002930: 542c2c4d 2c302e30 31302c4e 2c302e30 |T,,M,0.010,N,0.0|
0000000000002940: 31382c4b 2c412a33 350d0a24 474e4747 |18,K,A*35..$GNGG|
0000000000002950: 412c3136 30313330 2e30302c 33393437 |A,160130.00,3947|
0000000000002960: 2e363536 34352c4e 2c313035 30392e31 |.65645,N,10509.1|
0000000000002970: 39393830 2c572c31 2c30352c 332e3635 |9980,W,1,05,3.65|
0000000000002980: 2c313730 362e362c 4d2c2d32 312e352c |,1706.6,M,-21.5,|
0000000000002990: 4d2c2c2a 34340d0a 24474e47 53412c41 |M,,*44..$GNGSA,A|
00000000000029a0: 2c332c31 372c3139 2c33302c 31332c30 |,3,17,19,30,13,0|
00000000000029b0: 362c2c2c 2c2c2c2c 2c362e32 362c332e |6,,,,,,,,6.26,3.|
00000000000029c0: 36352c35 2e30392c 312a3036 0d0a2447 |65,5.09,1*06..$G|
00000000000029d0: 4e475341 2c412c33 2c2c2c2c 2c2c2c2c |NGSA,A,3,,,,,,,,|
00000000000029e0: 2c2c2c2c 2c362e32 362c332e 36352c35 |,,,,,6.26,3.65,5|
00000000000029f0: 2e30392c 332a3044 0d0a2447 4e475341 |.09,3*0D..$GNGSA|
0000000000002a00: 2c412c33 2c2c2c2c 2c2c2c2c 2c2c2c2c |,A,3,,,,,,,,,,,,|
0000000000002a10: 2c362e32 362c332e 36352c35 2e30392c |,6.26,3.65,5.09,|
0000000000002a20: 342a3041 0d0a2447 4e475341 2c412c33 |4*0A..$GNGSA,A,3|
0000000000002a30: 2c2c2c2c 2c2c2c2c 2c2c2c2c 2c362e32 |,,,,,,,,,,,,,6.2|
0000000000002a40: 362c332e 36352c35 2e30392c 352a3042 |6,3.65,5.09,5*0B|
0000000000002a50: 0d0a2447 50475356 2c322c31 2c30382c |..$GPGSV,2,1,08,|
0000000000002a60: 30362c32 382c3137 362c3237 2c31332c |06,28,176,27,13,|
0000000000002a70: 32332c32 33392c32 312c3135 2c31312c |23,239,21,15,11,|
0000000000002a80: 3236392c 31322c31 372c3830 2c303037 |269,12,17,80,007|
0000000000002a90: 2c31342c 312a3638 0d0a2447 50475356 |,14,1*68..$GPGSV|
0000000000002aa0: 2c322c32 2c30382c 31392c36 362c3234 |,2,2,08,19,66,24|
0000000000002ab0: 382c3235 2c33302c 32392c31 36302c32 |8,25,30,29,160,2|
0000000000002ac0: 352c3434 2c34322c 3139382c 32392c34 |5,44,42,198,29,4|
0000000000002ad0: 382c3430 2c323039 2c32392c 312a3630 |8,40,209,29,1*60|
0000000000002ae0: 0d0a2447 50475356 2c322c31 2c30362c |..$GPGSV,2,1,06,|
0000000000002af0: 30312c32 362c3034 372c2c30 332c3033 |01,26,047,,03,03|
0000000000002b00: 2c303931 2c2c3134 2c35362c 3037382c |,091,,14,56,078,|
0000000000002b10: 2c32312c 30362c30 33352c2c 302a3634 |,21,06,035,,0*64|
0000000000002b20: 0d0a2447 50475356 2c322c32 2c30362c |..$GPGSV,2,2,06,|
0000000000002b30: 32342c32 302c3331 352c2c34 362c3338 |24,20,315,,46,38|
0000000000002b40: 2c323135 2c2c302a 36460d0a 24474147 |,215,,0*6F..$GAG|
0000000000002b50: 53562c31 2c312c30 302c302a 37340d0a |SV,1,1,00,0*74..|
0000000000002b60: 24474247 53562c31 2c312c30 302c302a |$GBGSV,1,1,00,0*|
0000000000002b70: 37370d0a 24475147 53562c31 2c312c30 |77..$GQGSV,1,1,0|
0000000000002b80: 302c302a 36340d0a 24474e47 4c4c2c33 |0,0*64..$GNGLL,3|
0000000000002b90: 3934372e 36353634 352c4e2c 31303530 |947.65645,N,1050|
0000000000002ba0: 392e3139 3938302c 572c3136 30313330 |9.19980,W,160130|
0000000000002bb0: 2e30302c 412c412a 36390d0a 24474e5a |.00,A,A*69..$GNZ|
0000000000002bc0: 44412c31 36303133 302e3030 2c31322c |DA,160130.00,12,|
0000000000002bd0: 30352c32 3032332c 30302c30 302a3738 |05,2023,00,00*78|
0000000000002be0: 0d0ab562 02771000 00010601 2a242300 |...b.w......*$#.|
0000000000002bf0: 00141520 040b0600 6056b562 02771000 |... ....`V.b.w..|
0000000000002c00: 00000601 2a242300 00141520 040a0600 |....*$#.... ....|
0000000000002c10: 5e442447 4e524d43 2c313630 3133312e |^D$GNRMC,160131.|
0000000000002c20: 30302c41 2c333934 372e3635 3634312c |00,A,3947.65641,|
0000000000002c30: 4e2c3130 3530392e 31393938 322c572c |N,10509.19982,W,|
0000000000002c40: 302e3031 302c2c31 32303532 332c2c2c |0.010,,120523,,,|
0000000000002c50: 412c562a 30420d0a 24474e56 54472c2c |A,V*0B..$GNVTG,,|
0000000000002c60: 542c2c4d 2c302e30 31302c4e 2c302e30 |T,,M,0.010,N,0.0|
0000000000002c70: 31382c4b 2c412a33 350d0a24 474e4747 |18,K,A*35..$GNGG|
0000000000002c80: 412c3136 30313331 2e30302c 33393437 |A,160131.00,3947|
0000000000002c90: 2e363536 34312c4e 2c313035 30392e31 |.65641,N,10509.1|
0000000000002ca0: 39393832 2c572c31 2c30352c 332e3635 |9982,W,1,05,3.65|
0000000000002cb0: 2c313730 362e372c 4d2c2d32 312e352c |,1706.7,M,-21.5,|
0000000000002cc0: 4d2c2c2a 34320d0a 24474e47 53412c41 |M,,*42..$GNGSA,A|
0000000000002cd0: 2c332c31 372c3139 2c33302c 31332c30 |,3,17,19,30,13,0|
0000000000002ce0: 362c2c2c 2c2c2c2c 2c362e32 362c332e |6,,,,,,,,6.26,3.|
0000000000002cf0: 36352c35 2e30392c 312a3036 0d0a2447 |65,5.09,1*06..$G|
0000000000002d00: 4e475341 2c412c33 2c2c2c2c 2c2c2c2c |NGSA,A,3,,,,,,,,|
0000000000002d10: 2c2c2c2c 2c362e32 362c332e 36352c35 |,,,,,6.26,3.65,5|
0000000000002d20: 2e30392c 332a3044 0d0a2447 4e475341 |.09,3*0D..$GNGSA|
0000000000002d30: 2c412c33 2c2c2c2c 2c2c2c2c 2c2c2c2c |,A,3,,,,,,,,,,,,|
0000000000002d40: 2c362e32 362c332e 36352c35 2e30392c |,6.26,3.65,5.09,|
0000000000002d50: 342a3041 0d0a2447 4e475341 2c412c33 |4*0A..$GNGSA,A,3|
0000000000002d60: 2c2c2c2c 2c2c2c2c 2c2c2c2c 2c362e32 |,,,,,,,,,,,,,6.2|
0000000000002d70: 362c332e 36352c35 2e30392c 352a3042 |6,3.65,5.09,5*0B|
0000000000002d80: 0d0a2447 50475356 2c322c31 2c30382c |..$GPGSV,2,1,08,|
0000000000002d90: 30362c32 382c3137 362c3237 2c31332c |06,28,176,27,13,|
0000000000002da0: 32332c32 33392c32 322c3135 2c31312c |23,239,22,15,11,|
0000000000002db0: 3236392c 31322c31 372c3830 2c303037 |269,12,17,80,007|
0000000000002dc0: 2c31352c 312a3641 0d0a2447 50475356 |,15,1*6A..$GPGSV|
0000000000002dd0: 2c322c32 2c30382c 31392c36 362c3234 |,2,2,08,19,66,24|
0000000000002de0: 382c3235 2c33302c 32392c31 36302c32 |8,25,30,29,160,2|
0000000000002df0: 352c3434 2c34322c 3139382c 32392c34 |5,44,42,198,29,4|
0000000000002e00: 382c3430 2c323039 2c32392c 312a3630 |8,40,209,29,1*60|
0000000000002e10: 0d0a2447 50475356 2c322c31 2c30362c |..$GPGSV,2,1,06,|
0000000000002e20: 30312c32 362c3034 372c2c30 332c3033 |01,26,047,,03,03|
0000000000002e30: 2c303931 2c2c3134 2c35362c 3037382c |,091,,14,56,078,|
0000000000002e40: 2c32312c 30362c30 33352c2c 302a3634 |,21,06,035,,0*64|
0000000000002e50: 0d0a2447 50475356 2c322c32 2c30362c |..$GPGSV,2,2,06,|
0000000000002e60: 32342c32 302c3331 352c2c34 362c3338 |24,20,315,,46,38|
0000000000002e70: 2c323135 2c2c302a 36460d0a 24474147 |,215,,0*6F..$GAG|
0000000000002e80: 53562c31 2c312c30 302c302a 37340d0a |SV,1,1,00,0*74..|
0000000000002e90: 24474247 53562c31 2c312c30 302c302a |$GBGSV,1,1,00,0*|
0000000000002ea0: 37370d0a 24475147 53562c31 2c312c30 |77..$GQGSV,1,1,0|
0000000000002eb0: 302c302a 36340d0a 24474e47 4c4c2c33 |0,0*64..$GNGLL,3|
0000000000002ec0: 3934372e 36353634 312c4e2c 31303530 |947.65641,N,1050|
0000000000002ed0: 392e3139 3938322c 572c3136 30313331 |9.19982,W,160131|
0000000000002ee0: 2e30302c 412c412a 36450d0a 24474e5a |.00,A,A*6E..$GNZ|
0000000000002ef0: 44412c31 36303133 312e3030 2c31322c |DA,160131.00,12,|
0000000000002f00: 30352c32 3032332c 30302c30 302a3739 |05,2023,00,00*79|
0000000000002f10: 0d0ab562 02771000 00010f01 29262300 |...b.w......)&#.|
0000000000002f20: 010d8520 04030300 c937b562 02771000 |... .....7.b.w..|
0000000000002f30: 00000f01 29262300 010d8520 04020300 |....)&#.... ....|
0000000000002f40: c725b562 02771000 00010701 81262300 |.%.b.w.......&#.|
0000000000002f50: 00020322 030b0600 97aab562 02771000 |...".......b.w..|
0000000000002f60: 00000701 81262300 00020322 030a0600 |.....&#...."....|
0000000000002f70: 95982447 4e524d43 2c313630 3133322e |..$GNRMC,160132.|
0000000000002f80: 30302c41 2c333934 372e3635 3633362c |00,A,3947.65636,|
0000000000002f90: 4e2c3130 3530392e 31393938 342c572c |N,10509.19984,W,|
0000000000002fa0: 302e3031 302c2c31 32303532 332c2c2c |0.010,,120523,,,|
0000000000002fb0: 412c562a 30450d0a 24474e56 54472c2c |A,V*0E..$GNVTG,,|
0000000000002fc0: 542c2c4d 2c302e30 31302c4e 2c302e30 |T,,M,0.010,N,0.0|
0000000000002fd0: 31392c4b 2c412a33 340d0a24 474e4747 |19,K,A*34..$GNGG|
0000000000002fe0: 412c3136 30313332 2e30302c 33393437 |A,160132.00,3947|
0000000000002ff0: 2e363536 33362c4e 2c313035 30392e31 |.65636,N,10509.1|
0000000000003000: 39393834 2c572c31 2c30352c 332e3635 |9984,W,1,05,3.65|
0000000000003010: 2c313730 362e372c 4d2c2d32 312e352c |,1706.7,M,-21.5,|
0000000000003020: 4d2c2c2a 34370d0a 24474e47 53412c41 |M,,*47..$GNGSA,A|
0000000000003030: 2c332c31 372c3139 2c33302c 31332c30 |,3,17,19,30,13,0|
0000000000003040: 362c2c2c 2c2c2c2c 2c362e32 362c332e |6,,,,,,,,6.26,3.|
0000000000003050: 36352c35 2e30382c 312a3037 0d0a2447 |65,5.08,1*07..$G|
0000000000003060: 4e475341 2c412c33 2c2c2c2c 2c2c2c2c |NGSA,A,3,,,,,,,,|
0000000000003070: 2c2c2c2c 2c362e32 362c332e 36352c35 |,,,,,6.26,3.65,5|
0000000000003080: 2e30382c 332a3043 0d0a2447 4e475341 |.08,3*0C..$GNGSA|
0000000000003090: 2c412c33 2c2c2c2c 2c2c2c2c 2c2c2c2c |,A,3,,,,,,,,,,,,|
00000000000030a0: 2c362e32 362c332e 36352c35 2e30382c |,6.26,3.65,5.08,|
00000000000030b0: 342a3042 0d0a2447 4e475341 2c412c33 |4*0B..$GNGSA,A,3|
00000000000030c0: 2c2c2c2c 2c2c2c2c 2c2c2c2c 2c362e32 |,,,,,,,,,,,,,6.2|
00000000000030d0: 362c332e 36352c35 2e30382c 352a3041 |6,3.65,5.08,5*0A|
00000000000030e0: 0d0a2447 50475356 2c322c31 2c30382c |..$GPGSV,2,1,08,|
00000000000030f0: 30362c32 382c3137 362c3237 2c31332c |06,28,176,27,13,|
0000000000003100: 32332c32 33392c32 322c3135 2c31312c |23,239,22,15,11,|
0000000000003110: 3236392c 31332c31 372c3830 2c303037 |269,13,17,80,007|
0000000000003120: 2c31342c 312a3641 0d0a2447 50475356 |,14,1*6A..$GPGSV|
0000000000003130: 2c322c32 2c30382c 31392c36 362c3234 |,2,2,08,19,66,24|
0000000000003140: 382c3235 2c33302c 32392c31 36302c32 |8,25,30,29,160,2|
0000000000003150: 352c3434 2c34322c 3139382c 32392c34 |5,44,42,198,29,4|
0000000000003160: 382c3430 2c323039 2c32392c 312a3630 |8,40,209,29,1*60|
0000000000003170: 0d0a2447 50475356 2c322c31 2c30362c |..$GPGSV,2,1,06,|
0000000000003180: 30312c32 362c3034 372c2c30 332c3033 |01,26,047,,03,03|
0000000000003190: 2c303931 2c2c3134 2c35362c 3037382c |,091,,14,56,078,|
00000000000031a0: 2c32312c 30362c30 33352c2c 302a3634 |,21,06,035,,0*64|
00000000000031b0: 0d0a2447 50475356 2c322c32 2c30362c |..$GPGSV,2,2,06,|
00000000000031c0: 32342c32 302c3331 352c2c34 362c3338 |24,20,315,,46,38|
00000000000031d0: 2c323135 2c2c302a 36460d0a 24474147 |,215,,0*6F..$GAG|
00000000000031e0: 53562c31 2c312c30 302c302a 37340d0a |SV,1,1,00,0*74..|
00000000000031f0: 24474247 53562c31 2c312c30 302c302a |$GBGSV,1,1,00,0*|
0000000000003200: 37370d0a 24475147 53562c31 2c312c30 |77..$GQGSV,1,1,0|
0000000000003210: 302c302a 36340d0a 24474e47 4c4c2c33 |0,0*64..$GNGLL,3|
0000000000003220: 3934372e 36353633 362c4e2c 31303530 |947.65636,N,1050|
0000000000003230: 392e3139 3938342c 572c3136 30313332 |9.19984,W,160132|
0000000000003240: 2e30302c 412c412a 36420d0a 24474e5a |.00,A,A*6B..$GNZ|
0000000000003250: 44412c31 36303133 322e3030 2c31322c |DA,160132.00,12,|
0000000000003260: 30352c32 3032332c 30302c30 302a3741 |05,2023,00,00*7A|
0000000000003270: 0d0a2447 4e524d43 2c313630 3133332e |..$GNRMC,160133.|
0000000000003280: 30302c41 2c333934 372e3635 3633322c |00,A,3947.65632,|
0000000000003290: 4e2c3130 3530392e 31393938 372c572c |N,10509.19987,W,|
00000000000032a0: 302e3031 302c2c31 32303532 332c2c2c |0.010,,120523,,,|
00000000000032b0: 412c562a 30380d0a 24474e56 54472c2c |A,V*08..$GNVTG,,|
00000000000032c0: 542c2c4d 2c302e30 31302c4e 2c302e30 |T,,M,0.010,N,0.0|
00000000000032d0: 31392c4b 2c412a33 340d0a24 474e4747 |19,K,A*34..$GNGG|
00000000000032e0: 412c3136 30313333 2e30302c 33393437 |A,160133.00,3947|
00000000000032f0: 2e363536 33322c4e 2c313035 30392e31 |.65632,N,10509.1|
0000000000003300: 39393837 2c572c31 2c30352c 332e3635 |9987,W,1,05,3.65|
0000000000003310: 2c313730 362e382c 4d2c2d32 312e352c |,1706.8,M,-21.5,|
0000000000003320: 4d2c2c2a 34450d0a 24474e47 53412c41 |M,,*4E..$GNGSA,A|
0000000000003330: 2c332c31 372c3139 2c33302c 31332c30 |,3,17,19,30,13,0|
0000000000003340: 362c2c2c 2c2c2c2c 2c362e32 362c332e |6,,,,,,,,6.26,3.|
