\xb5b\x02w\x10\0\0\x01\n\x01\n\xee\xef\0\0\x1b\x1c \x04\f\x06\0\xe9\x12
\xb5b\x02w\x10\0\0\0\n\x01\n\xee\xef\0\0\x1b\x1c \x04\v\x06\0\xe7\0
$GNRMC,194512.00,A,3947.65274,N,10509.19932,W,0.033,,120523,,,A,V*0D\r\n
$GNVTG,,T,,M,0.033,N,0.061,K,A*3A\r\n
$GNGGA,194512.00,3947.65274,N,10509.19932,W,1,06,1.37,1709.7,M,-21.5,M,,*4C\r\n
$GNGSA,A,3,19,05,06,11,12,25,,,,,,,2.63,1.37,2.25,1*09\r\n
$GNGSA,A,3,,,,,,,,,,,,,2.63,1.37,2.25,3*04\r\n
$GNGSA,A,3,,,,,,,,,,,,,2.63,1.37,2.25,4*03\r\n
$GNGSA,A,3,,,,,,,,,,,,,2.63,1.37,2.25,5*02\r\n
$GPGSV,3,1,10,05,27,176,27,06,36,047,16,11,81,016,24,12,75,265,29,1*66\r\n
$GPGSV,3,2,10,17,03,096,08,19,22,088,19,24,09,220,22,25,42,307,25,1*6B\r\n
$GPGSV,3,3,10,44,42,198,30,48,40,209,30,1*60\r\n
$GPGSV,2,1,05,09,01,067,,20,50,157,,28,05,323,,29,17,290,,0*65\r\n
$GPGSV,2,2,05,46,38,215,,0*5F\r\n
$GAGSV,1,1,00,0*74\r\n
$GBGSV,1,1,00,0*77\r\n
$GQGSV,1,1,00,0*64\r\n
$GNGLL,3947.65274,N,10509.19932,W,194512.00,A,A*69\r\n
$GNZDA,194512.00,12,05,2023,00,00*77\r\n
\xb5b\x02w\x10\0\0\x01\v\x01`\xef\xef\0\0\b\t\"\x03\f\x06\0\x1cB
\xb5b\x02w\x10\0\0\0\v\x01`\xef\xef\0\0\b\t\"\x03\v\x06\0\x1a0
\xb5b\x02w\x10\0\0\x01\0\x01m\0\xf0\0\0\x13\x14\x1d\x04\f\x06\0B\x83
\xb5b\x02w\x10\0\0\0\0\x01m\0\xf0\0\0\x13\x14\x1d\x04\v\x06\0@q
$GNRMC,194517.00,A,3947.65272,N,10509.19947,W,0.031,,120523,,,A,V*0E\r\n
$GNVTG,,T,,M,0.031,N,0.057,K,A*3D\r\n
$GNGGA,194517.00,3947.65272,N,10509.19947,W,1,07,1.25,1709.7,M,-21.5,M,,*4F\r\n
$GNGSA,A,3,19,05,06,20,11,12,25,,,,,,2.43,1.25,2.08,1*05\r\n
$GNGSA,A,3,,,,,,,,,,,,,2.43,1.25,2.08,3*0A\r\n
$GNGSA,A,3,,,,,,,,,,,,,2.43,1.25,2.08,4*0D\r\n
$GNGSA,A,3,,,,,,,,,,,,,2.43,1.25,2.08,5*0C\r\n
$GPGSV,3,1,11,05,27,176,27,06,36,047,15,11,81,016,24,12,75,265,29,1*64\r\n
$GPGSV,3,2,11,17,03,096,09,19,22,088,19,20,50,157,25,24,09,220,22,1*6A\r\n
$GPGSV,3,3,11,25,42,307,25,44,42,198,30,48,40,209,30,1*53\r\n
$GPGSV,1,1,04,09,01,067,,28,05,323,,29,17,290,,46,38,215,,0*6C\r\n
$GAGSV,1,1,00,0*74\r\n
$GBGSV,1,1,00,0*77\r\n
$GQGSV,1,1,00,0*64\r\n
$GNGLL,3947.65272,N,10509.19947,W,194517.00,A,A*68\r\n
$GNZDA,194517.00,12,05,2023,00,00*72\r\n
$GNRMC,194518.00,A,3947.65272,N,10509.19953,W,0.030,,120523,,,A,V*05\r\n
$GNVTG,,T,,M,0.030,N,0.056,K,A*3D\r\n
$GNGGA,194518.00,3947.65272,N,10509.19953,W,1,07,1.25,1709.7,M,-21.5,M,,*45\r\n
$GNGSA,A,3,19,05,06,20,11,12,25,,,,,,2.43,1.25,2.08,1*05\r\n
$GNGSA,A,3,,,,,,,,,,,,,2.43,1.25,2.08,3*0A\r\n
$GNGSA,A,3,,,,,,,,,,,,,2.43,1.25,2.08,4*0D\r\n
$GNGSA,A,3,,,,,,,,,,,,,2.43,1.25,2.08,5*0C\r\n
$GPGSV,3,1,11,05,27,176,27,06,36,047,14,11,81,016,23,12,75,265,29,1*62\r\n
$GPGSV,3,2,11,17,03,096,09,19,22,088,19,20,50,157,24,24,09,220,22,1*6B\r\n
$GPGSV,3,3,11,25,42,307,25,44,42,198,29,48,40,209,30,1*5B\r\n
$GPGSV,1,1,04,09,01,067,,28,05,323,,29,17,290,,46,38,215,,0*6C\r\n
$GAGSV,1,1,00,0*74\r\n
$GBGSV,1,1,00,0*77\r\n
$GQGSV,1,1,00,0*64\r\n
$GNGLL,3947.65272,N,10509.19953,W,194518.00,A,A*62\r\n
$GNZDA,194518.00,12,05,2023,00,00*7D\r\n
$GNRMC,194519.00,A,3947.65272,N,10509.19960,W,0.029,,120523,,,A,V*0C\r\n
$GNVTG,,T,,M,0.029,N,0.054,K,A*37\r\n
$GNGGA,194519.00,3947.65272,N,10509.19960,W,1,07,1.25,1709.7,M,-21.5,M,,*44\r\n
$GNGSA,A,3,19,05,06,20,11,12,25,,,,,,2.43,1.25,2.08,1*05\r\n
$GNGSA,A,3,,,,,,,,,,,,,2.43,1.25,2.08,3*0A\r\n
$GNGSA,A,3,,,,,,,,,,,,,2.43,1.25,2.08,4*0D\r\n
$GNGSA,A,3,,,,,,,,,,,,,2.43,1.25,2.08,5*0C\r\n
$GPGSV,3,1,11,05,27,176,27,06,36,047,14,11,81,016,23,12,75,265,29,1*62\r\n
$GPGSV,3,2,11,17,03,096,09,19,22,088,18,20,50,157,25,24,09,220,22,1*6B\r\n
$GPGSV,3,3,11,25,42,307,25,44,42,198,30,48,40,209,30,1*53\r\n
$GPGSV,1,1,04,09,01,067,,28,05,323,,29,17,290,,46,38,215,,0*6C\r\n
$GAGSV,1,1,00,0*74\r\n
$GBGSV,1,1,00,0*77\r\n
$GQGSV,1,1,00,0*64\r\n
$GNGLL,3947.65272,N,10509.19960,W,194519.00,A,A*63\r\n
$GNZDA,194519.00,12,05,2023,00,00*7C\r\n
\xb5b\x02w\x10\0\0\x01\n\x01\x8c\f\xf0\0\0\x1b\x1c \x04\f\x06\0\x8a~
\xb5b\x02w\x10\0\0\0\n\x01\x8c\f\xf0\0\0\x1b\x1c \x04\v\x06\0\x88l
\xb5b\x02w\x10\0\0\x01\t\x01\x83\r\xf0\0\0\x1c\x1d \x04\f\x06\0\x83\x1c
\xb5b\x02w\x10\0\0\0\t\x01\x83\r\xf0\0\0\x1c\x1d \x04\v\x06\0\x81\n
$GNRMC,194520.00,A,3947.65271,N,10509.19967,W,0.029,,120523,,,A,V*02\r\n
$GNVTG,,T,,M,0.029,N,0.053,K,A*30\r\n
$GNGGA,194520.00,3947.65271,N,10509.19967,W,1,07,1.25,1709.7,M,-21.5,M,,*4A\r\n
$GNGSA,A,3,19,05,06,20,11,12,25,,,,,,2.43,1.25,2.08,1*05\r\n
$GNGSA,A,3,,,,,,,,,,,,,2.43,1.25,2.08,3*0A\r\n
$GNGSA,A,3,,,,,,,,,,,,,2.43,1.25,2.08,4*0D\r\n
$GNGSA,A,3,,,,,,,,,,,,,2.43,1.25,2.08,5*0C\r\n
$GPGSV,3,1,11,05,27,176,27,06,36,047,13,11,81,016,22,12,75,265,29,1*64\r\n
$GPGSV,3,2,11,17,03,096,08,19,22,088,18,20,50,157,24,24,09,220,22,1*6B\r\n
$GPGSV,3,3,11,25,42,307,25,44,42,198,30,48,40,209,30,1*53\r\n
$GPGSV,1,1,04,09,01,067,,28,05,323,,29,17,290,,46,38,215,,0*6C\r\n
$GAGSV,1,1,00,0*74\r\n
$GBGSV,1,1,00,0*77\r\n
$GQGSV,1,1,00,0*64\r\n
$GNGLL,3947.65271,N,10509.19967,W,194520.00,A,A*6D\r\n
$GNZDA,194520.00,12,05,2023,00,00*76\r\n
$GNRMC,194521.00,A,3947.65270,N,10509.19973,W,0.028,,120523,,,A,V*06\r\n
$GNVTG,,T,,M,0.028,N,0.052,K,A*30\r\n
$GNGGA,194521.00,3947.65270,N,10509.19973,W,1,07,1.25,1709.7,M,-21.5,M,,*4F\r\n
$GNGSA,A,3,19,05,06,20,11,12,25,,,,,,2.43,1.25,2.08,1*05\r\n
$GNGSA,A,3,,,,,,,,,,,,,2.43,1.25,2.08,3*0A\r\n
$GNGSA,A,3,,,,,,,,,,,,,2.43,1.25,2.08,4*0D\r\n
$GNGSA,A,3,,,,,,,,,,,,,2.43,1.25,2.08,5*0C\r\n
$GPGSV,3,1,11,05,27,176,27,06,36,047,13,11,81,016,22,12,75,265,29,1*64\r\n
$GPGSV,3,2,11,17,03,096,09,19,22,088,18,20,50,157,25,24,09,220,22,1*6B\r\n
$GPGSV,3,3,11,25,42,307,25,44,42,198,30,48,40,209,30,1*53\r\n
$GPGSV,1,1,04,09,01,067,,28,05,323,,29,17,290,,46,38,215,,0*6C\r\n
$GAGSV,1,1,00,0*74\r\n
$GBGSV,1,1,00,0*77\r\n
$GQGSV,1,1,00,0*64\r\n
$GNGLL,3947.65270,N,10509.19973,W,194521.00,A,A*68\r\n
$GNZDA,194521.00,12,05,2023,00,00*77\r\n
$GNRMC,194522.00,A,3947.65270,N,10509.19978,W,0.028,,120523,,,A,V*0E\r\n
$GNVTG,,T,,M,0.028,N,0.051,K,A*33\r\n
$GNGGA,194522.00,3947.65270,N,10509.19978,W,1,07,1.25,1709.7,M,-21.5,M,,*47\r\n
$GNGSA,A,3,19,05,06,20,11,12,25,,,,,,2.43,1.25,2.08,1*05\r\n
$GNGSA,A,3,,,,,,,,,,,,,2.43,1.25,2.08,3*0A\r\n
$GNGSA,A,3,,,,,,,,,,,,,2.43,1.25,2.08,4*0D\r\n
$GNGSA,A,3,,,,,,,,,,,,,2.43,1.25,2.08,5*0C\r\n
$GPGSV,3,1,11,05,27,176,27,06,35,047,13,11,81,016,23,12,75,265,28,1*67\r\n
$GPGSV,3,2,11,17,03,096,10,19,22,088,18,20,50,157,24,24,09,220,22,1*62\r\n
$GPGSV,3,3,11,25,42,307,24,44,42,198,30,48,40,209,30,1*52\r\n
$GPGSV,1,1,04,09,01,067,,28,05,323,,29,17,290,,46,38,215,,0*6C\r\n
$GAGSV,1,1,00,0*74\r\n
$GBGSV,1,1,00,0*77\r\n
$GQGSV,1,1,00,0*64\r\n
$GNGLL,3947.65270,N,10509.19978,W,194522.00,A,A*60\r\n
$GNZDA,194522.00,12,05,2023,00,00*74\r\n
\xb5b\x02w\x10\0\0\x01\v\x018\x17\xf0\0\0\b\t\"\x03\f\x06\0\x1d$
\xb5b\x02w\x10\0\0\0\v\x018\x17\xf0\0\0\b\t\"\x03\v\x06\0\x1b\x12
$GNRMC,194523.00,A,3947.65270,N,10509.19983,W,0.027,,120523,,,A,V*04\r\n
$GNVTG,,T,,M,0.027,N,0.050,K,A*3D\r\n
$GNGGA,194523.00,3947.65270,N,10509.19983,W,1,07,1.25,1709.7,M,-21.5,M,,*42\r\n
$GNGSA,A,3,19,05,06,20,11,12,25,,,,,,2.43,1.25,2.08,1*05\r\n
$GNGSA,A,3,,,,,,,,,,,,,2.43,1.25,2.08,3*0A\r\n
$GNGSA,A,3,,,,,,,,,,,,,2.43,1.25,2.08,4*0D\r\n
$GNGSA,A,3,,,,,,,,,,,,,2.43,1.25,2.08,5*0C\r\n
$GPGSV,3,1,11,05,27,176,27,06,35,047,15,11,81,016,23,12,75,265,29,1*60\r\n
$GPGSV,3,2,11,17,03,096,09,19,22,088,18,20,50,157,24,24,09,220,22,1*6A\r\n
$GPGSV,3,3,11,25,42,307,25,44,42,198,30,48,40,209,30,1*53\r\n
$GPGSV,1,1,04,09,01,067,,28,05,323,,29,17,290,,46,38,215,,0*6C\r\n
$GAGSV,1,1,00,0*74\r\n
$GBGSV,1,1,00,0*77\r\n
$GQGSV,1,1,00,0*64\r\n
$GNGLL,3947.65270,N,10509.19983,W,194523.00,A,A*65\r\n
$GNZDA,194523.00,12,05,2023,00,00*75\r\n
$GNRMC,194524.00,A,3947.65270,N,10509.19989,W,0.027,,120523,,,A,V*09\r\n
$GNVTG,,T,,M,0.027,N,0.049,K,A*35\r\n
$GNGGA,194524.00,3947.65270,N,10509.19989,W,1,07,1.25,1709.7,M,-21.5,M,,*4F\r\n
$GNGSA,A,3,19,05,06,20,11,12,25,,,,,,2.43,1.25,2.08,1*05\r\n
$GNGSA,A,3,,,,,,,,,,,,,2.43,1.25,2.08,3*0A\r\n
$GNGSA,A,3,,,,,,,,,,,,,2.43,1.25,2.08,4*0D\r\n
$GNGSA,A,3,,,,,,,,,,,,,2.43,1.25,2.08,5*0C\r\n
$GPGSV,3,1,12,05,27,176,27,06,35,047,15,09,01,067,17,11,81,016,24,1*60\r\n
$GPGSV,3,2,12,12,75,265,29,17,03,096,06,19,22,088,18,20,50,157,24,1*62\r\n
$GPGSV,3,3,12,24,09,220,22,25,42,307,25,44,42,198,30,48,40,209,30,1*6F\r\n
$GPGSV,1,1,03,28,05,323,,29,17,290,,46,38,215,,0*52\r\n
$GAGSV,1,1,00,0*74\r\n
$GBGSV,1,1,00,0*77\r\n
$GQGSV,1,1,00,0*64\r\n
$GNGLL,3947.65270,N,10509.19989,W,194524.00,A,A*68\r\n
$GNZDA,194524.00,12,05,2023,00,00*72\r\n
\xb5b\x02w\x10\0\0\x01\n\x01\xd2 \xf0\0\0\x1b\x1c \x04\f\x06\0\xe4\xa2
\xb5b\x02w\x10\0\0\0\n\x01\xd2 \xf0\0\0\x1b\x1c \x04\v\x06\0\xe2\x90
$GNRMC,194525.00,A,3947.65270,N,10509.19996,W,0.026,,120523,,,A,V*07\r\n
$GNVTG,,T,,M,0.026,N,0.048,K,A*35\r\n
$GNGGA,194525.00,3947.65270,N,10509.19996,W,1,07,1.25,1709.6,M,-21.5,M,,*41\r\n
$GNGSA,A,3,19,05,06,20,11,12,25,,,,,,2.43,1.25,2.08,1*05\r\n
$GNGSA,A,3,,,,,,,,,,,,,2.43,1.25,2.08,3*0A\r\n
$GNGSA,A,3,,,,,,,,,,,,,2.43,1.25,2.08,4*0D\r\n
$GNGSA,A,3,,,,,,,,,,,,,2.43,1.25,2.08,5*0C\r\n
$GPGSV,3,1,12,05,27,176,27,06,35,047,15,09,01,067,16,11,81,016,24,1*61\r\n
$GPGSV,3,2,12,12,75,265,29,17,03,096,09,19,22,088,18,20,50,157,24,1*6D\r\n
$GPGSV,3,3,12,24,09,220,22,25,42,307,25,44,42,198,30,48,40,209,30,1*6F\r\n
$GPGSV,1,1,03,28,05,323,,29,17,290,,46,38,215,,0*52\r\n
$GAGSV,1,1,00,0*74\r\n
$GBGSV,1,1,00,0*77\r\n
$GQGSV,1,1,00,0*64\r\n
$GNGLL,3947.65270,N,10509.19996,W,194525.00,A,A*67\r\n
$GNZDA,194525.00,12,05,2023,00,00*73\r\n
$GNRMC,194526.00,A,3947.65271,N,10509.20003,W,0.025,,120523,,,A,V*09\r\n
$GNVTG,,T,,M,0.025,N,0.047,K,A*39\r\n
$GNGGA,194526.00,3947.65271,N,10509.20003,W,1,07,1.25,1709.6,M,-21.5,M,,*4C\r\n
$GNGSA,A,3,19,05,06,20,11,12,25,,,,,,2.43,1.25,2.08,1*05\r\n
$GNGSA,A,3,,,,,,,,,,,,,2.43,1.25,2.08,3*0A\r\n
$GNGSA,A,3,,,,,,,,,,,,,2.43,1.25,2.08,4*0D\r\n
$GNGSA,A,3,,,,,,,,,,,,,2.43,1.25,2.08,5*0C\r\n
$GPGSV,3,1,12,05,27,176,27,06,35,047,14,09,01,067,15,11,81,016,24,1*63\r\n
$GPGSV,3,2,12,12,75,265,29,17,03,096,09,19,22,088,18,20,50,157,24,1*6D\r\n
$GPGSV,3,3,12,24,09,220,22,25,42,307,25,44,42,198,30,48,40,209,30,1*6F\r\n
$GPGSV,1,1,03,28,05,323,,29,17,290,,46,38,215,,0*52\r\n
$GAGSV,1,1,00,0*74\r\n
$GBGSV,1,1,00,0*77\r\n
$GQGSV,1,1,00,0*64\r\n
$GNGLL,3947.65271,N,10509.20003,W,194526.00,A,A*6A\r\n
$GNZDA,194526.00,12,05,2023,00,00*70\r\n
$GNRMC,194527.00,A,3947.65274,N,10509.20009,W,0.024,,120523,,,A,V*06\r\n
$GNVTG,,T,,M,0.024,N,0.045,K,A*3A\r\n
$GNGGA,194527.00,3947.65274,N,10509.20009,W,1,07,1.25,1709.6,M,-21.5,M,,*42\r\n
$GNGSA,A,3,19,05,06,20,11,12,25,,,,,,2.43,1.25,2.08,1*05\r\n
$GNGSA,A,3,,,,,,,,,,,,,2.43,1.25,2.08,3*0A\r\n
$GNGSA,A,3,,,,,,,,,,,,,2.43,1.25,2.08,4*0D\r\n
$GNGSA,A,3,,,,,,,,,,,,,2.43,1.25,2.08,5*0C\r\n
$GPGSV,3,1,12,05,27,176,27,06,35,047,13,09,01,067,14,11,81,017,24,1*64\r\n
$GPGSV,3,2,12,12,75,265,28,17,03,096,09,19,22,088,19,20,50,157,23,1*6A\r\n
$GPGSV,3,3,12,24,09,220,21,25,42,307,24,44,42,198,29,48,40,209,30,1*65\r\n
$GPGSV,1,1,03,28,05,323,,29,17,290,,46,38,215,,0*52\r\n
$GAGSV,1,1,00,0*74\r\n
$GBGSV,1,1,00,0*77\r\n
$GQGSV,1,1,00,0*64\r\n
$GNGLL,3947.65274,N,10509.20009,W,194527.00,A,A*64\r\n
$GNZDA,194527.00,12,05,2023,00,00*71\r\n
\xb5b\x02w\x10\0\0\x01\t\x01\xbf+\xf0\0\0\x1c\x1d \x04\f\x06\0\xdd6
\xb5b\x02w\x10\0\0\0\t\x01\xbf+\xf0\0\0\x1c\x1d \x04\v\x06\0\xdb$
$GNRMC,194528.00,A,3947.65275,N,10509.20015,W,0.024,,120523,,,A,V*05\r\n
$GNVTG,,T,,M,0.024,N,0.044,K,A*3B\r\n
$GNGGA,194528.00,3947.65275,N,10509.20015,W,1,07,1.25,1709.6,M,-21.5,M,,*41\r\n
$GNGSA,A,3,19,05,06,20,11,12,25,,,,,,2.43,1.25,2.09,1*04\r\n
$GNGSA,A,3,,,,,,,,,,,,,2.43,1.25,2.09,3*0B\r\n
$GNGSA,A,3,,,,,,,,,,,,,2.43,1.25,2.09,4*0C\r\n
$GNGSA,A,3,,,,,,,,,,,,,2.43,1.25,2.09,5*0D\r\n
$GPGSV,3,1,12,05,27,176,27,06,35,047,13,09,01,067,14,11,81,017,24,1*64\r\n
$GPGSV,3,2,12,12,75,263,28,17,03,096,06,19,22,088,19,20,50,157,23,1*63\r\n
$GPGSV,3,3,12,24,09,220,22,25,42,307,24,44,42,198,30,48,40,209,30,1*6E\r\n
$GPGSV,1,1,03,28,05,323,,29,17,290,,46,38,215,,0*52\r\n
$GAGSV,1,1,00,0*74\r\n
$GBGSV,1,1,00,0*77\r\n
$GQGSV,1,1,00,0*64\r\n
$GNGLL,3947.65275,N,10509.20015,W,194528.00,A,A*67\r\n
$GNZDA,194528.00,12,05,2023,00,00*7E\r\n
$GNRMC,194529.00,A,3947.65276,N,10509.20020,W,0.023,,120523,,,A,V*06\r\n
$GNVTG,,T,,M,0.023,N,0.043,K,A*3B\r\n
$GNGGA,194529.00,3947.65276,N,10509.20020,W,1,07,1.25,1709.7,M,-21.5,M,,*44\r\n
$GNGSA,A,3,19,05,06,20,11,12,25,,,,,,2.43,1.25,2.09,1*04\r\n
$GNGSA,A,3,,,,,,,,,,,,,2.43,1.25,2.09,3*0B\r\n
$GNGSA,A,3,,,,,,,,,,,,,2.43,1.25,2.09,4*0C\r\n
$GNGSA,A,3,,,,,,,,,,,,,2.43,1.25,2.09,5*0D\r\n
$GPGSV,3,1,12,05,27,176,28,06,35,047,15,09,01,067,14,11,81,017,24,1*6D\r\n
$GPGSV,3,2,12,12,75,263,28,17,03,096,09,19,22,088,18,20,50,157,22,1*6C\r\n
$GPGSV,3,3,12,24,09,220,22,25,42,307,25,44,42,198,30,48,40,209,30,1*6F\r\n
$GPGSV,1,1,03,28,05,323,,29,17,290,,46,38,215,,0*52\r\n
$GAGSV,1,1,00,0*74\r\n
$GBGSV,1,1,00,0*77\r\n
$GQGSV,1,1,00,0*64\r\n
$GNGLL,3947.65276,N,10509.20020,W,194529.00,A,A*63\r\n
$GNZDA,194529.00,12,05,2023,00,00*7F\r\n
