$GNRMC,175301.00,A,3947.65491,N,10509.19968,W,0.076,,270818,,,D*79
$GNGGA,175301.00,3947.65491,N,10509.19968,W,2,12,0.63,1719.6,M,-21.5,M,,0000*43
$GNGSA,M,3,02,12,25,05,06,19,29,51,48,,,,1.33,0.63,1.17*1D
$GNGSA,M,3,83,73,82,67,80,68,74,84,,,,,1.33,0.63,1.17*1E
$GNTXT,01,01,02,u-blox AG - www.u-blox.com*4E
$GNTXT,01,01,02,HW UBX-M8030 00080000*60
$GNTXT,01,01,02,ROM CORE 3.01 (107888)*2B
$GNTXT,01,01,02,FWVER=SPG 3.01*46
$GNTXT,01,01,02,PROTVER=18.00*11
$GNTXT,01,01,02,GPS;GLO;GAL;BDS*77
$GNTXT,01,01,02,SBAS;IMES;QZSS*49
$GNTXT,01,01,02,GNSS OTP=GPS;GLO*37
$GNTXT,01,01,02,LLC=FFFFFFFF-FFFF7CBF-FFED7FAA-FFFFFFFF-FFFFFFF9*52
$GNTXT,01,01,02,ANTSUPERV=AC SD PDoS SR*3E
$GNTXT,01,01,02,ANTSTATUS=OK*25
$GNTXT,01,01,02,PF=3FF*4B
$GNRMC,175302.00,A,3947.65488,N,10509.19966,W,0.011,,270818,,,D*7D
$GNGGA,175302.00,3947.65488,N,10509.19966,W,2,12,0.63,1719.8,M,-21.5,M,,0000*48
$GNGSA,M,3,02,12,25,05,06,19,29,51,48,,,,1.33,0.63,1.17*1D
$GNGSA,M,3,83,73,82,67,80,68,74,84,,,,,1.33,0.63,1.17*1E
$GNRMC,175303.00,A,3947.65485,N,10509.19967,W,0.021,,270818,,,D*73
$GNGGA,175303.00,3947.65485,N,10509.19967,W,2,12,0.63,1719.9,M,-21.5,M,,0000*44
$GNGSA,M,3,02,12,25,05,06,19,29,51,48,,,,1.33,0.63,1.17*1D
$GNGSA,M,3,83,73,82,67,80,68,74,84,,,,,1.33,0.63,1.17*1E
$GNRMC,175304.00,A,3947.65481,N,10509.19970,W,0.039,,270818,,,D*7F
$GNGGA,175304.00,3947.65481,N,10509.19970,W,2,12,0.66,1720.0,M,-21.5,M,,0000*47
$GNGSA,M,3,02,12,25,05,06,29,51,48,,,,,1.42,0.66,1.26*14
$GNGSA,M,3,83,73,82,67,80,68,74,84,,,,,1.42,0.66,1.26*1F
$GNRMC,175305.00,A,3947.65480,N,10509.19974,W,0.053,,270818,,,D*77
$GNGGA,175305.00,3947.65480,N,10509.19974,W,2,12,0.66,1719.9,M,-21.5,M,,0000*40
$GNGSA,M,3,02,12,25,05,06,29,51,48,,,,,1.42,0.66,1.26*14
$GNGSA,M,3,83,73,82,67,80,68,74,84,,,,,1.42,0.66,1.26*1F
$GPGSV,4,1,13,02,72,023,30,05,50,160,43,06,25,055,27,09,04,052,27*70
$GPGSV,4,2,13,12,64,199,42,19,19,098,24,24,01,212,,25,51,296,40*70
$GPGSV,4,3,13,29,24,299,14,31,05,321,24,46,38,215,44,48,36,220,44*71
$GPGSV,4,4,13,51,44,183,41*40
$GLGSV,3,1,09,66,11,024,,67,38,073,34,68,28,139,42,73,41,268,35*63
$GLGSV,3,2,09,74,22,325,28,80,18,207,28,82,36,057,38,83,55,340,41*61
$GLGSV,3,3,09,84,16,284,14*5C
$GNTXT,01,01,02,u-blox AG - www.u-blox.com*4E
$GNTXT,01,01,02,HW UBX-M8030 00080000*60
$GNTXT,01,01,02,ROM CORE 3.01 (107888)*2B
$GNTXT,01,01,02,FWVER=SPG 3.01*46
$GNTXT,01,01,02,PROTVER=18.00*11
$GNTXT,01,01,02,GPS;GLO;GAL;BDS*77
$GNTXT,01,01,02,SBAS;IMES;QZSS*49
$GNTXT,01,01,02,GNSS OTP=GPS;GLO*37
$GNTXT,01,01,02,LLC=FFFFFFFF-FFFF7CBF-FFED7FAA-FFFFFFFF-FFFFFFF9*52
$GNTXT,01,01,02,ANTSUPERV=AC SD PDoS SR*3E
$GNTXT,01,01,02,ANTSTATUS=OK*25
$GNTXT,01,01,02,PF=3FF*4B
$GNRMC,195043.00,A,3947.65340,N,10509.20314,W,0.088,,270818,,,D*73
$GNVTG,,T,,M,0.088,N,0.163,K,D*3C
$GNGGA,195043.00,3947.65340,N,10509.20314,W,2,12,0.65,1709.0,M,-21.5,M,,0000*49
$GNGSA,M,3,05,29,25,02,12,13,26,51,48,15,,,1.25,0.65,1.06*10
$GNGSA,M,3,68,83,84,74,75,85,70,,,,,,1.25,0.65,1.06*10
$GPGSV,4,1,13,02,31,074,31,05,57,054,36,12,10,182,30,13,23,122,34*73
$GPGSV,4,2,13,15,16,164,47,20,03,226,31,21,24,280,,25,33,218,41*7D
$GPGSV,4,3,13,26,15,317,25,29,73,321,33,46,38,215,42,48,36,220,43*76
$GPGSV,4,4,13,51,44,183,41*40
$GLGSV,3,1,11,67,04,025,25,68,52,052,38,69,58,160,30,70,08,194,31*60
$GLGSV,3,2,11,74,13,262,25,75,13,315,22,82,01,112,09,83,43,085,22*62
$GLGSV,3,3,11,84,54,345,39,85,10,307,22,,,,44*68
$GNRMC,195044.00,A,3947.65346,N,10509.20313,W,0.045,,270818,,,D*74
$GNVTG,,T,,M,0.045,N,0.083,K,D*32
$GNGGA,195044.00,3947.65346,N,10509.20313,W,2,12,0.65,1708.8,M,-21.5,M,,0000*46
$GNGSA,M,3,05,29,25,02,12,13,26,51,48,15,,,1.25,0.65,1.06*10
$GNGSA,M,3,68,83,84,74,75,85,70,,,,,,1.25,0.65,1.06*10
$GPGSV,4,1,13,02,31,074,30,05,57,054,36,12,10,182,32,13,23,122,34*70
$GPGSV,4,2,13,15,16,164,47,20,03,226,30,21,24,280,,25,33,218,41*7C
$GPGSV,4,3,13,26,15,317,24,29,73,321,34,46,38,215,42,48,36,220,43*70
$GPGSV,4,4,13,51,44,183,41*40
$GLGSV,3,1,11,67,04,025,25,68,52,052,39,69,58,160,29,70,08,194,31*69
$GLGSV,3,2,11,74,13,262,25,75,13,315,21,82,01,112,07,83,43,085,23*6E
$GLGSV,3,3,11,84,54,345,39,85,10,307,21,,,,44*6B
$GNRMC,195045.00,A,3947.65349,N,10509.20314,W,0.072,,270818,,,D*79
$GNVTG,,T,,M,0.072,N,0.133,K,D*3C
$GNGGA,195045.00,3947.65349,N,10509.20314,W,2,12,0.65,1708.6,M,-21.5,M,,0000*41
$GNGSA,M,3,05,29,25,02,12,13,26,51,48,15,,,1.25,0.65,1.06*10
$GNGSA,M,3,68,83,84,74,75,85,70,,,,,,1.25,0.65,1.06*10
$GPGSV,4,1,13,02,31,074,32,05,57,054,34,12,10,182,32,13,23,122,34*70
$GPGSV,4,2,13,15,16,164,46,20,03,226,30,21,24,280,,25,33,218,41*7D
$GPGSV,4,3,13,26,15,317,22,29,73,321,33,46,38,215,42,48,36,220,42*70
$GPGSV,4,4,13,51,44,183,41*40
$GLGSV,3,1,11,67,04,025,25,68,52,052,38,69,58,160,30,70,08,194,31*60
$GLGSV,3,2,11,74,13,262,27,75,13,315,23,82,01,112,11,83,43,086,25*6C
$GLGSV,3,3,11,84,54,345,39,85,10,307,20,,,,43*6D
$GNRMC,195046.00,A,3947.65353,N,10509.20312,W,0.073,,270818,,,D*76
$GNVTG,,T,,M,0.073,N,0.136,K,D*38
$GNGGA,195046.00,3947.65353,N,10509.20312,W,2,12,0.65,1708.5,M,-21.5,M,,0000*4C
$GNGSA,M,3,05,29,25,02,12,13,26,51,48,15,,,1.25,0.65,1.06*10
$GNGSA,M,3,68,83,84,74,75,85,70,,,,,,1.25,0.65,1.06*10
$GPGSV,4,1,13,02,31,074,31,05,57,054,35,12,10,182,32,13,23,122,34*72
$GPGSV,4,2,13,15,16,164,47,20,03,226,31,21,24,280,,25,33,218,41*7D
$GPGSV,4,3,13,26,15,317,21,29,73,321,33,46,38,215,42,48,36,220,43*72
$GPGSV,4,4,13,51,44,183,41*40
$GLGSV,3,1,11,67,04,025,26,68,52,052,38,69,58,160,31,70,08,194,31*62
$GLGSV,3,2,11,74,13,262,26,75,13,315,24,82,01,112,10,83,43,086,26*68
$GLGSV,3,3,11,84,55,346,39,85,10,307,19,,,,43*65
$GNRMC,195047.00,A,3947.65358,N,10509.20312,W,0.033,,270818,,,D*78
$GNVTG,,T,,M,0.033,N,0.062,K,D*3C
$GNGGA,195047.00,3947.65358,N,10509.20312,W,2,12,0.65,1708.4,M,-21.5,M,,0000*47
$GNGSA,M,3,05,29,25,02,12,13,26,51,48,15,,,1.25,0.65,1.06*10
$GNGSA,M,3,68,83,84,74,75,85,70,,,,,,1.25,0.65,1.06*10
$GPGSV,4,1,13,02,31,074,30,05,57,054,35,12,10,182,31,13,23,122,35*71
$GPGSV,4,2,13,15,16,164,47,20,03,226,31,21,24,280,23,25,33,218,41*7C
$GPGSV,4,3,13,26,15,317,23,29,73,321,33,46,38,215,42,48,36,220,43*70
$GPGSV,4,4,13,51,44,183,41*40
$GLGSV,3,1,11,67,04,025,26,68,52,052,38,69,58,160,31,70,08,194,30*63
$GLGSV,3,2,11,74,13,262,26,75,13,315,25,82,01,112,09,83,43,086,26*61
$GLGSV,3,3,11,84,55,346,39,85,10,307,20,,,,43*6F
$GNRMC,195048.00,A,3947.65362,N,10509.20313,W,0.017,,270818,,,D*79
$GNVTG,,T,,M,0.017,N,0.032,K,D*3F
$GNGGA,195048.00,3947.65362,N,10509.20313,W,2,12,0.65,1708.3,M,-21.5,M,,0000*47
$GNGSA,M,3,05,29,25,02,12,13,26,51,48,15,,,1.25,0.65,1.06*10
$GNGSA,M,3,68,83,84,74,75,85,70,,,,,,1.25,0.65,1.06*10
$GPGSV,4,1,13,02,31,074,31,05,57,054,34,12,10,182,30,13,23,122,36*73
$GPGSV,4,2,13,15,16,164,46,20,03,226,30,21,24,280,,25,33,218,41*7D
$GPGSV,4,3,13,26,15,317,23,29,73,321,33,46,38,215,42,48,36,220,42*71
$GPGSV,4,4,13,51,44,183,39*4F
$GLGSV,3,1,11,67,04,025,26,68,52,052,39,69,58,160,32,70,08,194,30*61
$GLGSV,3,2,11,74,13,262,25,75,13,315,22,82,01,112,13,83,43,086,26*6E
$GLGSV,3,3,11,84,55,346,39,85,10,307,20,,,,43*6F
$GNRMC,195049.00,A,3947.65366,N,10509.20315,W,0.040,,270818,,,D*78
$GNVTG,,T,,M,0.040,N,0.075,K,D*3E
$GNGGA,195049.00,3947.65366,N,10509.20315,W,2,12,0.65,1708.1,M,-21.5,M,,0000*46
$GNGSA,M,3,05,29,25,02,12,13,26,51,48,15,,,1.25,0.65,1.06*10
$GNGSA,M,3,68,83,84,74,75,85,70,,,,,,1.25,0.65,1.06*10
$GPGSV,4,1,13,02,31,074,31,05,57,054,35,12,10,182,32,13,23,122,34*72
$GPGSV,4,2,13,15,16,164,46,20,03,226,30,21,24,280,,25,33,218,41*7D
$GPGSV,4,3,13,26,15,317,23,29,73,321,32,46,38,215,42,48,36,220,42*70
$GPGSV,4,4,13,51,44,183,41*40
$GLGSV,3,1,11,67,04,025,26,68,52,052,39,69,58,160,32,70,08,194,31*60
$GLGSV,3,2,11,74,13,262,23,75,13,315,19,82,01,112,10,83,43,086,25*60
$GLGSV,3,3,11,84,55,346,39,85,10,307,18,,,,44*63
$GNRMC,195050.00,A,3947.65373,N,10509.20319,W,0.097,,270818,,,D*72
$GNVTG,,T,,M,0.097,N,0.180,K,D*3F
$GNGGA,195050.00,3947.65373,N,10509.20319,W,2,12,0.65,1707.9,M,-21.5,M,,0000*41
$GNGSA,M,3,05,29,25,02,12,13,26,51,48,15,,,1.25,0.65,1.06*10
$GNGSA,M,3,68,83,84,74,75,85,70,,,,,,1.25,0.65,1.06*10
$GPGSV,4,1,13,02,31,074,31,05,57,054,34,12,10,182,31,13,23,122,34*70
$GPGSV,4,2,13,15,16,164,46,20,03,226,30,21,24,280,,25,33,218,41*7D
$GPGSV,4,3,13,26,15,317,24,29,73,321,31,46,38,215,42,48,36,220,42*74
$GPGSV,4,4,13,51,44,183,41*40
$GLGSV,3,1,11,67,04,025,27,68,52,052,39,69,58,160,32,70,08,194,31*61
$GLGSV,3,2,11,74,13,262,23,75,13,315,16,82,01,112,12,83,43,086,25*6D
$GLGSV,3,3,11,84,55,346,39,85,10,307,19,,,,44*62
$GNRMC,195051.00,A,3947.65378,N,10509.20324,W,0.124,,270818,,,D*7F
$GNVTG,,T,,M,0.124,N,0.229,K,D*36
$GNGGA,195051.00,3947.65378,N,10509.20324,W,2,12,0.65,1707.7,M,-21.5,M,,0000*4B
$GNGSA,M,3,05,29,25,02,12,13,26,51,48,15,,,1.25,0.65,1.06*10
$GNGSA,M,3,68,83,84,74,75,85,70,,,,,,1.25,0.65,1.06*10
$GPGSV,4,1,13,02,31,074,30,05,57,054,35,12,10,182,31,13,23,122,34*70
$GPGSV,4,2,13,15,16,164,47,20,03,226,30,21,24,280,,25,33,218,41*7C
$GPGSV,4,3,13,26,15,317,25,29,73,321,30,46,38,215,43,48,36,220,42*75
$GPGSV,4,4,13,51,44,183,42*43
$GLGSV,3,1,11,67,04,025,27,68,52,052,40,69,58,160,31,70,08,194,31*6C
$GLGSV,3,2,11,74,13,262,22,75,13,315,18,82,01,112,14,83,43,086,25*64
$GLGSV,3,3,11,84,55,346,39,85,10,307,16,,,,43*6A
$GNRMC,195052.00,A,3947.65381,N,10509.20326,W,0.043,,270818,,,D*78
$GNVTG,,T,,M,0.043,N,0.080,K,D*37
$GNGGA,195052.00,3947.65381,N,10509.20326,W,2,12,0.65,1707.7,M,-21.5,M,,0000*4C
$GNGSA,M,3,05,29,25,02,12,13,26,51,48,15,,,1.25,0.65,1.06*10
$GNGSA,M,3,68,83,84,74,75,85,70,,,,,,1.25,0.65,1.06*10
$GPGSV,4,1,13,02,31,075,30,05,57,054,36,12,10,182,32,13,23,122,35*70
$GPGSV,4,2,13,15,16,164,47,20,03,226,31,21,24,280,,25,33,218,41*7D
$GPGSV,4,3,13,26,15,317,25,29,73,321,30,46,38,215,42,48,36,220,41*77
$GPGSV,4,4,13,51,44,183,42*43
$GLGSV,3,1,11,67,04,025,27,68,52,052,39,69,58,160,36,70,08,194,31*65
$GLGSV,3,2,11,74,13,262,22,75,13,315,20,82,01,112,10,83,43,086,25*6B
$GLGSV,3,3,11,84,55,346,39,85,10,307,16,,,,43*6A
$GNRMC,195053.00,A,3947.65383,N,10509.20327,W,0.054,,270818,,,D*7C
$GNVTG,,T,,M,0.054,N,0.100,K,D*38
$GNGGA,195053.00,3947.65383,N,10509.20327,W,2,12,0.65,1707.6,M,-21.5,M,,0000*4F
$GNGSA,M,3,05,29,25,02,12,13,26,51,48,15,,,1.25,0.65,1.06*10
$GNGSA,M,3,68,83,84,74,75,85,70,,,,,,1.25,0.65,1.06*10
$GPGSV,4,1,13,02,31,075,31,05,57,054,34,12,10,182,31,13,23,122,34*71
$GPGSV,4,2,13,15,16,164,47,20,03,226,31,21,24,280,,25,33,218,41*7D
$GPGSV,4,3,13,26,15,317,26,29,73,321,31,46,38,215,42,48,36,220,41*75
$GPGSV,4,4,13,51,44,183,40*41
$GLGSV,3,1,11,67,04,025,27,68,52,052,39,69,58,160,36,70,08,194,31*65
$GLGSV,3,2,11,74,13,262,24,75,13,315,21,82,01,112,14,83,43,086,27*6A
$GLGSV,3,3,11,84,55,346,39,85,10,307,15,,,,43*69
$GNRMC,195054.00,A,3947.65384,N,10509.20328,W,0.105,,270818,,,D*76
$GNVTG,,T,,M,0.105,N,0.195,K,D*31
$GNGGA,195054.00,3947.65384,N,10509.20328,W,2,12,0.65,1707.6,M,-21.5,M,,0000*40
$GNGSA,M,3,05,29,25,02,12,13,26,51,48,15,,,1.25,0.65,1.06*10
$GNGSA,M,3,68,83,84,74,75,85,70,,,,,,1.25,0.65,1.06*10
$GPGSV,4,1,13,02,31,075,31,05,56,054,35,12,10,182,31,13,23,122,33*76
$GPGSV,4,2,13,15,16,164,46,20,03,226,31,21,24,280,,25,33,218,41*7C
$GPGSV,4,3,13,26,15,317,26,29,73,321,30,46,38,215,43,48,36,220,42*76
$GPGSV,4,4,13,51,44,183,41*40
$GLGSV,3,1,11,67,04,025,25,68,52,052,39,69,58,160,32,70,08,194,31*63
$GLGSV,3,2,11,74,13,262,25,75,13,315,20,82,01,112,10,83,43,086,26*6F
$GLGSV,3,3,11,84,55,346,39,85,10,307,15,,,,43*69
$GNRMC,195055.00,A,3947.65385,N,10509.20331,W,0.054,,270818,,,D*7B
$GNVTG,,T,,M,0.054,N,0.100,K,D*38
$GNGGA,195055.00,3947.65385,N,10509.20331,W,2,12,0.65,1707.5,M,-21.5,M,,0000*4B
$GNGSA,M,3,05,29,25,02,12,13,26,51,48,15,,,1.25,0.65,1.06*10
$GNGSA,M,3,68,83,84,74,75,85,70,,,,,,1.25,0.65,1.06*10
$GPGSV,4,1,13,02,31,075,30,05,56,054,35,12,10,182,31,13,23,122,34*70
$GPGSV,4,2,13,15,16,164,46,20,03,226,31,21,24,280,,25,33,218,41*7C
$GPGSV,4,3,13,26,15,317,27,29,73,321,32,46,38,215,42,48,36,220,42*74
$GPGSV,4,4,13,51,44,183,41*40
$GLGSV,3,1,11,67,04,025,25,68,52,052,39,69,58,160,34,70,08,194,31*65
$GLGSV,3,2,11,74,13,262,25,75,13,315,18,82,01,112,12,83,43,086,25*65
$GLGSV,3,3,11,84,55,346,39,85,10,307,16,,,,43*6A
$GNRMC,195056.00,A,3947.65386,N,10509.20336,W,0.053,,270818,,,D*7B
$GNVTG,,T,,M,0.053,N,0.098,K,D*3F
$GNGGA,195056.00,3947.65386,N,10509.20336,W,2,12,0.65,1707.4,M,-21.5,M,,0000*4D
$GNGSA,M,3,05,29,25,02,12,13,26,51,48,15,,,1.25,0.65,1.06*10
$GNGSA,M,3,68,83,84,74,75,85,70,,,,,,1.25,0.65,1.06*10
$GPGSV,4,1,13,02,31,075,30,05,56,054,34,12,10,182,32,13,23,122,34*72
$GPGSV,4,2,13,15,16,164,47,20,03,226,32,21,24,280,,25,33,218,41*7E
$GPGSV,4,3,13,26,15,317,27,29,73,321,33,46,38,215,42,48,36,220,42*75
$GPGSV,4,4,13,51,44,183,41*40
$GLGSV,3,1,11,67,04,025,24,68,52,052,40,69,58,160,34,70,08,194,31*6A
$GLGSV,3,2,11,74,13,262,26,75,13,315,18,82,01,112,08,83,43,086,25*6D
$GLGSV,3,3,11,84,55,346,39,85,10,307,14,,,,44*6F
$GNRMC,195057.00,A,3947.65386,N,10509.20341,W,0.050,,270818,,,D*79
$GNVTG,,T,,M,0.050,N,0.093,K,D*37
$GNGGA,195057.00,3947.65386,N,10509.20341,W,2,12,0.65,1707.4,M,-21.5,M,,0000*4C
$GNGSA,M,3,05,29,25,02,12,13,26,51,48,15,,,1.25,0.65,1.06*10
$GNGSA,M,3,68,83,84,74,75,85,70,,,,,,1.25,0.65,1.06*10
$GPGSV,4,1,13,02,31,075,30,05,56,054,34,12,10,182,33,13,23,122,34*73
$GPGSV,4,2,13,15,16,164,46,20,03,226,32,21,24,280,,25,33,218,41*7F
$GPGSV,4,3,13,26,15,317,28,29,73,321,34,46,38,215,42,48,36,220,42*7D
$GPGSV,4,4,13,51,44,183,41*40
$GLGSV,3,1,11,67,04,025,26,68,52,052,40,69,58,160,35,70,08,194,31*69
$GLGSV,3,2,11,74,13,262,26,75,13,315,18,82,01,112,07,83,43,086,23*64
$GLGSV,3,3,11,84,55,346,39,85,10,307,10,,,,44*6B
$GNRMC,195058.00,A,3947.65383,N,10509.20344,W,0.058,,270818,,,D*7E
$GNVTG,,T,,M,0.058,N,0.107,K,D*33
$GNGGA,195058.00,3947.65383,N,10509.20344,W,2,12,0.65,1707.5,M,-21.5,M,,0000*42
$GNGSA,M,3,05,29,25,02,12,13,26,51,48,15,,,1.25,0.65,1.06*10
$GNGSA,M,3,68,83,84,74,75,85,70,,,,,,1.25,0.65,1.06*10
$GPGSV,4,1,13,02,31,075,31,05,56,054,33,12,10,182,31,13,23,122,34*77
$GPGSV,4,2,13,15,16,164,45,20,03,226,32,21,24,280,23,25,33,218,41*7D
$GPGSV,4,3,13,26,15,317,28,29,73,321,33,46,38,215,42,48,36,220,42*7A
$GPGSV,4,4,13,51,44,183,41*40
$GLGSV,3,1,11,67,04,025,24,68,52,052,39,69,58,160,34,70,08,194,30*65
$GLGSV,3,2,11,74,13,262,27,75,13,315,18,82,01,112,14,83,43,086,24*60
$GLGSV,3,3,11,84,55,346,39,85,10,307,15,,,,44*6E
$GNRMC,195059.00,A,3947.65379,N,10509.20347,W,0.044,,270818,,,D*74
$GNVTG,,T,,M,0.044,N,0.081,K,D*31
$GNGGA,195059.00,3947.65379,N,10509.20347,W,2,12,0.65,1707.6,M,-21.5,M,,0000*46
$GNGSA,M,3,05,29,25,02,12,13,26,51,48,15,,,1.25,0.65,1.06*10
$GNGSA,M,3,68,83,84,74,75,85,70,,,,,,1.25,0.65,1.06*10
$GPGSV,4,1,13,02,31,075,32,05,56,054,35,12,10,182,30,13,23,122,33*74
$GPGSV,4,2,13,15,16,164,45,20,03,226,31,21,24,280,,25,33,218,41*7F
$GPGSV,4,3,13,26,15,317,29,29,73,321,33,46,38,215,43,48,36,220,42*7A
$GPGSV,4,4,13,51,44,183,41*40
$GLGSV,3,1,11,67,04,025,24,68,52,052,39,69,58,160,33,70,08,194,30*62
$GLGSV,3,2,11,74,13,262,24,75,13,315,17,82,01,112,14,83,43,086,25*6D
$GLGSV,3,3,11,84,55,346,39,85,10,307,18,,,,44*63
$GNRMC,195100.00,A,3947.65377,N,10509.20349,W,0.062,,270818,,,D*7D
$GNVTG,,T,,M,0.062,N,0.114,K,D*38
$GNGGA,195100.00,3947.65377,N,10509.20349,W,2,12,0.65,1707.6,M,-21.5,M,,0000*4B
$GNGSA,M,3,05,29,25,02,12,13,26,51,48,15,,,1.25,0.65,1.06*10
$GNGSA,M,3,68,83,84,74,75,85,70,,,,,,1.25,0.65,1.06*10
$GPGSV,4,1,13,02,31,075,31,05,56,054,34,12,10,182,31,13,23,122,33*77
$GPGSV,4,2,13,15,16,164,45,20,03,226,31,21,24,280,,25,33,218,41*7F
$GPGSV,4,3,13,26,15,317,29,29,73,321,31,46,38,215,43,48,36,220,42*78
$GPGSV,4,4,13,51,44,183,41*40
$GLGSV,3,1,11,67,04,025,25,68,52,052,39,69,58,160,31,70,08,194,30*61
$GLGSV,3,2,11,74,13,262,22,75,13,315,17,82,01,112,11,83,43,086,24*6F
$GLGSV,3,3,11,84,55,346,39,85,10,307,16,,,,43*6A
$GNRMC,195101.00,A,3947.65374,N,10509.20350,W,0.038,,270818,,,D*78
$GNVTG,,T,,M,0.038,N,0.071,K,D*35
$GNGGA,195101.00,3947.65374,N,10509.20350,W,2,12,0.65,1707.7,M,-21.5,M,,0000*40
$GNGSA,M,3,05,29,25,02,12,13,26,51,48,15,,,1.25,0.65,1.06*10
$GNGSA,M,3,68,83,84,74,75,85,70,,,,,,1.25,0.65,1.06*10
$GPGSV,4,1,13,02,31,075,33,05,56,054,36,12,09,182,31,13,23,122,32*7E
$GPGSV,4,2,13,15,16,164,44,20,03,226,31,21,24,280,,25,33,218,41*7E
$GPGSV,4,3,13,26,15,317,28,29,73,321,29,46,38,215,43,48,36,220,42*70
$GPGSV,4,4,13,51,44,183,42*43
$GLGSV,3,1,11,67,04,025,26,68,52,052,41,69,58,160,31,70,08,194,31*6C
$GLGSV,3,2,11,74,13,262,19,75,13,315,17,82,01,112,08,83,43,086,26*6D
$GLGSV,3,3,11,84,55,346,39,85,10,307,15,,,,43*69
$GNRMC,195102.00,A,3947.65372,N,10509.20351,W,0.035,,270818,,,D*71
$GNVTG,,T,,M,0.035,N,0.065,K,D*3D
$GNGGA,195102.00,3947.65372,N,10509.20351,W,2,12,0.65,1707.8,M,-21.5,M,,0000*4B
$GNGSA,M,3,05,29,25,02,12,13,26,51,48,15,,,1.25,0.65,1.06*10
$GNGSA,M,3,68,83,84,74,75,85,70,,,,,,1.25,0.65,1.06*10
$GPGSV,4,1,13,02,31,075,33,05,56,054,37,12,09,182,34,13,24,121,30*7C
$GPGSV,4,2,13,15,16,164,45,20,03,226,31,21,24,280,,25,33,218,41*7F
$GPGSV,4,3,13,26,15,317,27,29,73,321,31,46,38,215,43,48,36,220,42*76
$GPGSV,4,4,13,51,44,183,41*40
$GLGSV,3,1,11,67,04,025,26,68,52,052,40,69,58,160,30,70,08,194,30*6D
$GLGSV,3,2,11,74,13,262,20,75,13,315,17,82,01,112,10,83,43,086,27*6F
$GLGSV,3,3,11,84,55,346,39,85,10,307,13,,,,43*6F
$GNRMC,195103.00,A,3947.65369,N,10509.20351,W,0.074,,270818,,,D*7F
$GNVTG,,T,,M,0.074,N,0.137,K,D*3E
$GNGGA,195103.00,3947.65369,N,10509.20351,W,2,12,0.65,1707.8,M,-21.5,M,,0000*40
$GNGSA,M,3,05,29,25,02,12,13,26,51,48,15,,,1.25,0.65,1.06*10
$GNGSA,M,3,68,83,84,74,75,85,70,,,,,,1.25,0.65,1.06*10
$GPGSV,4,1,13,02,31,075,32,05,56,054,36,12,09,182,33,13,24,121,32*79
$GPGSV,4,2,13,15,16,164,45,20,03,226,31,21,24,280,23,25,33,218,41*7E
$GPGSV,4,3,13,26,15,317,28,29,73,321,32,46,38,215,43,48,36,220,42*7A
$GPGSV,4,4,13,51,44,183,41*40
$GLGSV,3,1,11,67,04,025,27,68,52,052,40,69,58,160,29,70,08,194,30*64
$GLGSV,3,2,11,74,13,262,22,75,13,315,17,82,01,112,14,83,43,086,26*68
$GLGSV,3,3,11,84,55,346,39,85,10,307,12,,,,43*6E
$GNRMC,195104.00,A,3947.65364,N,10509.20349,W,0.105,,270818,,,D*7B
$GNVTG,,T,,M,0.105,N,0.195,K,D*31
$GNGGA,195104.00,3947.65364,N,10509.20349,W,2,12,0.65,1708.0,M,-21.5,M,,0000*44
$GNGSA,M,3,05,29,25,02,12,13,26,51,48,15,,,1.25,0.65,1.06*10
$GNGSA,M,3,68,83,84,74,75,85,70,,,,,,1.25,0.65,1.06*10
$GPGSV,4,1,13,02,31,075,33,05,56,054,36,12,09,182,34,13,24,121,33*7E
$GPGSV,4,2,13,15,17,164,46,20,03,226,32,21,24,280,,25,33,218,41*7E
$GPGSV,4,3,13,26,15,317,29,29,73,321,33,46,38,215,43,48,36,220,42*7A
$GPGSV,4,4,13,51,44,183,41*40
$GLGSV,3,1,11,67,04,025,27,68,52,052,40,69,58,160,29,70,08,194,31*65
$GLGSV,3,2,11,74,13,262,24,75,13,315,17,82,01,112,11,83,43,086,26*6B
$GLGSV,3,3,11,84,55,346,39,85,10,307,11,,,,43*6D
$GNRMC,195105.00,A,3947.65362,N,10509.20351,W,0.068,,270818,,,D*7F
$GNVTG,,T,,M,0.068,N,0.126,K,D*33
$GNGGA,195105.00,3947.65362,N,10509.20351,W,2,12,0.65,1708.0,M,-21.5,M,,0000*4A
$GNGSA,M,3,05,29,25,02,12,13,26,51,48,15,,,1.25,0.65,1.06*10
$GNGSA,M,3,68,83,84,74,75,85,70,,,,,,1.25,0.65,1.06*10
$GPGSV,4,1,13,02,31,075,33,05,56,054,36,12,09,182,34,13,24,121,33*7E
$GPGSV,4,2,13,15,17,164,46,20,03,226,32,21,24,280,,25,33,218,41*7E
$GPGSV,4,3,13,26,15,317,29,29,73,321,32,46,38,215,43,48,36,220,42*7B
$GPGSV,4,4,13,51,44,183,41*40
$GLGSV,3,1,11,67,04,025,27,68,52,052,40,69,58,160,26,70,08,194,31*6A
$GLGSV,3,2,11,74,13,262,24,75,13,315,16,82,01,112,13,83,43,086,26*68
$GLGSV,3,3,11,84,55,346,38,85,10,307,17,,,,43*6A
$GNRMC,195106.00,A,3947.65355,N,10509.20353,W,0.060,,270818,,,D*72
$GNVTG,,T,,M,0.060,N,0.112,K,D*3C
$GNGGA,195106.00,3947.65355,N,10509.20353,W,2,12,0.65,1708.2,M,-21.5,M,,0000*4D
$GNGSA,M,3,05,29,25,02,12,13,26,51,48,15,,,1.25,0.65,1.06*10
$GNGSA,M,3,68,83,84,74,75,85,70,,,,,,1.25,0.65,1.06*10
$GPGSV,4,1,13,02,31,075,33,05,56,054,34,12,09,182,33,13,24,121,34*7C
$GPGSV,4,2,13,15,17,164,46,20,03,226,31,21,24,280,,25,33,218,40*7C
$GPGSV,4,3,13,26,15,317,30,29,73,321,32,46,38,215,43,48,36,220,42*73
$GPGSV,4,4,13,51,44,183,41*40
$GLGSV,3,1,11,67,04,025,27,68,52,052,40,69,58,160,31,70,08,194,31*6C
$GLGSV,3,2,11,74,13,262,25,75,13,315,15,82,01,112,11,83,43,086,26*68
$GLGSV,3,3,11,84,55,346,38,85,10,307,08,,,,43*64
$GNRMC,195107.00,A,3947.65353,N,10509.20360,W,0.080,,270818,,,D*7B
$GNVTG,,T,,M,0.080,N,0.148,K,D*3D
$GNGGA,195107.00,3947.65353,N,10509.20360,W,2,12,0.65,1708.2,M,-21.5,M,,0000*4A
$GNGSA,M,3,05,29,25,02,12,13,26,51,48,15,,,1.25,0.65,1.06*10
$GNGSA,M,3,68,83,84,74,75,85,70,,,,,,1.25,0.65,1.06*10
$GPGSV,4,1,13,02,31,075,34,05,56,054,33,12,09,182,33,13,24,121,35*7D
$GPGSV,4,2,13,15,17,164,46,20,03,226,31,21,24,280,,25,33,218,41*7D
$GPGSV,4,3,13,26,15,317,29,29,73,321,33,46,38,215,43,48,36,220,42*7A
$GPGSV,4,4,13,51,44,183,41*40
$GLGSV,3,1,11,67,04,025,28,68,52,052,40,69,58,160,30,70,08,194,31*62
$GLGSV,3,2,11,74,13,262,25,75,13,315,14,82,01,112,15,83,43,086,27*6C
$GLGSV,3,3,11,84,55,346,39,85,10,307,15,,,,43*69
$GNRMC,195108.00,A,3947.65352,N,10509.20365,W,0.037,,270818,,,D*7C
$GNVTG,,T,,M,0.037,N,0.069,K,D*33
$GNGGA,195108.00,3947.65352,N,10509.20365,W,2,12,0.65,1708.1,M,-21.5,M,,0000*42
$GNGSA,M,3,05,29,25,02,12,13,26,51,48,15,,,1.25,0.65,1.07*11
$GNGSA,M,3,68,83,84,74,75,85,70,,,,,,1.25,0.65,1.07*11
$GPGSV,4,1,13,02,31,075,33,05,56,054,34,12,09,182,31,13,24,121,34*7E
$GPGSV,4,2,13,15,17,164,46,20,03,226,31,21,24,280,,25,33,218,41*7D
$GPGSV,4,3,13,26,15,317,29,29,73,321,31,46,38,215,43,48,36,220,42*78
$GPGSV,4,4,13,51,44,183,41*40
$GLGSV,3,1,11,67,04,025,27,68,52,052,40,69,58,160,28,70,08,194,31*64
$GLGSV,3,2,11,74,13,262,25,75,13,315,14,82,01,112,12,83,43,086,27*6B
$GLGSV,3,3,11,84,55,346,39,85,10,307,19,,,,43*65
$GNRMC,195109.00,A,3947.65350,N,10509.20370,W,0.017,,270818,,,D*79
$GNVTG,,T,,M,0.017,N,0.032,K,D*3F
$GNGGA,195109.00,3947.65350,N,10509.20370,W,2,12,0.65,1708.1,M,-21.5,M,,0000*45
$GNGSA,M,3,05,29,25,02,12,13,26,51,48,15,,,1.25,0.65,1.07*11
$GNGSA,M,3,68,83,84,74,75,85,70,,,,,,1.25,0.65,1.07*11
$GPGSV,4,1,13,02,31,075,33,05,56,054,35,12,09,182,30,13,24,121,34*7E
$GPGSV,4,2,13,15,17,164,46,20,04,226,31,21,24,280,,25,33,218,40*7B
$GPGSV,4,3,13,26,15,317,30,29,73,321,35,46,38,215,43,48,36,220,42*74
$GPGSV,4,4,13,51,44,183,41*40
$GLGSV,3,1,10,67,04,025,27,68,52,052,40,69,58,160,25,70,08,194,31*68
$GLGSV,3,2,10,74,13,262,27,75,13,315,17,82,01,112,14,83,43,086,27*6D
$GLGSV,3,3,10,84,55,346,38,85,10,307,21*69
$GNRMC,195110.00,A,3947.65346,N,10509.20376,W,0.030,,270818,,,D*75
$GNVTG,,T,,M,0.030,N,0.055,K,D*3B
$GNGGA,195110.00,3947.65346,N,10509.20376,W,2,12,0.65,1708.1,M,-21.5,M,,0000*4C
$GNGSA,M,3,05,29,25,02,12,13,26,51,48,15,,,1.25,0.65,1.07*11
$GNGSA,M,3,68,83,84,74,75,85,70,,,,,,1.25,0.65,1.07*11
$GPGSV,4,1,13,02,31,075,33,05,56,054,34,12,09,182,31,13,24,121,35*7F
$GPGSV,4,2,13,15,17,164,46,20,04,226,31,21,25,280,,25,33,218,40*7A
$GPGSV,4,3,13,26,15,317,29,29,73,321,35,46,38,215,43,48,36,220,42*7C
$GPGSV,4,4,13,51,44,183,41*40
$GLGSV,3,1,11,67,04,025,27,68,52,052,40,69,58,160,22,70,08,194,31*6E
$GLGSV,3,2,11,74,13,262,27,75,13,315,17,82,01,112,15,83,43,086,27*6D
$GLGSV,3,3,11,84,55,346,38,85,10,307,23,,,,42*6C
$GNRMC,195111.00,A,3947.65345,N,10509.20385,W,0.026,,270818,,,D*7C
$GNVTG,,T,,M,0.026,N,0.047,K,D*3F
$GNGGA,195111.00,3947.65345,N,10509.20385,W,2,12,0.65,1708.1,M,-21.5,M,,0000*42
$GNGSA,M,3,05,29,25,02,12,13,26,51,48,15,,,1.25,0.65,1.07*11
$GNGSA,M,3,68,83,84,74,75,85,70,,,,,,1.25,0.65,1.07*11
$GPGSV,4,1,13,02,31,075,33,05,56,054,34,12,09,182,30,13,24,121,35*7E
$GPGSV,4,2,13,15,17,164,46,20,04,226,32,21,25,280,,25,33,218,40*79
$GPGSV,4,3,13,26,15,317,29,29,73,321,34,46,38,215,42,48,36,220,42*7C
$GPGSV,4,4,13,51,44,183,41*40
$GLGSV,3,1,11,67,04,025,26,68,52,052,40,69,58,160,20,70,08,194,31*6D
$GLGSV,3,2,11,74,13,262,27,75,13,315,18,82,01,112,14,83,43,086,27*63
$GLGSV,3,3,11,84,55,346,39,85,10,307,25,,,,43*6A
$GNRMC,195112.00,A,3947.65343,N,10509.20395,W,0.025,,270818,,,D*7B
$GNVTG,,T,,M,0.025,N,0.046,K,D*3D
$GNGGA,195112.00,3947.65343,N,10509.20395,W,2,12,0.65,1708.1,M,-21.5,M,,0000*46
$GNGSA,M,3,05,29,25,02,12,13,26,51,48,15,,,1.25,0.65,1.07*11
$GNGSA,M,3,68,83,84,74,75,85,70,,,,,,1.25,0.65,1.07*11
$GPGSV,4,1,13,02,31,075,33,05,56,054,34,12,09,182,30,13,24,121,35*7E
$GPGSV,4,2,13,15,17,164,46,20,04,226,31,21,25,280,,25,33,218,40*7A
$GPGSV,4,3,13,26,15,317,29,29,73,321,33,46,38,215,42,48,36,220,42*7B
$GPGSV,4,4,13,51,44,183,41*40
$GLGSV,3,1,11,67,04,025,27,68,52,052,40,69,58,160,20,70,08,194,31*6C
$GLGSV,3,2,11,74,13,262,27,75,13,315,17,82,01,112,12,83,43,086,27*6A
$GLGSV,3,3,11,84,55,346,39,85,10,307,25,,,,44*6D
$GNRMC,195113.00,A,3947.65341,N,10509.20406,W,0.009,,270818,,,D*7B
$GNVTG,,T,,M,0.009,N,0.016,K,D*36
$GNGGA,195113.00,3947.65341,N,10509.20406,W,2,12,0.65,1708.2,M,-21.5,M,,0000*4B
$GNGSA,M,3,05,29,25,02,12,13,26,51,48,15,,,1.25,0.65,1.07*11
$GNGSA,M,3,68,83,84,74,75,85,70,,,,,,1.25,0.65,1.07*11
$GPGSV,4,1,13,02,31,075,33,05,56,054,35,12,09,182,31,13,24,121,35*7E
$GPGSV,4,2,13,15,17,164,46,20,04,226,32,21,25,280,23,25,33,218,40*78
$GPGSV,4,3,13,26,15,317,29,29,73,321,34,46,38,215,42,48,36,220,42*7C
$GPGSV,4,4,13,51,44,183,41*40
$GLGSV,3,1,11,67,04,025,27,68,52,052,40,69,58,160,22,70,08,194,30*6F
$GLGSV,3,2,11,74,13,262,26,75,13,315,17,82,01,112,11,83,43,086,28*67
$GLGSV,3,3,11,84,55,346,39,85,10,307,24,,,,43*6B
$GNRMC,195114.00,A,3947.65336,N,10509.20415,W,0.073,,270818,,,D*73
$GNVTG,,T,,M,0.073,N,0.135,K,D*3B
$GNGGA,195114.00,3947.65336,N,10509.20415,W,2,12,0.65,1708.4,M,-21.5,M,,0000*48
$GNGSA,M,3,05,29,25,02,12,13,26,51,48,15,,,1.25,0.65,1.07*11
$GNGSA,M,3,68,83,84,74,75,85,70,,,,,,1.25,0.65,1.07*11
$GPGSV,4,1,13,02,31,075,32,05,56,054,36,12,09,182,30,13,24,121,34*7C
$GPGSV,4,2,13,15,17,164,46,20,04,226,32,21,25,280,,25,33,218,40*79
$GPGSV,4,3,13,26,15,317,29,29,73,321,33,46,38,215,42,48,36,220,42*7B
$GPGSV,4,4,13,51,44,183,41*40
$GLGSV,3,1,11,67,04,025,26,68,52,052,40,69,58,160,24,70,08,194,30*68
$GLGSV,3,2,11,74,13,262,26,75,13,315,18,82,01,112,14,83,43,086,29*6C
$GLGSV,3,3,11,84,55,346,39,85,10,307,25,,,,43*6A
$GNRMC,195115.00,A,3947.65332,N,10509.20426,W,0.075,,270818,,,D*70
$GNVTG,,T,,M,0.075,N,0.138,K,D*30
$GNGGA,195115.00,3947.65332,N,10509.20426,W,2,12,0.65,1708.4,M,-21.5,M,,0000*4D
$GNGSA,M,3,05,29,25,02,12,13,26,51,48,15,,,1.25,0.65,1.07*11
$GNGSA,M,3,68,83,84,74,75,85,70,,,,,,1.25,0.65,1.07*11
$GPGSV,4,1,13,02,31,075,32,05,56,054,36,12,09,182,29,13,24,121,34*74
$GPGSV,4,2,13,15,17,164,46,20,04,226,32,21,25,280,,25,33,218,40*79
$GPGSV,4,3,13,26,15,316,29,29,73,321,34,46,38,215,43,48,36,220,42*7C
$GPGSV,4,4,13,51,44,183,41*40
$GLGSV,3,1,11,67,04,025,26,68,52,052,41,69,58,160,25,70,08,194,30*68
$GLGSV,3,2,11,74,13,262,24,75,13,315,16,82,01,112,16,83,43,086,29*62
$GLGSV,3,3,11,84,55,346,39,85,10,307,24,,,,43*6B
$GNRMC,195116.00,A,3947.65328,N,10509.20432,W,0.067,,270818,,,D*7E
$GNVTG,,T,,M,0.067,N,0.125,K,D*3F
$GNGGA,195116.00,3947.65328,N,10509.20432,W,2,12,0.65,1708.5,M,-21.5,M,,0000*41
$GNGSA,M,3,05,29,25,02,12,13,26,51,48,15,,,1.25,0.65,1.07*11
$GNGSA,M,3,68,83,84,74,75,85,70,,,,,,1.25,0.65,1.07*11
$GPGSV,4,1,13,02,31,075,32,05,56,054,36,12,09,182,30,13,24,121,35*7D
$GPGSV,4,2,13,15,17,164,46,20,04,226,32,21,25,280,,25,33,218,40*79
$GPGSV,4,3,13,26,15,316,31,29,73,321,33,46,38,215,43,48,36,220,42*72
$GPGSV,4,4,13,51,44,183,40*41
$GLGSV,3,1,11,67,04,025,26,68,52,052,40,69,58,160,26,70,08,194,30*6A
$GLGSV,3,2,11,74,13,262,23,75,13,315,16,82,01,112,15,83,43,086,29*66
$GLGSV,3,3,11,84,55,346,39,85,10,307,23,,,,43*6C
$GNRMC,195117.00,A,3947.65324,N,10509.20437,W,0.063,,270818,,,D*72
$GNVTG,,T,,M,0.063,N,0.117,K,D*3A
$GNGGA,195117.00,3947.65324,N,10509.20437,W,2,12,0.65,1708.6,M,-21.5,M,,0000*4A
$GNGSA,M,3,05,29,25,02,12,13,26,51,48,15,,,1.25,0.65,1.07*11
$GNGSA,M,3,68,83,84,74,75,85,70,,,,,,1.25,0.65,1.07*11
$GPGSV,4,1,13,02,31,075,32,05,56,054,35,12,09,182,29,13,24,121,35*76
$GPGSV,4,2,13,15,17,164,46,20,04,226,31,21,25,280,25,25,33,218,40*7D
$GPGSV,4,3,13,26,15,316,30,29,73,321,33,46,38,215,43,48,36,220,42*73
$GPGSV,4,4,13,51,44,183,41*40
$GLGSV,3,1,11,67,04,025,26,68,52,052,40,69,58,160,28,70,08,194,31*65
$GLGSV,3,2,11,74,13,262,24,75,13,315,19,82,01,112,14,83,43,086,29*6F
$GLGSV,3,3,11,84,55,346,39,85,10,307,24,,,,43*6B
$GNRMC,195118.00,A,3947.65321,N,10509.20444,W,0.080,,270818,,,D*71
$GNVTG,,T,,M,0.080,N,0.149,K,D*3C
$GNGGA,195118.00,3947.65321,N,10509.20444,W,2,12,0.65,1708.6,M,-21.5,M,,0000*44
$GNGSA,M,3,05,29,25,02,12,13,26,51,48,15,,,1.25,0.65,1.07*11
$GNGSA,M,3,68,83,84,74,75,85,70,,,,,,1.25,0.65,1.07*11
$GPGSV,4,1,13,02,31,075,32,05,56,054,35,12,09,182,29,13,24,121,34*77
$GPGSV,4,2,13,15,17,164,46,20,04,226,32,21,25,280,23,25,33,218,40*78
$GPGSV,4,3,13,26,15,316,30,29,73,321,32,46,38,215,43,48,36,220,42*72
$GPGSV,4,4,13,51,44,183,41*40
$GLGSV,3,1,11,67,04,025,26,68,52,052,41,69,58,160,28,70,08,194,30*65
$GLGSV,3,2,11,74,13,262,23,75,13,315,21,82,01,112,14,83,43,086,28*62
$GLGSV,3,3,11,84,55,346,39,85,10,307,25,,,,43*6A
$GNRMC,195119.00,A,3947.65318,N,10509.20451,W,0.040,,270818,,,D*72
$GNVTG,,T,,M,0.040,N,0.074,K,D*3F
$GNGGA,195119.00,3947.65318,N,10509.20451,W,2,12,0.65,1708.6,M,-21.5,M,,0000*4B
$GNGSA,M,3,05,29,25,02,12,13,26,51,48,15,,,1.25,0.65,1.07*11
$GNGSA,M,3,68,83,84,74,75,85,70,,,,,,1.25,0.65,1.07*11
$GPGSV,4,1,13,02,31,075,32,05,56,054,35,12,09,182,29,13,24,121,35*76
$GPGSV,4,2,13,15,17,164,45,20,04,226,31,21,25,280,,25,33,218,40*79
$GPGSV,4,3,13,26,15,316,30,29,73,321,32,46,38,215,42,48,36,220,42*73
$GPGSV,4,4,13,51,44,183,40*41
$GLGSV,3,1,11,67,04,025,26,68,52,052,40,69,58,160,31,70,08,194,30*6C
$GLGSV,3,2,11,74,13,262,23,75,13,315,21,82,01,112,08,83,43,086,28*6F
$GLGSV,3,3,11,84,55,346,39,85,10,307,25,,,,43*6A
$GNRMC,195120.00,A,3947.65317,N,10509.20458,W,0.084,,270818,,,D*76
$GNVTG,,T,,M,0.084,N,0.155,K,D*35
$GNGGA,195120.00,3947.65317,N,10509.20458,W,2,12,0.65,1708.6,M,-21.5,M,,0000*47
$GNGSA,M,3,05,29,25,02,12,13,26,51,48,15,,,1.25,0.65,1.07*11
$GNGSA,M,3,68,83,84,74,75,85,70,,,,,,1.25,0.65,1.07*11
$GPGSV,4,1,13,02,31,075,33,05,56,054,36,12,09,182,30,13,24,121,35*7C
$GPGSV,4,2,13,15,17,164,45,20,04,226,31,21,25,280,,25,33,218,40*79
$GPGSV,4,3,13,26,15,316,30,29,73,321,32,46,38,215,42,48,36,220,42*73
$GPGSV,4,4,13,51,44,183,40*41
$GLGSV,3,1,11,67,04,025,27,68,52,052,41,69,58,160,32,70,08,194,31*6E
$GLGSV,3,2,11,74,13,262,22,75,13,315,21,82,01,112,13,83,43,086,28*64
$GLGSV,3,3,11,84,55,346,39,85,10,307,25,,,,43*6A
$GNRMC,195121.00,A,3947.65315,N,10509.20461,W,0.065,,270818,,,D*70
$GNVTG,,T,,M,0.065,N,0.120,K,D*38
$GNGGA,195121.00,3947.65315,N,10509.20461,W,2,12,0.65,1708.5,M,-21.5,M,,0000*4D
$GNGSA,M,3,05,29,25,02,12,13,26,51,48,15,,,1.25,0.65,1.07*11
$GNGSA,M,3,68,83,84,74,75,85,70,,,,,,1.25,0.65,1.07*11
$GPGSV,4,1,13,02,31,075,33,05,56,054,35,12,09,182,29,13,24,121,35*77
$GPGSV,4,2,13,15,17,164,46,20,04,226,31,21,25,280,,25,33,218,40*7A
$GPGSV,4,3,13,26,15,316,30,29,73,321,33,46,38,215,42,48,36,220,42*72
$GPGSV,4,4,13,51,44,183,41*40
$GLGSV,3,1,11,67,04,025,27,68,52,052,40,69,58,160,31,70,08,194,31*6C
$GLGSV,3,2,11,74,13,262,23,75,13,315,20,82,01,112,15,83,43,086,28*62
$GLGSV,3,3,11,84,55,346,39,85,10,307,26,,,,43*69
$GNRMC,195122.00,A,3947.65313,N,10509.20466,W,0.030,,270818,,,D*72
$GNVTG,,T,,M,0.030,N,0.056,K,D*38
$GNGGA,195122.00,3947.65313,N,10509.20466,W,2,12,0.65,1708.6,M,-21.5,M,,0000*4C
$GNGSA,M,3,05,29,25,02,12,13,26,51,48,15,,,1.25,0.65,1.07*11
$GNGSA,M,3,68,83,84,74,75,85,70,,,,,,1.25,0.65,1.07*11
$GPGSV,4,1,13,02,31,075,32,05,56,054,35,12,09,182,29,13,24,121,35*76
$GPGSV,4,2,13,15,17,164,45,20,04,226,31,21,25,280,24,25,33,218,40*7F
$GPGSV,4,3,13,26,15,316,30,29,73,321,33,46,38,215,42,48,36,220,42*72
$GPGSV,4,4,13,51,44,183,41*40
$GLGSV,3,1,11,67,04,025,26,68,52,052,40,69,58,160,32,70,08,194,31*6E
$GLGSV,3,2,11,74,13,262,23,75,13,315,19,82,01,112,16,83,43,086,27*64
$GLGSV,3,3,11,84,55,346,39,85,10,307,26,,,,43*69
$GNRMC,195123.00,A,3947.65311,N,10509.20470,W,0.033,,270818,,,D*75
$GNVTG,,T,,M,0.033,N,0.061,K,D*3F
$GNGGA,195123.00,3947.65311,N,10509.20470,W,2,12,0.65,1708.6,M,-21.5,M,,0000*48
$GNGSA,M,3,05,29,25,02,12,13,26,51,48,15,,,1.25,0.65,1.07*11
$GNGSA,M,3,68,83,84,74,75,85,70,,,,,,1.25,0.65,1.07*11
$GPGSV,4,1,13,02,31,075,33,05,56,054,35,12,09,182,29,13,24,121,35*77
$GPGSV,4,2,13,15,17,164,46,20,04,226,32,21,25,280,23,25,33,218,40*78
$GPGSV,4,3,13,26,15,316,30,29,73,321,33,46,38,215,43,48,36,220,42*73
$GPGSV,4,4,13,51,44,183,41*40
$GLGSV,3,1,11,67,04,025,26,68,52,052,40,69,58,160,32,70,08,194,31*6E
$GLGSV,3,2,11,74,13,262,24,75,13,315,18,82,01,112,15,83,43,086,26*60
$GLGSV,3,3,11,84,55,346,39,85,10,307,25,,,,43*6A
$GNRMC,195124.00,A,3947.65309,N,10509.20474,W,0.031,,270818,,,D*7D
$GNVTG,,T,,M,0.031,N,0.057,K,D*38
$GNGGA,195124.00,3947.65309,N,10509.20474,W,2,12,0.65,1708.6,M,-21.5,M,,0000*42
$GNGSA,M,3,05,29,25,02,12,21,13,26,51,48,15,,1.29,0.65,1.11*19
$GNGSA,M,3,68,83,84,74,75,85,70,,,,,,1.29,0.65,1.11*1A
$GPGSV,4,1,13,02,31,075,33,05,56,054,35,12,09,182,28,13,24,121,35*76
$GPGSV,4,2,13,15,17,164,45,20,04,226,32,21,25,280,23,25,33,218,40*7B
$GPGSV,4,3,13,26,15,316,30,29,73,321,33,46,38,215,42,48,36,220,42*72
$GPGSV,4,4,13,51,44,183,41*40
$GLGSV,3,1,11,67,04,025,26,68,52,052,40,69,58,160,33,70,08,194,30*6E
$GLGSV,3,2,11,74,13,262,24,75,13,315,17,82,01,112,15,83,43,086,27*6E
$GLGSV,3,3,11,84,55,346,39,85,10,307,25,,,,43*6A
$GNRMC,195125.00,A,3947.65306,N,10509.20477,W,0.034,,270818,,,D*75
$GNVTG,,T,,M,0.034,N,0.063,K,D*3A
$GNGGA,195125.00,3947.65306,N,10509.20477,W,2,12,0.63,1708.6,M,-21.5,M,,0000*49
$GNGSA,M,3,05,29,25,02,12,21,13,26,51,48,15,,1.24,0.63,1.06*14
$GNGSA,M,3,68,83,84,74,75,85,70,,,,,,1.24,0.63,1.06*17
$GPGSV,4,1,13,02,31,075,33,05,56,054,36,12,09,182,30,13,24,121,35*7C
$GPGSV,4,2,13,15,17,164,45,20,04,226,32,21,25,280,23,25,33,218,40*7B
$GPGSV,4,3,13,26,15,316,29,29,73,321,31,46,38,215,43,48,36,220,43*78
$GPGSV,4,4,13,51,44,183,41*40
$GLGSV,3,1,11,67,04,025,25,68,52,052,40,69,58,160,32,70,08,194,30*6C
$GLGSV,3,2,11,74,13,262,24,75,13,315,18,82,01,112,16,83,43,086,28*6D
$GLGSV,3,3,11,84,55,346,38,85,10,307,26,,,,43*68
$GNRMC,195126.00,A,3947.65304,N,10509.20478,W,0.074,,270818,,,D*7F
$GNVTG,,T,,M,0.074,N,0.137,K,D*3E
$GNGGA,195126.00,3947.65304,N,10509.20478,W,2,12,0.63,1708.6,M,-21.5,M,,0000*47
$GNGSA,M,3,05,29,25,02,12,21,13,26,51,48,15,,1.24,0.63,1.06*14
$GNGSA,M,3,68,83,84,74,75,85,70,,,,,,1.24,0.63,1.06*17
$GPGSV,4,1,13,02,31,075,33,05,56,054,36,12,09,182,31,13,24,121,35*7D
$GPGSV,4,2,13,15,17,164,45,20,04,226,31,21,25,280,22,25,33,218,40*79
$GPGSV,4,3,13,26,15,316,29,29,73,321,30,46,38,215,42,48,36,220,43*78
$GPGSV,4,4,13,51,44,183,41*40
$GLGSV,3,1,11,67,04,025,23,68,52,052,40,69,58,160,32,70,08,194,30*6A
$GLGSV,3,2,11,74,13,262,23,75,13,315,19,82,01,112,17,83,43,086,29*6B
$GLGSV,3,3,11,84,55,346,38,85,10,307,26,,,,43*68
$GNRMC,195127.00,A,3947.65302,N,10509.20480,W,0.068,,270818,,,D*72
$GNVTG,,T,,M,0.068,N,0.125,K,D*30
$GNGGA,195127.00,3947.65302,N,10509.20480,W,2,12,0.65,1708.6,M,-21.5,M,,0000*41
$GNGSA,M,3,05,29,25,02,12,13,26,51,48,15,,,1.25,0.65,1.07*11
$GNGSA,M,3,68,83,84,74,75,85,70,,,,,,1.25,0.65,1.07*11
$GPGSV,4,1,13,02,31,075,33,05,56,054,36,12,09,182,30,13,24,121,33*7A
$GPGSV,4,2,13,15,17,164,45,20,04,226,31,21,25,280,,25,33,218,41*78
$GPGSV,4,3,13,26,15,316,29,29,73,321,31,46,38,215,43,48,36,220,43*78
$GPGSV,4,4,13,51,44,183,41*40
$GLGSV,3,1,11,67,04,025,24,68,52,052,40,69,58,160,33,70,08,194,30*6C
$GLGSV,3,2,11,74,13,262,21,75,13,315,19,82,01,112,17,83,43,086,29*69
$GLGSV,3,3,11,84,55,346,38,85,10,307,25,,,,43*6B
$GNRMC,195128.00,A,3947.65304,N,10509.20480,W,0.029,,270818,,,D*7E
$GNVTG,,T,,M,0.029,N,0.055,K,D*33
$GNGGA,195128.00,3947.65304,N,10509.20480,W,2,12,0.65,1708.5,M,-21.5,M,,0000*4B
$GNGSA,M,3,05,29,25,02,12,13,26,51,48,15,,,1.25,0.65,1.07*11
$GNGSA,M,3,68,83,84,74,75,85,70,,,,,,1.25,0.65,1.07*11
$GPGSV,4,1,13,02,31,075,32,05,56,054,36,12,09,182,32,13,24,121,35*7F
$GPGSV,4,2,13,15,17,164,45,20,04,226,31,21,25,280,,25,33,218,41*78
$GPGSV,4,3,13,26,15,316,29,29,73,321,32,46,38,215,42,48,36,220,42*7B
$GPGSV,4,4,13,51,44,183,41*40
$GLGSV,3,1,11,67,04,025,24,68,52,052,41,69,58,160,32,70,08,194,30*6C
$GLGSV,3,2,11,74,13,262,19,75,13,315,20,82,01,112,17,83,43,086,29*68
$GLGSV,3,3,11,84,55,346,39,85,10,307,24,,,,43*6B
$GNRMC,195129.00,A,3947.65305,N,10509.20481,W,0.054,,270818,,,D*75
$GNVTG,,T,,M,0.054,N,0.100,K,D*38
$GNGGA,195129.00,3947.65305,N,10509.20481,W,2,12,0.65,1708.5,M,-21.5,M,,0000*4A
$GNGSA,M,3,05,29,25,02,12,13,26,51,48,15,,,1.25,0.65,1.07*11
$GNGSA,M,3,68,83,84,74,75,85,70,,,,,,1.25,0.65,1.07*11
$GPGSV,4,1,13,02,31,075,34,05,56,054,34,12,09,182,30,13,24,121,35*79
$GPGSV,4,2,13,15,17,164,45,20,04,226,31,21,25,280,,25,33,218,41*78
$GPGSV,4,3,13,26,15,316,30,29,73,321,31,46,38,215,42,48,36,220,42*70
$GPGSV,4,4,13,51,44,183,42*43
$GLGSV,3,1,11,67,04,025,24,68,52,052,40,69,58,160,31,70,08,194,30*6E
$GLGSV,3,2,11,74,13,262,21,75,13,315,21,82,01,112,14,83,43,086,29*61
$GLGSV,3,3,11,84,55,346,39,85,10,307,24,,,,43*6B
$GNRMC,195130.00,A,3947.65306,N,10509.20482,W,0.025,,270818,,,D*7B
$GNVTG,,T,,M,0.025,N,0.047,K,D*3C
$GNGGA,195130.00,3947.65306,N,10509.20482,W,2,12,0.65,1708.4,M,-21.5,M,,0000*43
$GNGSA,M,3,05,29,25,02,12,13,26,51,48,15,,,1.25,0.65,1.07*11
$GNGSA,M,3,68,83,84,74,75,85,70,,,,,,1.25,0.65,1.07*11
$GPGSV,4,1,13,02,31,075,33,05,56,054,34,12,09,182,32,13,24,121,35*7C
$GPGSV,4,2,13,15,17,164,45,20,04,226,31,21,25,280,,25,33,218,40*79
$GPGSV,4,3,13,26,15,316,29,29,73,321,31,46,38,215,42,48,36,220,42*78
$GPGSV,4,4,13,51,44,183,42*43
$GLGSV,3,1,11,67,04,025,24,68,52,052,40,69,58,160,35,70,08,194,30*6A
$GLGSV,3,2,11,74,13,262,21,75,13,315,22,82,01,112,14,83,43,086,28*63
$GLGSV,3,3,11,84,55,346,39,85,10,307,24,,,,43*6B
$GNRMC,195131.00,A,3947.65305,N,10509.20481,W,0.038,,270818,,,D*76
$GNVTG,,T,,M,0.038,N,0.071,K,D*35
$GNGGA,195131.00,3947.65305,N,10509.20481,W,2,12,0.65,1708.4,M,-21.5,M,,0000*42
$GNGSA,M,3,05,29,25,02,12,13,26,51,48,15,,,1.25,0.65,1.07*11
$GNGSA,M,3,68,83,84,74,75,85,70,,,,,,1.25,0.65,1.07*11
$GPGSV,4,1,13,02,31,075,31,05,56,054,34,12,09,182,34,13,24,121,35*78
$GPGSV,4,2,13,15,17,164,45,20,04,226,30,21,25,280,26,25,33,218,40*7C
$GPGSV,4,3,13,26,15,316,29,29,73,321,30,46,38,215,42,48,36,220,42*79
$GPGSV,4,4,13,51,44,183,41*40
$GLGSV,3,1,11,67,04,025,25,68,52,052,40,69,58,160,33,70,08,194,30*6D
$GLGSV,3,2,11,74,13,262,24,75,13,315,23,82,01,112,14,83,43,086,28*67
$GLGSV,3,3,11,84,55,346,39,85,10,307,24,,,,43*6B
$GNRMC,195132.00,A,3947.65304,N,10509.20481,W,0.047,,270818,,,D*7C
$GNVTG,,T,,M,0.047,N,0.087,K,D*34
$GNGGA,195132.00,3947.65304,N,10509.20481,W,2,12,0.65,1708.4,M,-21.5,M,,0000*40
$GNGSA,M,3,05,29,25,02,12,13,26,51,48,15,,,1.25,0.65,1.07*11
$GNGSA,M,3,68,83,84,74,75,85,70,,,,,,1.25,0.65,1.07*11
$GPGSV,4,1,13,02,31,075,34,05,56,054,33,12,09,182,34,13,24,121,35*7A
$GPGSV,4,2,13,15,17,164,45,20,04,226,30,21,25,280,24,25,33,218,40*7E
$GPGSV,4,3,13,26,15,316,28,29,73,321,32,46,38,215,42,48,36,220,42*7A
$GPGSV,4,4,13,51,44,183,41*40
$GLGSV,3,1,11,67,04,025,26,68,52,052,41,69,58,160,34,70,08,194,31*69
$GLGSV,3,2,11,74,13,262,24,75,13,315,24,82,01,112,12,83,43,086,27*69
$GLGSV,3,3,11,84,55,346,39,85,10,307,23,,,,43*6C
$GNRMC,195133.00,A,3947.65301,N,10509.20481,W,0.053,,270818,,,D*7D
$GNVTG,,T,,M,0.053,N,0.099,K,D*3E
$GNGGA,195133.00,3947.65301,N,10509.20481,W,2,12,0.65,1708.5,M,-21.5,M,,0000*45
$GNGSA,M,3,05,29,25,02,12,21,13,26,51,48,15,,1.25,0.65,1.07*12
$GNGSA,M,3,68,83,84,74,75,85,70,,,,,,1.25,0.65,1.07*11
$GPGSV,4,1,13,02,31,075,33,05,56,054,34,12,09,182,33,13,24,121,34*7C
$GPGSV,4,2,13,15,17,164,45,20,04,226,31,21,25,280,24,25,33,218,40*7F
$GPGSV,4,3,13,26,15,316,27,29,73,321,30,46,38,215,42,48,36,220,42*77
$GPGSV,4,4,13,51,44,183,41*40
$GLGSV,3,1,11,67,04,025,26,68,52,052,41,69,58,160,30,70,08,194,31*6D
$GLGSV,3,2,11,74,13,262,24,75,13,315,23,82,01,112,11,83,43,086,26*6C
$GLGSV,3,3,11,84,55,346,39,85,10,307,25,,,,43*6A
$GNRMC,195134.00,A,3947.65299,N,10509.20482,W,0.098,,270818,,,D*7E
$GNVTG,,T,,M,0.098,N,0.181,K,D*31
$GNGGA,195134.00,3947.65299,N,10509.20482,W,2,12,0.63,1708.6,M,-21.5,M,,0000*44
$GNGSA,M,3,05,29,25,02,12,21,13,26,51,48,15,,1.24,0.63,1.06*14
$GNGSA,M,3,68,83,84,74,75,85,70,,,,,,1.24,0.63,1.06*17
$GPGSV,4,1,13,02,31,075,33,05,56,054,34,12,09,182,31,13,24,121,33*79
$GPGSV,4,2,13,15,17,164,45,20,04,226,31,21,25,280,25,25,33,218,40*7E
$GPGSV,4,3,13,26,15,316,28,29,73,321,32,46,38,215,43,48,36,220,42*7B
$GPGSV,4,4,13,51,44,183,41*40
$GLGSV,3,1,11,67,04,025,25,68,52,052,40,69,58,160,31,70,08,194,30*6F
$GLGSV,3,2,11,74,13,262,23,75,13,315,22,82,01,112,14,83,43,086,26*6F
$GLGSV,3,3,11,84,55,346,39,85,10,307,21,,,,43*6E
$GNRMC,195135.00,A,3947.65299,N,10509.20485,W,0.026,,270818,,,D*7D
$GNVTG,,T,,M,0.026,N,0.049,K,D*31
$GNGGA,195135.00,3947.65299,N,10509.20485,W,2,12,0.63,1708.5,M,-21.5,M,,0000*41
$GNGSA,M,3,05,29,25,02,12,21,13,26,51,48,15,,1.24,0.63,1.06*14
$GNGSA,M,3,68,83,84,74,75,85,70,,,,,,1.24,0.63,1.06*17
$GPGSV,4,1,13,02,31,075,33,05,56,054,34,12,09,182,30,13,24,121,34*7F
$GPGSV,4,2,13,15,17,164,45,20,04,226,31,21,25,280,25,25,33,218,40*7E
$GPGSV,4,3,13,26,15,316,29,29,73,321,32,46,38,215,43,48,36,220,42*7A
$GPGSV,4,4,13,51,44,183,41*40
$GLGSV,3,1,11,67,04,025,24,68,52,052,40,69,58,160,31,70,08,194,30*6E
$GLGSV,3,2,11,74,13,262,23,75,13,315,20,82,01,112,13,83,43,086,25*69
$GLGSV,3,3,11,84,55,346,39,85,10,307,22,,,,43*6D
$GNRMC,195136.00,A,3947.65299,N,10509.20489,W,0.008,,270818,,,D*7E
$GNVTG,,T,,M,0.008,N,0.015,K,D*34
$GNGGA,195136.00,3947.65299,N,10509.20489,W,2,12,0.63,1708.5,M,-21.5,M,,0000*4E
$GNGSA,M,3,05,29,25,02,12,21,13,26,51,48,15,,1.24,0.63,1.06*14
$GNGSA,M,3,68,83,84,74,75,85,70,,,,,,1.24,0.63,1.06*17
$GPGSV,4,1,13,02,31,075,33,05,56,054,33,12,09,182,30,13,24,121,33*7F
$GPGSV,4,2,13,15,17,164,44,20,04,226,31,21,25,280,26,25,33,218,40*7C
$GPGSV,4,3,13,26,15,316,30,29,73,321,33,46,38,215,43,48,36,220,42*73
$GPGSV,4,4,13,51,44,183,41*40
$GLGSV,3,1,11,67,04,025,23,68,52,052,40,69,58,160,29,70,08,194,30*60
$GLGSV,3,2,11,74,13,262,22,75,13,315,18,82,01,112,14,83,43,086,26*67
$GLGSV,3,3,11,84,55,346,39,85,10,307,18,,,,43*64
$GNRMC,195137.00,A,3947.65300,N,10509.20491,W,0.040,,270818,,,D*7B
$GNVTG,,T,,M,0.040,N,0.073,K,D*38
$GNGGA,195137.00,3947.65300,N,10509.20491,W,2,12,0.63,1708.5,M,-21.5,M,,0000*47
$GNGSA,M,3,05,29,25,02,12,21,13,26,51,48,15,,1.24,0.63,1.07*15
$GNGSA,M,3,68,83,84,74,75,85,70,,,,,,1.24,0.63,1.07*16
$GPGSV,4,1,13,02,31,075,34,05,56,054,33,12,09,182,30,13,24,121,33*78
$GPGSV,4,2,13,15,17,164,44,20,04,226,31,21,25,280,26,25,33,218,41*7D
$GPGSV,4,3,13,26,15,316,29,29,73,321,31,46,38,215,43,48,36,220,42*79
$GPGSV,4,4,13,51,44,183,41*40
$GLGSV,3,1,11,67,04,025,24,68,52,052,39,69,58,160,28,70,08,194,30*68
$GLGSV,3,2,11,74,13,262,25,75,13,315,16,82,01,112,17,83,43,086,27*6C
$GLGSV,3,3,11,84,55,346,39,85,10,307,18,,,,43*64
$GNRMC,195138.00,A,3947.65300,N,10509.20492,W,0.042,,270818,,,D*75
$GNVTG,,T,,M,0.042,N,0.079,K,D*30
$GNGGA,195138.00,3947.65300,N,10509.20492,W,2,12,0.63,1708.4,M,-21.5,M,,0000*4A
$GNGSA,M,3,05,29,25,02,12,21,13,26,51,48,15,,1.24,0.63,1.07*15
$GNGSA,M,3,68,83,84,74,75,85,70,,,,,,1.24,0.63,1.07*16
$GPGSV,4,1,13,02,31,075,33,05,56,054,34,12,09,182,29,13,24,121,33*70
$GPGSV,4,2,13,15,17,164,44,20,04,226,31,21,25,280,25,25,33,218,41*7E
$GPGSV,4,3,13,26,15,316,30,29,73,321,31,46,38,215,43,48,36,220,42*71
$GPGSV,4,4,13,51,44,183,41*40
$GLGSV,3,1,11,67,04,025,25,68,52,052,40,69,58,160,26,70,08,194,30*69
$GLGSV,3,2,11,74,13,262,26,75,13,315,18,82,01,112,11,83,43,086,27*67
$GLGSV,3,3,11,84,55,346,39,85,10,307,18,,,,42*65
$GNRMC,195139.00,A,3947.65300,N,10509.20492,W,0.045,,270818,,,D*73
$GNVTG,,T,,M,0.045,N,0.083,K,D*32
$GNGGA,195139.00,3947.65300,N,10509.20492,W,2,12,0.63,1708.4,M,-21.5,M,,0000*4B
$GNGSA,M,3,05,29,25,02,12,21,13,26,51,48,15,,1.24,0.63,1.07*15
$GNGSA,M,3,68,83,84,74,75,85,70,,,,,,1.24,0.63,1.07*16
$GPGSV,4,1,13,02,31,075,33,05,56,054,34,12,09,182,32,13,24,121,33*7A
$GPGSV,4,2,13,15,17,164,45,20,04,226,32,21,25,280,25,25,33,218,41*7C
$GPGSV,4,3,13,26,15,316,29,29,73,321,32,46,38,215,42,48,36,220,42*7B
$GPGSV,4,4,13,51,44,183,41*40
$GLGSV,3,1,11,67,04,025,25,68,52,052,40,69,58,160,25,70,08,194,30*6A
$GLGSV,3,2,11,74,13,262,25,75,13,315,20,82,01,112,10,83,43,086,27*6E
$GLGSV,3,3,11,84,55,346,38,85,10,307,20,90,,,42*66
$GNRMC,195140.00,A,3947.65302,N,10509.20490,W,0.035,,270818,,,D*7A
$GNVTG,,T,,M,0.035,N,0.065,K,D*3D
$GNGGA,195140.00,3947.65302,N,10509.20490,W,2,12,0.63,1708.1,M,-21.5,M,,0000*40
$GNGSA,M,3,05,29,25,02,12,21,13,26,51,48,15,,1.24,0.63,1.07*15
$GNGSA,M,3,68,83,84,74,75,85,70,,,,,,1.24,0.63,1.07*16
$GPGSV,4,1,13,02,31,075,33,05,56,054,34,12,09,182,36,13,24,121,34*79
$GPGSV,4,2,13,15,17,164,45,20,04,226,32,21,25,280,26,25,33,218,40*7E
$GPGSV,4,3,13,26,15,316,29,29,73,321,33,46,38,215,42,48,36,220,42*7A
$GPGSV,4,4,13,51,44,183,41*40
$GLGSV,3,1,11,67,04,025,25,68,52,052,40,69,58,160,28,70,08,194,30*67
$GLGSV,3,2,11,74,13,262,23,75,13,315,20,82,01,112,13,83,43,086,27*6B
$GLGSV,3,3,11,84,55,346,38,85,10,307,21,90,,,42*67
